name,iso,entity_type,country,area,num_commit,lat,lng,population,population_year,state,admin_1,initiatives_committed,region
!Kheis,ZAF,City,South Africa,11107,2,-30.4620482,17.9929881,16637,2011,Northern Cape,,GlobalCovenantofMayors2019;NAZCA,Sub-Saharan Africa
25 De Mayo,ARG,City,Argentina,NA,2,-35.416667,-60.166667,23408,2010,Buenos Aires,Veinticinco de Mayo,NAZCA2020;DDLNetZeroDB2020;RacetoZero2020ZCA2020,Latin America and Caribbean
25 De Mayo,ARG,City,Argentina,NA,2,-35.416667,-60.166667,23408,2010,Buenos Aires,Veinticinco de Mayo,NAZCA2020;DDLNetZeroDB2020;RacetoZero2020ZCA2020,Latin America and Caribbean
25 De Mayo,ARG,City,Argentina,NA,2,-35.416667,-60.166667,23408,2010,Buenos Aires,Veinticinco de Mayo,NAZCA2020;DDLNetZeroDB2020;RacetoZero2020ZCA2020,Latin America and Caribbean
A BAÑA,ESP,City,Spain,98.63,NA,42.967,-8.767000000000001,3967,2018,A Coruña,A Coruña,EUCovenantofMayors2021,Europe
A Bola,ESP,City,Spain,34.9,3,42.15194444,-7.913888889,1339,2018,Cáceres,Terra de Celanova,EUCovenantofMayors2021;GCoM2021;GCoMHarmonized2021;GCoM2021,Europe
A Cañiza,ESP,City,Spain,108.1,NA,42.21278,-8.27444,5173,2018,Pontevedra,Pontevedra,EUCovenantofMayors2021,Europe
A Coruña,ESP,City,Spain,37.83,4,43.3712091,-8.3958767,247482,2018,NA,,EUCovenantofMayors2021;GCoM2021;GCoMHarmonized2021;GCoM2021,Europe
Å empeter-Vrtojba,SVN,City,Slovenia,15,3,45.916667,13.65,6269,NA,Šempeter–Vrtojba,,EUCovenantofMayors2021;GCoM2021;GCoMHarmonized2021;GCoM2021,Europe
A Estrada,ESP,City,Spain,NA,NA,42.7,-8.482999999999999,20661,2018,Pontevedra,Pontevedra,EUCovenantofMayors2021,Europe
A GUARDA,ESP,City,Spain,20.5,NA,41.90167,-8.87528,10013,2018,Pontevedra,Pontevedra,EUCovenantofMayors2021,Europe
A ILLA DE AROUSA,ESP,City,Spain,7,NA,42.55444,-8.86389,4958,2018,Pontevedra,Pontevedra,EUCovenantofMayors2021,Europe
A LARACHA,ESP,City,Spain,125.95,NA,43.24861,-8.58333,11302,2018,A Coruña,Carballo,EUCovenantofMayors2021,Europe
A MERCA,ESP,City,Spain,51,NA,42.22306,-7.90528,1911,2018,Ourense,Ourense,EUCovenantofMayors2021,Europe
A Mezquita,ESP,City,Spain,104.3,NA,42.011390000000006,-7.04528,1039,2018,Ourense,Ourense,EUCovenantofMayors2021,Europe
A Peroxa,ESP,City,Spain,54.5,NA,42.43889,-7.79333,1871,2018,Ourense,Ourense,EUCovenantofMayors2021,Europe
A Pobra de Trives,ESP,City,Spain,84.2,NA,42.33944,-7.2530600000000005,2118,2018,Ourense,Ourense,EUCovenantofMayors2021,Europe
A POBRA DO BROLLÓN,ESP,City,Spain,NA,NA,42.733000000000004,-7.3,1685,NA,NA,NA,EUCovenantofMayors2021,Europe
A POBRA DO CARAMIÑAL,ESP,City,Spain,NA,NA,42.6,-8.933,9390,NA,NA,NA,EUCovenantofMayors2021,Europe
A PONTENOVA,ESP,City,Spain,82.16,NA,43.3617,-7.1083,2283,2018,Asturias,Asturias,EUCovenantofMayors2021,Europe
A RÚA,ESP,City,Spain,35.9,NA,42.4,-7.1,4359,2018,Ourense,Ourense,EUCovenantofMayors2021,Europe
A TEIXEIRA,ESP,City,Spain,27.6,NA,42.39167,-7.47417,332,2018,Ourense,Ourense,EUCovenantofMayors2021,Europe
Aabenraa,DNK,City,Denmark,9.69,NA,55.033,9.433,16425,2020,South Denmark Region,NA,c40_s_deadline_2020;DDLNetZeroDB2020;RacetoZero,Europe
Aachen,DEU,City,Germany,160.85,3,50.776351,6.083862,244509,NA,North Rhine-Westphalia,NA,EUCovenantofMayors2021;GCoM2021;GCoMHarmonized2021;GCoM2021,Europe
Aachen,DEU,City,Germany,160.85,3,50.776351,6.083862,244509,NA,North Rhine-Westphalia,NA,EUCovenantofMayors2021;GCoM2021;GCoMHarmonized2021;GCoM2021,Europe
Aachen,DEU,City,Germany,160.85,3,50.776351,6.083862,244509,NA,North Rhine-Westphalia,NA,EUCovenantofMayors2021;GCoM2021;GCoMHarmonized2021;GCoM2021,Europe
Aalborg,DNK,City,Denmark,139,3,57.05,9.916666667,140897,2019,North Denmark Region,NA,EUCovenantofMayors2021;GCoM2021;GCoMHarmonized2021;GCoM2021,Europe
Aalst,BEL,City,Belgium,78.12,3,50.93333333,4.033333333,83267,NA,East Flanders,NA,EUCovenantofMayors2021;GCoM2021,Europe
Aalst,BEL,City,Belgium,78.12,3,50.93333333,4.033333333,83267,NA,East Flanders,NA,EUCovenantofMayors2021;GCoM2021,Europe
Aalst,BEL,City,Belgium,78.12,3,50.93333333,4.033333333,83267,NA,East Flanders,NA,EUCovenantofMayors2021;GCoM2021,Europe
Aalter,BEL,City,Belgium,81.92,NA,51.083,3.45,28906,NA,East Flanders,Ghent,EUCovenantofMayors2021,Europe
Aalter,BEL,City,Belgium,81.92,NA,51.083,3.45,28906,NA,East Flanders,Ghent,EUCovenantofMayors2021,Europe
Aalter,BEL,City,Belgium,81.92,NA,51.083,3.45,28906,NA,East Flanders,Ghent,EUCovenantofMayors2021,Europe
Aarhus,DNK,City,Denmark,468,2,56.1496278,10.2134046,305000,2018,Central Denmark Region,NA,EUCovenantofMayors2021;GCoM2021;RacetoZero2020;GCoMHarmonized2021;GCoM2021;RacetoZero2020,Europe
Aarschot,BEL,City,Belgium,62.52,3,50.9855815,4.834949915,28760,NA,Flemish Brabant,Leuven,EUCovenantofMayors2021;GCoM2021;GCoMHarmonized2021;GCoM2021,Europe
Aarschot,BEL,City,Belgium,62.52,3,50.9855815,4.834949915,28760,NA,Flemish Brabant,Leuven,EUCovenantofMayors2021;GCoM2021;GCoMHarmonized2021;GCoM2021,Europe
Aarschot,BEL,City,Belgium,62.52,3,50.9855815,4.834949915,28760,NA,Flemish Brabant,Leuven,EUCovenantofMayors2021;GCoM2021;GCoMHarmonized2021;GCoM2021,Europe
Abaetetuba,BRA,City,Brazil,430.9,2,-1.72509,-48.889938,153553,NA,Pará,,GlobalCovenantofMayors2019;NAZCA,Latin America and Caribbean
Abaigar,ESP,City,Spain,4.86,NA,42.65,-2.18306,87,2018,NA,Navarra,EUCovenantofMayors2021,Europe
Abanilla,ESP,City,Spain,236.6,2,38.205181,-1.04066,6500,2018,Murcia,Comarca Oriental,GlobalCovenantofMayors2019;NAZCA,Europe
Abano Terme,ITA,City,Italy,21.41,3,45.36027778,11.79,18206,NA,Padua,,EUCovenantofMayors2021;GCoM2021;GCoMHarmonized2021;GCoM2021,Europe
Abanto-Zierbena,ESP,City,Spain,18.03,3,43.31184035,-3.089286215,9724,2018,Biscay,Greater Bilbao,EUCovenantofMayors2021;GCoM2021;GCoMHarmonized2021;GCoM2021,Europe
Abarán,ESP,City,Spain,115,3,38.2,-1.4,13110,2018,Murcia,Santiago,EUCovenantofMayors2021;GCoM2021;GCoMHarmonized2021;GCoM2021,Europe
Abarzuza,ESP,City,Spain,23.02,NA,42.72639,-2.0225,550,2018,NA,Navarra,EUCovenantofMayors2021,Europe
Abasan Al-Kabira,PSE,City,Palestine,NA,5,31.3238491,34.3497101,32000,2017,State of Palestine,Khan Yunis,CDPCities2020;GCoM2021;EUCovenantofMayors2021;GCoM2021;GCoMHarmonized2021;GCoM2021,Middle East and North Africa
Abasan Al-Kabira,PSE,City,Palestine,NA,5,31.3238491,34.3497101,32000,2017,State of Palestine,Khan Yunis,CDPCities2020;GCoM2021;EUCovenantofMayors2021;GCoM2021;GCoMHarmonized2021;GCoM2021,Middle East and North Africa
Abasan Al-Kabira,PSE,City,Palestine,NA,5,31.3238491,34.3497101,32000,2017,State of Palestine,Khan Yunis,CDPCities2020;GCoM2021;EUCovenantofMayors2021;GCoM2021;GCoMHarmonized2021;GCoM2021,Middle East and North Africa
Abasan Al-Kabira,PSE,City,Palestine,NA,5,31.3238491,34.3497101,32000,2017,State of Palestine,Khan Yunis,CDPCities2020;GCoM2021;EUCovenantofMayors2021;GCoM2021;GCoMHarmonized2021;GCoM2021,Middle East and North Africa
Abasan Al-Kabira,PSE,City,Palestine,NA,5,31.3238491,34.3497101,32000,2017,State of Palestine,Khan Yunis,CDPCities2020;GCoM2021;EUCovenantofMayors2021;GCoM2021;GCoMHarmonized2021;GCoM2021,Middle East and North Africa
Abasan Al-Kabira,PSE,City,Palestine,NA,5,31.3238491,34.3497101,32000,2017,State of Palestine,Khan Yunis,CDPCities2020;GCoM2021;EUCovenantofMayors2021;GCoM2021;GCoMHarmonized2021;GCoM2021,Middle East and North Africa
Abasan Al-Kabira,PSE,City,Palestine,NA,5,31.3238491,34.3497101,32000,2017,State of Palestine,Khan Yunis,CDPCities2020;GCoM2021;EUCovenantofMayors2021;GCoM2021;GCoMHarmonized2021;GCoM2021,Middle East and North Africa
Abbadia Lariana,ITA,City,Italy,16.67,3,45.9,9.333333333,3249,NA,Lecco,,EUCovenantofMayors2021;GCoM2021;GCoMHarmonized2021;GCoM2021,Europe
Abbasanta,ITA,City,Italy,39.85,NA,40.117,8.817,2872,NA,Oristano,Oristano,EUCovenantofMayors2021;GCoM2021,Europe
Abbateggio,ITA,City,Italy,15.4,3,42.23333333,14.01666667,443,NA,Pescara,,EUCovenantofMayors2021;GCoM2021;GCoMHarmonized2021;GCoM2021,Europe
Abbiategrasso,ITA,City,Italy,47.78,3,45.400767,8.918542,30000,NA,Lombardy,Milan,EUCovenantofMayors2021;GCoM2021;GCoMHarmonized2021;GCoM2021,Europe
Abéché,TCD,City,Chad,NA,2,13.835912,20.843371,200000,2012,Ouaddaï Region,NA,GlobalCovenantofMayors2019;NAZCA,Sub-Saharan Africa
Abegondo,ESP,City,Spain,83.81,2,43.21912,-8.297905,7509,2018,A Coruña,,EUCovenantofMayors2021;GCoM2021,Europe
Abegondo,ESP,Region,Spain,83.81,NA,43.20667,-8.31,5454,2018,A Coruña,A Coruña,EUCovenantofMayors2021;GCoM2021,Europe
Aberdeen,GBR,City,United Kingdom,NA,3,57.1452452,-2.0913744,213810,NA,Scotland,United Kingdom,EUCovenantofMayors2021;GCoM2021;GCoMHarmonized2021;GCoM2021,Europe
Aberdeen,GBR,City,United Kingdom,NA,3,57.1452452,-2.0913744,213810,NA,Scotland,United Kingdom,EUCovenantofMayors2021;GCoM2021;GCoMHarmonized2021;GCoM2021,Europe
Aberdeen,GBR,City,United Kingdom,NA,3,57.1452452,-2.0913744,213810,NA,Scotland,United Kingdom,EUCovenantofMayors2021;GCoM2021;GCoMHarmonized2021;GCoM2021,Europe
Aberdeen,GBR,City,United Kingdom,NA,3,57.1452452,-2.0913744,213810,NA,Scotland,United Kingdom,EUCovenantofMayors2021;GCoM2021;GCoMHarmonized2021;GCoM2021,Europe
Aberdeen,GBR,City,United Kingdom,NA,3,57.1452452,-2.0913744,213810,NA,Scotland,United Kingdom,EUCovenantofMayors2021;GCoM2021;GCoMHarmonized2021;GCoM2021,Europe
Aberdeen,GBR,City,United Kingdom,NA,3,57.1452452,-2.0913744,213810,NA,Scotland,United Kingdom,EUCovenantofMayors2021;GCoM2021;GCoMHarmonized2021;GCoM2021,Europe
Aberdeen,GBR,City,United Kingdom,NA,3,57.1452452,-2.0913744,213810,NA,Scotland,United Kingdom,EUCovenantofMayors2021;GCoM2021;GCoMHarmonized2021;GCoM2021,Europe
Aberdeen,GBR,City,United Kingdom,NA,3,57.1452452,-2.0913744,213810,NA,Scotland,United Kingdom,EUCovenantofMayors2021;GCoM2021;GCoMHarmonized2021;GCoM2021,Europe
Aberdeenshire,GBR,Region,United Kingdom,6313,1,57.16666667,-2.666666667,243510,NA,NA,,EUCovenantofMayors2021;GCoM2021,Europe
Aberdeenshire,GBR,Region,United Kingdom,6313,1,57.16666667,-2.666666667,243510,NA,NA,,EUCovenantofMayors2021;GCoM2021,Europe
Aberdeenshire,GBR,Region,United Kingdom,6313,1,57.16666667,-2.666666667,243510,NA,NA,,EUCovenantofMayors2021;GCoM2021,Europe
Aberdeenshire,GBR,Region,United Kingdom,6313,1,57.16666667,-2.666666667,243510,NA,NA,,EUCovenantofMayors2021;GCoM2021,Europe
Aberdeenshire,GBR,Region,United Kingdom,6313,1,57.16666667,-2.666666667,243510,NA,NA,,EUCovenantofMayors2021;GCoM2021,Europe
Aberdeenshire,GBR,Region,United Kingdom,6313,1,57.16666667,-2.666666667,243510,NA,NA,,EUCovenantofMayors2021;GCoM2021,Europe
Aberdeenshire,GBR,Region,United Kingdom,6313,1,57.16666667,-2.666666667,243510,NA,NA,,EUCovenantofMayors2021;GCoM2021,Europe
Aberdeenshire,GBR,Region,United Kingdom,6313,1,57.16666667,-2.666666667,243510,NA,NA,,EUCovenantofMayors2021;GCoM2021,Europe
Aberin,ESP,City,Spain,21.25,NA,42.617,-2,356,2018,NA,Navarre,EUCovenantofMayors2021,Europe
Abertura,ESP,City,Spain,NA,2,39.24395,-5.8147,456,NA,Cáceres,,EUCovenantofMayors2021;GCoM2021,Europe
Abidjan,CIV,City,Cote d'Ivoire,422,3,5.316666667,-4.033333333,3677115,NA,NA,,CDPCities2020;GCoM2021;C40Cities2021;RacetoZero2020,Sub-Saharan Africa
Abidjan,CIV,City,Cote d'Ivoire,422,3,5.316666667,-4.033333333,3677115,NA,NA,,CDPCities2020;GCoM2021;C40Cities2021;RacetoZero2020,Sub-Saharan Africa
Abidjan,CIV,City,Cote d'Ivoire,422,3,5.316666667,-4.033333333,3677115,NA,NA,,CDPCities2020;GCoM2021;C40Cities2021;RacetoZero2020,Sub-Saharan Africa
Abidjan,CIV,City,Cote d'Ivoire,422,3,5.316666667,-4.033333333,3677115,NA,NA,,CDPCities2020;GCoM2021;C40Cities2021;RacetoZero2020,Sub-Saharan Africa
Abidjan,CIV,City,Cote d'Ivoire,422,3,5.316666667,-4.033333333,3677115,NA,NA,,CDPCities2020;GCoM2021;C40Cities2021;RacetoZero2020,Sub-Saharan Africa
Abidjan,CIV,City,Cote d'Ivoire,422,3,5.316666667,-4.033333333,3677115,NA,NA,,CDPCities2020;GCoM2021;C40Cities2021;RacetoZero2020,Sub-Saharan Africa
Abidjan,CIV,City,Cote d'Ivoire,422,3,5.316666667,-4.033333333,3677115,NA,NA,,CDPCities2020;GCoM2021;C40Cities2021;RacetoZero2020,Sub-Saharan Africa
Abidjan,CIV,City,Cote d'Ivoire,422,3,5.316666667,-4.033333333,3677115,NA,NA,,CDPCities2020;GCoM2021;C40Cities2021;RacetoZero2020,Sub-Saharan Africa
Abidjan,CIV,City,Cote d'Ivoire,422,3,5.316666667,-4.033333333,3677115,NA,NA,,CDPCities2020;GCoM2021;C40Cities2021;RacetoZero2020,Sub-Saharan Africa
Abidjan,CIV,City,Cote d'Ivoire,422,3,5.316666667,-4.033333333,3677115,NA,NA,,CDPCities2020;GCoM2021;C40Cities2021;RacetoZero2020,Sub-Saharan Africa
Abiko,JPN,City,Japan,43.19,1,35.866667,140.033333,132999,2012,Kantō,Chiba Prefecture,JapanMOEZeroCarbonCities;DDLNetZeroDB2020;JapanMOEZeroCarbonCities,East Asia and the Pacific
"Abington, MA",USA,City,United States of America,9.9,NA,42.10472,-70.94583,15985,2010,Massachusetts,Plymouth,CDPCities2020,North America
"Abington, MA",USA,City,United States of America,9.9,NA,42.10472,-70.94583,15985,2010,Massachusetts,Plymouth,CDPCities2020,North America
"Abington, MA",USA,City,United States of America,9.9,NA,42.10472,-70.94583,15985,2010,Massachusetts,Plymouth,CDPCities2020,North America
"Abington, MA",USA,City,United States of America,9.9,NA,42.10472,-70.94583,15985,2010,Massachusetts,Plymouth,CDPCities2020,North America
"Abington, MA",USA,City,United States of America,9.9,NA,42.10472,-70.94583,15985,2010,Massachusetts,Plymouth,CDPCities2020,North America
"Abington, PA",USA,City,United States of America,25.122903,1,40.1241,-75.1195,55310,2010,Pennsylvania,"Montgomery County, PA",CDPCities2018,North America
"Abington, PA",USA,City,United States of America,25.122903,1,40.1241,-75.1195,55310,2010,Pennsylvania,"Montgomery County, PA",CDPCities2018,North America
"Abington, PA",USA,City,United States of America,25.122903,1,40.1241,-75.1195,55310,2010,Pennsylvania,"Montgomery County, PA",CDPCities2018,North America
"Abington, PA",USA,City,United States of America,25.122903,1,40.1241,-75.1195,55310,2010,Pennsylvania,"Montgomery County, PA",CDPCities2018,North America
"Abington, PA",USA,City,United States of America,25.122903,1,40.1241,-75.1195,55310,2010,Pennsylvania,"Montgomery County, PA",CDPCities2018,North America
Abla,ESP,City,Spain,45.24,3,37.1416926,-2.7792317,1505,2018,Almería,,EUCovenantofMayors2021;GCoM2021;GCoMHarmonized2021;GCoM2021,Europe
Ablitas,ESP,City,Spain,7748,NA,41.967,-1.633,2483,2018,NA,Navarre,EUCovenantofMayors2021,Europe
Aboisso,CIV,City,Cote d'Ivoire,NA,2,5.474511,-3.203076,63332,2014,Comoé,Sud-Comoe,GlobalCovenantofMayors2019;NAZCA,Sub-Saharan Africa
Aboisso,CIV,City,Cote d'Ivoire,NA,2,5.474511,-3.203076,63332,2014,Comoé,Sud-Comoe,GlobalCovenantofMayors2019;NAZCA,Sub-Saharan Africa
Aboisso,CIV,City,Cote d'Ivoire,NA,2,5.474511,-3.203076,63332,2014,Comoé,Sud-Comoe,GlobalCovenantofMayors2019;NAZCA,Sub-Saharan Africa
Aboisso,CIV,City,Cote d'Ivoire,NA,2,5.474511,-3.203076,63332,2014,Comoé,Sud-Comoe,GlobalCovenantofMayors2019;NAZCA,Sub-Saharan Africa
Aboisso,CIV,City,Cote d'Ivoire,NA,2,5.474511,-3.203076,63332,2014,Comoé,Sud-Comoe,GlobalCovenantofMayors2019;NAZCA,Sub-Saharan Africa
Aboisso,CIV,City,Cote d'Ivoire,NA,2,5.474511,-3.203076,63332,2014,Comoé,Sud-Comoe,GlobalCovenantofMayors2019;NAZCA,Sub-Saharan Africa
Aboisso,CIV,City,Cote d'Ivoire,NA,2,5.474511,-3.203076,63332,2014,Comoé,Sud-Comoe,GlobalCovenantofMayors2019;NAZCA,Sub-Saharan Africa
Aboisso,CIV,City,Cote d'Ivoire,NA,2,5.474511,-3.203076,63332,2014,Comoé,Sud-Comoe,GlobalCovenantofMayors2019;NAZCA,Sub-Saharan Africa
Aboisso,CIV,City,Cote d'Ivoire,NA,2,5.474511,-3.203076,63332,2014,Comoé,Sud-Comoe,GlobalCovenantofMayors2019;NAZCA,Sub-Saharan Africa
Aboisso,CIV,City,Cote d'Ivoire,NA,2,5.474511,-3.203076,63332,2014,Comoé,Sud-Comoe,GlobalCovenantofMayors2019;NAZCA,Sub-Saharan Africa
Abovyan,ARM,City,Armenia,11,NA,40.27389,44.62556,43495,2011,NA,Kotayk,EUCovenantofMayors2021,Eastern Europe and Central Asia
Abrantes,PRT,City,Portugal,714.69,3,39.440102950000004,-8.128236307,19132,2011,Centro,Santarém,EUCovenantofMayors2021;GCoM2021;GCoMHarmonized2021;GCoM2021,Europe
Abrera,ESP,City,Spain,19.9,3,41.51666667,1.9,11521,2018,Barcelona Province,Baix Llobregat,EUCovenantofMayors2021;GCoM2021;GCoMHarmonized2021;GCoM2021,Europe
Abriola,ITA,City,Italy,97.19,3,40.5078822,15.8137603,1617,NA,Potenza,,EUCovenantofMayors2021;GCoM2021;GCoMHarmonized2021;GCoM2021,Europe
Abrucena,ESP,City,Spain,83,3,37.1332098,-2.7974819,1358,2018,Almería,,EUCovenantofMayors2021;GCoM2021;GCoMHarmonized2021;GCoM2021,Europe
Abruzzo,ITA,Region,Italy,10763,2,42.36611111,12.39444444,1326513,2016,NA,,CDPStates&Regions2020;Under2Coalition2021;Under2Coalition2020,Europe
Abuja,NGA,City,Nigeria,1769,1,9.07647,7.39857,2440000,2017,Federal Capital Territory,,CDPCities2020,Sub-Saharan Africa
Aburrá Valley,COL,City,Colombia,1152,2,6,-75,3591963,NA,Antioquia,,Carbonn2019;NAZCA,Latin America and Caribbean
Acate,ITA,City,Italy,102.47,3,37.03388889,14.49416667,10432,NA,Ragusa,,EUCovenantofMayors2021;GCoM2021;GCoMHarmonized2021;GCoM2021,Europe
Accadia,ITA,City,Italy,30.74,3,41.16666667,15.33333333,2470,NA,Foggia,,EUCovenantofMayors2021;GCoM2021;GCoMHarmonized2021;GCoM2021,Europe
Accettura,ITA,City,Italy,90.37,3,40.48333333,16.15,2020,NA,Matera,,EUCovenantofMayors2021;GCoM2021;GCoMHarmonized2021;GCoM2021,Europe
Acciano,ITA,City,Italy,32.22,3,42.18333333,13.73333333,339,NA,Province of L'Aquila,,EUCovenantofMayors2021;GCoM2021;GCoMHarmonized2021;GCoM2021,Europe
Accra,GHA,City,Ghana,225.67,4,5.5600141,-0.2057436,1986580,2017,Greater Accra Region,,CDPCities2020;C40Cities2020;GCoM2021;C40Cities2021;RacetoZero2020,Sub-Saharan Africa
Acered,ESP,City,Spain,30,3,41.1704796,-1.6042984,243,2018,Zaragoza,NA,EUCovenantofMayors2021;GCoM2021;GCoMHarmonized2021;GCoM2021,Europe
Acerenza,ITA,City,Italy,77.64,3,40.79690278,15.94068056,2623,NA,Potenza,,EUCovenantofMayors2021;GCoM2021;GCoMHarmonized2021;GCoM2021,Europe
Acharnes,GRC,City,Greece,149.96,2,38.08522,23.738064,80121,2011,Attica,East Attica,EUCovenantofMayors2021;GCoM2021,Europe
Aci Bonaccorsi,ITA,City,Italy,1.72,2,37.595517,15.109543,3272,NA,Sicily,Catania,EUCovenantofMayors2021;GCoM2021;GCoMHarmonized2021;GCoM2021,Europe
Aci Castello,ITA,City,Italy,8.71,3,37.5542111,15.14856,18080,NA,Catania,,EUCovenantofMayors2021;GCoM2021;GCoMHarmonized2021;GCoM2021,Europe
Aci Catena,ITA,City,Italy,8.53,2,37.606435,15.141924,29662,NA,Sicily,Catania,EUCovenantofMayors2021;GCoM2021;GCoMHarmonized2021;GCoM2021,Europe
Aci Sant'Antonio,ITA,City,Italy,14.3,NA,37.6,15.117,18054,NA,NA,Catania,EUCovenantofMayors2021;GCoM2021;GCoMHarmonized2021;GCoM2021,Europe
Acigné,FRA,City,France,NA,2,48.13368,-1.53385,5246,2016,Brittany,Liffré,GlobalCovenantofMayors2019;NAZCA,Europe
Acigné,FRA,City,France,NA,2,48.13368,-1.53385,5246,2016,Brittany,Liffré,GlobalCovenantofMayors2019;NAZCA,Europe
Acigné,FRA,City,France,NA,2,48.13368,-1.53385,5246,2016,Brittany,Liffré,GlobalCovenantofMayors2019;NAZCA,Europe
Acireale,ITA,City,Italy,40.43,3,37.6127773,15.1658804,53122,NA,Catania,,EUCovenantofMayors2021;GCoM2021;GCoMHarmonized2021;GCoM2021,Europe
Acquanegra sul Chiese,ITA,City,Italy,28.01,3,45.16666667,10.43333333,3016,2017,Mantua,,EUCovenantofMayors2021;GCoM2021;GCoMHarmonized2021;GCoM2021,Europe
Acquapendente,ITA,City,Italy,131.61,2,42.747723,11.86302,5619,NA,Viterbo,,EUCovenantofMayors2021;GCoM2021,Europe
Acquappesa,ITA,City,Italy,14.45,3,39.5,15.95,1882,NA,Cosenza,,EUCovenantofMayors2021;GCoM2021;GCoMHarmonized2021;GCoM2021,Europe
Acquarica del capo,ITA,City,Italy,18.7,2,39.907845,18.231821,4951,NA,Lecce,,GlobalCovenantofMayors2019;NAZCA,Europe
Acquaviva Collecroce,ITA,City,Italy,28.6,3,41.86666667,14.75,674,NA,Campobasso,,EUCovenantofMayors2021;GCoM2021;GCoMHarmonized2021;GCoM2021,Europe
Acquaviva delle Fonti,ITA,City,Italy,132.03,3,40.9,16.85,21000,NA,Bari,,EUCovenantofMayors2021;GCoM2021;GCoMHarmonized2021;GCoM2021,Europe
Acquaviva Platani,ITA,City,Italy,14.63,3,37.56666667,13.7,1033,NA,Caltanissetta,,EUCovenantofMayors2021;GCoM2021;GCoMHarmonized2021;GCoM2021,Europe
Acquedolci,ITA,City,Italy,12.93,2,38.05,14.58333333,5500,2015,Messina,,EUCovenantofMayors2021;GCoM2021;GCoMHarmonized2021;GCoM2021,Europe
Acqui Terme,ITA,City,Italy,33.42,NA,44.683,8.467,19961,2017,Piedmont,Alessandria,Race to Zero,Europe
Acre,BRA,Region,Brazil,152581,2,-9.116666667,-70.51666667,790101,2014,NA,,CDPStates&Regions2020;Under2Coalition2021;Under2Coalition2020,Latin America and Caribbean
Acri,ITA,City,Italy,200.63,2,39.488691,16.382857,21195,NA,Cosenza,,GlobalCovenantofMayors2019;NAZCA,Europe
Ács,HUN,City,Hungary,103.83,NA,47.71,18.016,7260,2004,Komárom-Esztergom,Komárom,EUCovenantofMayors2021;GCoM2021,Europe
Ácsteszér,HUN,City,Hungary,17.73,NA,47.40891,18.00604,767,2004,Komárom-Esztergom,Komárom-Esztergom,EUCovenantofMayors2021;GCoM2021,Europe
"Acton, MA",USA,City,United States of America,NA,1,42.485,-71.43333333,219292,NA,Massachusetts,"Middlesex County, MA",WeAreStillIn2019,North America
"Acton, MA",USA,City,United States of America,NA,1,42.485,-71.43333333,219292,NA,Massachusetts,"Middlesex County, MA",WeAreStillIn2019,North America
"Acton, MA",USA,City,United States of America,NA,1,42.485,-71.43333333,219292,NA,Massachusetts,"Middlesex County, MA",WeAreStillIn2019,North America
"Acton, MA",USA,City,United States of America,NA,1,42.485,-71.43333333,219292,NA,Massachusetts,"Middlesex County, MA",WeAreStillIn2019,North America
"Acton, MA",USA,City,United States of America,NA,1,42.485,-71.43333333,219292,NA,Massachusetts,"Middlesex County, MA",WeAreStillIn2019,North America
Adachi,JPN,City,Japan,53,1,35.78333333,139.8,669143,2015,Tokyo Metropolis,Tokyo,Carbonn2019;Carbonn2019;Carbonn2019,East Asia and the Pacific
"Adams County, CO",USA,City,United States of America,NA,1,38.79388889,-83.54361111,45913,2017,Colorado,,Carbonn2019,North America
"Adams County, CO",USA,City,United States of America,NA,1,38.79388889,-83.54361111,45913,2017,Colorado,,Carbonn2019,North America
"Adams County, CO",USA,City,United States of America,NA,1,38.79388889,-83.54361111,45913,2017,Colorado,,Carbonn2019,North America
"Adams County, CO",USA,City,United States of America,NA,1,38.79388889,-83.54361111,45913,2017,Colorado,,Carbonn2019,North America
"Adams County, CO",USA,City,United States of America,NA,1,38.79388889,-83.54361111,45913,2017,Colorado,,Carbonn2019,North America
"Adams, MA",USA,City,United States of America,59.310771,2,39.839827,-104.193092,498187,2010,Massachusetts,"Berkshire County, MA",GlobalCovenantofMayors2019;NAZCA,North America
"Adams, MA",USA,City,United States of America,59.310771,2,39.839827,-104.193092,498187,2010,Massachusetts,"Berkshire County, MA",GlobalCovenantofMayors2019;NAZCA,North America
"Adams, MA",USA,City,United States of America,59.310771,2,39.839827,-104.193092,498187,2010,Massachusetts,"Berkshire County, MA",GlobalCovenantofMayors2019;NAZCA,North America
"Adams, MA",USA,City,United States of America,59.310771,2,39.839827,-104.193092,498187,2010,Massachusetts,"Berkshire County, MA",GlobalCovenantofMayors2019;NAZCA,North America
"Adams, MA",USA,City,United States of America,59.310771,2,39.839827,-104.193092,498187,2010,Massachusetts,"Berkshire County, MA",GlobalCovenantofMayors2019;NAZCA,North America
Adamuz,ESP,City,Spain,334,3,38.01666667,-4.516666667,4476,2018,Córdoba,Alto Guadalquivir,EUCovenantofMayors2021;GCoM2021;GCoMHarmonized2021;GCoM2021,Europe
Adana,TUR,City,Turkey,1945,NA,37,35.321329999999996,1768860,2019,Adana,Adana,CDPCities2020,Eastern Europe and Central Asia
Addis Ababa,ETH,City,Ethiopia,527,4,9.03,38.74,3103374,2013,NA,Ethiopia,CDPCities2020;C40Cities2020;GCoM2021;C40Cities2021;RacetoZero2020,Sub-Saharan Africa
Addis Ababa,ETH,City,Ethiopia,527,4,9.03,38.74,3103374,2013,NA,Ethiopia,CDPCities2020;C40Cities2020;GCoM2021;C40Cities2021;RacetoZero2020,Sub-Saharan Africa
Addis Ababa,ETH,City,Ethiopia,527,4,9.03,38.74,3103374,2013,NA,Ethiopia,CDPCities2020;C40Cities2020;GCoM2021;C40Cities2021;RacetoZero2020,Sub-Saharan Africa
Adeje,ESP,City,Spain,105.95,2,28.1219416,-16.7241892,46667,2018,Santa Cruz de Tenerife,Tenerife,EUCovenantofMayors2021;GCoM2021,Europe
Adelaide,AUS,City,Australia,3257.7,4,-34.92888889,138.6011111,23916,2017,South Australia,,CDPCities2020;GCoM2021,East Asia and the Pacific
Adelaide,AUS,City,Australia,3257.7,4,-34.92888889,138.6011111,23916,2017,South Australia,,CDPCities2020;GCoM2021,East Asia and the Pacific
Adelaide,AUS,City,Australia,3257.7,4,-34.92888889,138.6011111,23916,2017,South Australia,,CDPCities2020;GCoM2021,East Asia and the Pacific
Ademuz,ESP,City,Spain,100.42,2,40.0632676,-1.2862303,1092,2018,Valencia,Rincón de Ademuz,EUCovenantofMayors2021;GCoM2021,Europe
Adjud,ROU,City,Romania,59.1,2,46.096196,27.18219,17585,2011,Vrancea County,Vrancea,GlobalCovenantofMayors2019;NAZCA,Europe
Administration commmunale de Seneffe,BEL,City,Belgium,NA,2,50.52964,4.256984,11161,NA,Wallonia,Charleroi,EUCovenantofMayors2021;GCoM2021,Europe
Administration commmunale de Seneffe,BEL,City,Belgium,NA,2,50.52964,4.256984,11161,NA,Wallonia,Charleroi,EUCovenantofMayors2021;GCoM2021,Europe
Administration commmunale de Seneffe,BEL,City,Belgium,NA,2,50.52964,4.256984,11161,NA,Wallonia,Charleroi,EUCovenantofMayors2021;GCoM2021,Europe
Administration communale d'Estinnes,BEL,City,Belgium,NA,2,50.516667,4.25,2475,2018,Wallonia,Thuin,EUCovenantofMayors2021;GCoM2021,Europe
Administration communale d'Estinnes,BEL,City,Belgium,NA,2,50.516667,4.25,2475,2018,Wallonia,Thuin,EUCovenantofMayors2021;GCoM2021,Europe
Administration communale d'Estinnes,BEL,City,Belgium,NA,2,50.516667,4.25,2475,2018,Wallonia,Thuin,EUCovenantofMayors2021;GCoM2021,Europe
Administration Communale de Tellin,BEL,City,Belgium,56.64,3,50.081667,5.218333,2468,NA,Luxembourg,Neufchâteau,EUCovenantofMayors2021;GCoM2021,Europe
Administration Communale de Tellin,BEL,City,Belgium,56.64,3,50.081667,5.218333,2468,NA,Luxembourg,Neufchâteau,EUCovenantofMayors2021;GCoM2021,Europe
Administration Communale de Tellin,BEL,City,Belgium,56.64,3,50.081667,5.218333,2468,NA,Luxembourg,Neufchâteau,EUCovenantofMayors2021;GCoM2021,Europe
Ador,ESP,City,Spain,13.8,2,38.9177071,-0.2249926,1374,2018,Valencia,Safor,EUCovenantofMayors2021;GCoM2021,Europe
Adra,ESP,City,Spain,83.22,3,37.66666667,14.83333333,23195,NA,Almería,,EUCovenantofMayors2021;GCoM2021;GCoMHarmonized2021;GCoM2021,Europe
Adrano,ITA,City,Italy,83.22,3,37.661966,14.8333672,35519,NA,Catania,,EUCovenantofMayors2021;GCoM2021;GCoMHarmonized2021;GCoM2021,Europe
Ærø,DNK,City,Denmark,NA,4,54.8914,10.4047,5956,2020,South Denmark Region,Southern Denmark,CDPCities2020;GCoM2021;EUCovenantofMayors2021;GCoM2021;GCoMHarmonized2021;GCoM2021,Europe
Affi,ITA,City,Italy,9.88,3,45.5540914,10.7764241,1942,NA,Verona,,EUCovenantofMayors2021;GCoM2021;GCoMHarmonized2021;GCoM2021,Europe
Affligem,BEL,City,Belgium,17.7,NA,50.9,4.1,13351,NA,Flemish Brabant,Halle-Vilvoorde,EUCovenantofMayors2021,Europe
Affligem,BEL,City,Belgium,17.7,NA,50.9,4.1,13351,NA,Flemish Brabant,Halle-Vilvoorde,EUCovenantofMayors2021,Europe
Affligem,BEL,City,Belgium,17.7,NA,50.9,4.1,13351,NA,Flemish Brabant,Halle-Vilvoorde,EUCovenantofMayors2021,Europe
Afragola,ITA,City,Italy,17.91,2,40.923039,14.309304,63674,NA,Naples,,EUCovenantofMayors2021;GCoM2021,Europe
Agadir,MAR,City,Morocco,NA,3,30.43333333,-9.6,450000,2014,Agadir-Ida Ou Tanane,,EUCovenantofMayors2021;GCoM2021;GCoMHarmonized2021;GCoM2021,Middle East and North Africa
Agadir,MAR,City,Morocco,NA,3,30.43333333,-9.6,450000,2014,Agadir-Ida Ou Tanane,,EUCovenantofMayors2021;GCoM2021;GCoMHarmonized2021;GCoM2021,Middle East and North Africa
Agadir,MAR,City,Morocco,NA,3,30.43333333,-9.6,450000,2014,Agadir-Ida Ou Tanane,,EUCovenantofMayors2021;GCoM2021;GCoMHarmonized2021;GCoM2021,Middle East and North Africa
Agaete,ESP,City,Spain,45.5,2,28.100259,-15.699674,5558,2018,Las Palmas,Gran Canaria,EUCovenantofMayors2021;GCoM2021,Europe
Agência de energia MédioTejo21,PRT,City,Portugal,NA,2,39.53604175,-8.332223294,219465,NA,Santarém,,EUCovenantofMayors2021;GCoMHarmonized2021,Europe
Àger,ESP,City,Spain,160.6,3,42.0000879,0.7632247,590,2018,Lleida,Noguera,EUCovenantofMayors2021;GCoM2021;GCoMHarmonized2021;GCoM2021,Europe
Agerola,ITA,City,Italy,19.83,3,40.637707,14.538839,7500,NA,Naples,,EUCovenantofMayors2021;GCoM2021;GCoMHarmonized2021;GCoM2021,Europe
Aggregazione BERNEZZO,ITA,City,Italy,25.9,2,44.3886068,7.4332093,5631,2017,Cuneo,,EUCovenantofMayors2021;GCoMHarmonized2021,Europe
Aggregazione Castelletto Stura,ITA,City,Italy,NA,2,44.4417886,7.638649,9322,NA,Cuneo,,EUCovenantofMayors2021;GCoMHarmonized2021,Europe
Aggregazione Ceva,ITA,City,Italy,NA,2,44.386254,8.029079,6678,NA,Cuneo,,EUCovenantofMayors2021;GCoMHarmonized2021,Europe
Aggregazione Diano D'alba,ITA,City,Italy,NA,2,44.6515358,8.0252513,5643,NA,Cuneo,,EUCovenantofMayors2021;GCoMHarmonized2021,Europe
Aggregazione Dro-Roc-Vil,ITA,City,Italy,27,2,45.961111,10.911111,4030,NA,Trento,,EUCovenantofMayors2021;GCoMHarmonized2021,Europe
Aggregazione Garessio,ITA,City,Italy,NA,2,44.202931,8.0192528,5155,NA,Cuneo,,EUCovenantofMayors2021;GCoMHarmonized2021,Europe
Aggregazione Genola,ITA,City,Italy,NA,2,44.588936,7.66453,2661,NA,Cuneo,,EUCovenantofMayors2021;GCoMHarmonized2021,Europe
Aggregazione MARENE,ITA,City,Italy,29,2,44.6615577,7.7270091,5359,NA,Cuneo,,EUCovenantofMayors2021;GCoMHarmonized2021,Europe
Aggregazione Monta' - Corneliano d'Alba,ITA,City,Italy,10.3,NA,44.733000000000004,7.95,6776,2004,Province of Cuneo,Province of Cuneo,EUCovenantofMayors2021,Europe
Aggregazione Niella Belbo,ITA,City,Italy,NA,2,44.51376,8.08048,7835,NA,Cuneo,,EUCovenantofMayors2021;GCoMHarmonized2021,Europe
Aggregazione Robilante-Roccavione,ITA,City,Italy,NA,2,44.2945397,7.509191,5203,NA,Cuneo,,EUCovenantofMayors2021;GCoMHarmonized2021,Europe
Aggregazione Saliceto,ITA,City,Italy,NA,2,44.41439,8.16987,5018,NA,Cuneo,,EUCovenantofMayors2021;GCoMHarmonized2021,Europe
Aggregazione Sommariva del Bosco,ITA,City,Italy,35.6,2,44.768741,7.78533,21367,NA,Cuneo,,EUCovenantofMayors2021,Europe
Aggregazione Vicoforte,ITA,City,Italy,NA,2,44.3744419,7.8725517,8567,NA,Cuneo,,EUCovenantofMayors2021;GCoMHarmonized2021,Europe
Aggregazione Villanova Mondovì,ITA,City,Italy,NA,1,44.348514,7.767477,10206,NA,Cuneo,,EUCovenantofMayors2021;GCoMHarmonized2021,Europe
Aghios Nikolaos,GRC,City,Greece,NA,3,36.8243276,22.2811442,27074,2011,Crete,,EUCovenantofMayors2021;GCoM2021;GCoMHarmonized2021;GCoM2021,Europe
Agia,GRC,City,Greece,NA,3,39.03333333,26.41666667,14121,NA,Nomos Larisis,,EUCovenantofMayors2021;GCoM2021;GCoMHarmonized2021;GCoM2021,Europe
Agia Paraskevi,GRC,City,Greece,7.935,3,39.2475388,26.2711986,59704,2011,Attica,,EUCovenantofMayors2021;GCoM2021;GCoMHarmonized2021;GCoM2021,Europe
Agia Varvara,GRC,City,Greece,2.425,3,38,23.65,26490,2011,Attica,West Athens,EUCovenantofMayors2021;GCoM2021;GCoMHarmonized2021;GCoM2021,Europe
Agioi Anargyroi-Kamatero,GRC,City,Greece,9.15,3,38.03333333,23.71666667,55191,2011,Attica,West Athens,EUCovenantofMayors2021;GCoM2021;GCoMHarmonized2021;GCoM2021,Europe
Agios Athanasios,CYP,City,Cyprus,NA,3,34.7093395,33.0504749,15500,2011,Limassol District,Limassol,EUCovenantofMayors2021;GCoM2021;GCoMHarmonized2021;GCoM2021,Europe
Agios Dimitrios,GRC,City,Greece,4.949,4,37.93333333,23.73333333,70000,2011,Attica,South Athens,EUCovenantofMayors2021;GCoM2021;GCoMHarmonized2021;GCoM2021,Europe
Agios Ioannis Rentis,GRC,City,Greece,NA,NA,37.967,23.666999999999998,20000,2011,NA,Nikaia-Agios Ioannis Rentis,EUCovenantofMayors2021;GCoM2021,Europe
Agira,ITA,City,Italy,164.08,2,37.661603,14.51201,8500,NA,Enna,,EUCovenantofMayors2021;GCoM2021,Europe
Aglandjia,CYP,City,Cyprus,NA,2,35.1523806,33.3977301,22000,2011,Nicosia District,Nicosia,GlobalCovenantofMayors2019;NAZCA,Europe
Agna,ITA,City,Italy,18.8,3,45.1702381,11.9603017,3405,NA,Parma,Padua,EUCovenantofMayors2021;GCoM2021;GCoMHarmonized2021;GCoM2021,Europe
Agnone,ITA,City,Italy,96.85,3,41.8095612,14.3770463,5253,NA,Isernia,,EUCovenantofMayors2021;GCoM2021;GCoMHarmonized2021;GCoM2021,Europe
Agnosine,ITA,City,Italy,13.55,3,45.65,10.35,1875,NA,Brescia,,EUCovenantofMayors2021;GCoM2021;GCoMHarmonized2021;GCoM2021,Europe
AGOLADA,ESP,City,Spain,147.8,NA,42.76222,-8.01972,2370,2018,Pontevedra,Pontevedra,EUCovenantofMayors2021,Europe
Agona East,GHA,City,Ghana,NA,2,5.603215,-0.791323,101522,NA,Central Region,,GlobalCovenantofMayors2019;NAZCA,Sub-Saharan Africa
Agost,ESP,City,Spain,66.64,3,38.436906,-0.6396686,4752,2018,Alicante,Campo de Alicante,EUCovenantofMayors2021;GCoM2021;GCoMHarmonized2021;GCoM2021,Europe
Agrafa,GRC,City,Greece,920.3,2,39.1359953,21.6494392,14365,2011,Central Greece,Evrytania,EUCovenantofMayors2021;GCoM2021;GCoMHarmonized2021;GCoM2021,Europe
Agramunt,ESP,City,Spain,79.6,3,41.7876693,1.0986828,5735,2018,Lleida,Urgell,EUCovenantofMayors2021;GCoM2021;GCoMHarmonized2021;GCoM2021,Europe
Agrate Brianza,ITA,City,Italy,11.22,3,45.58333333,9.35,15035,NA,Monza Brianza,Monza and Brianza,EUCovenantofMayors2021;GCoM2021;GCoMHarmonized2021;GCoM2021,Europe
Agres,ESP,City,Spain,25.8,3,38.7799007,-0.5157277,583,2018,Alicante,Comtat,EUCovenantofMayors2021;GCoM2021;GCoMHarmonized2021;GCoM2021,Europe
Agrigento,ITA,City,Italy,245.32,2,37.309407,13.585982,57000,NA,NA,,EUCovenantofMayors2021;GCoM2021,Europe
Agrinio,GRC,City,Greece,1229.33,2,38.6247709,21.4095037,92608,2011,West Greece,Aetolia-Acarnania,EUCovenantofMayors2021;GCoM2021;GCoMHarmonized2021;GCoM2021,Europe
Agrón,ESP,City,Spain,27,3,37.03,-3.829166667,342,2018,Granada,Comarca de Alhama,EUCovenantofMayors2021;GCoM2021;GCoMHarmonized2021;GCoM2021,Europe
Agropoli,ITA,City,Italy,32.77,2,40.346905,14.996553,35823,NA,Salerno,,EUCovenantofMayors2021;GCoMHarmonized2021,Europe
Agros,CYP,City,Cyprus,NA,3,34.916667,33.016667,804,2011,Limassol District,,EUCovenantofMayors2021;GCoM2021;GCoMHarmonized2021;GCoM2021,Europe
Aguadulce,ESP,City,Spain,50.4,3,37.25222,-4.9925,2169,2010,Almería,,EUCovenantofMayors2021;GCoM2021;GCoMHarmonized2021;GCoM2021,Europe
Águas da Prata,BRA,City,Brazil,143,NA,-21.94139,-46.71667,8221,2020,São Paulo,São Paulo,CDPCities2020,Latin America and Caribbean
Aguascalientes,MEX,City,Mexico,385,2,21.876,-102.296,934424,NA,NA,,Carbonn2019;Under2Coalition2019,Latin America and Caribbean
Águeda,PRT,City,Portugal,335.27,4,40.5753,-8.44582,47729,2011,Centro,Aveiro,CDPCities2020;CDPJRC2020;GCoM2021;CDPCities2020;GCoM2021;EUCovenantofMayors2021;GCoM2021;GCoMHarmonized2021;GCoM2021,Europe
Aguilar de Segarra,ESP,City,Spain,43.3,NA,41.74100000000001,1.632,277,2018,Barcelona,Barcelona,EUCovenantofMayors2021;GCoM2021,Europe
Águilas,ESP,City,Spain,251.77,3,37.4099628,-1.5804921,34828,2018,Murcia,Alto Guadalentín,EUCovenantofMayors2021;GCoM2021;GCoMHarmonized2021;GCoM2021,Europe
Agüimes,ESP,City,Spain,79.28,NA,27.9,-15.45,31242,2018,Las Palmas,Gran Canaria,EUCovenantofMayors2021,Europe
Agullana,ESP,City,Spain,27.7,3,42.4,2.85,900,2018,Girona,Alt Empordà,EUCovenantofMayors2021;GCoM2021;GCoMHarmonized2021;GCoM2021,Europe
Agullent,ESP,City,Spain,16.2,2,38.8233412,-0.5473744,2395,2018,Valencia,Vall d'Albaida,EUCovenantofMayors2021;GCoM2021,Europe
Ahillones,ESP,City,Spain,21.5,2,38.259139,-5.865061,1001,2018,Badajoz,Campiña Sur,EUCovenantofMayors2021;GCoM2021,Europe
Ahmedabad,IND,City,India,464,1,23.03333333,72.58333333,5570585,2011,Gujarat,NA,CDPCities2020,South Asia
Aibar / Oibar,ESP,City,Spain,NA,NA,42.6,-1.35,805,NA,NA,NA,EUCovenantofMayors2021,Europe
Aichi Prefecture,JPN,Region,Japan,5165,1,35.18018889,136.9135083,7507553,2016,NA,,JapanPrefectureSites2021,East Asia and the Pacific
Aicurzio,ITA,City,Italy,2.47,3,45.63333333,9.416666667,2087,NA,Monza Brianza,Monza and Brianza,EUCovenantofMayors2021;GCoM2021;GCoMHarmonized2021;GCoM2021,Europe
Aidomaggiore,ITA,City,Italy,41.21,NA,40.167,8.85,480,NA,Oristano,Oristano,EUCovenantofMayors2021;GCoM2021,Europe
Aidone,ITA,City,Italy,210.78,2,37.415915,14.445496,5023,NA,Enna,,EUCovenantofMayors2021;GCoM2021,Europe
Aielli,ITA,City,Italy,37.52,3,42.08083,13.590599,1448,NA,Province of L'Aquila,L'Aquila,EUCovenantofMayors2021;GCoM2021;GCoMHarmonized2021;GCoM2021,Europe
Aiello Calabro,ITA,City,Italy,38.51,3,39.1174689,16.1666633,2017,NA,Cosenza,,EUCovenantofMayors2021;GCoM2021;GCoMHarmonized2021;GCoM2021,Europe
Aiello del Sabato,ITA,City,Italy,10.87,2,40.884294,14.816278,4050,2017,Avellino,,EUCovenantofMayors2021;GCoM2021,Europe
AIELO DE MALFERIT,ESP,City,Spain,27,NA,38.87778,-0.5919399999999999,4646,2018,Valencia,Ontinyent,EUCovenantofMayors2021,Europe
Aielo De Rugat,ESP,City,Spain,7.66,2,38.8820867,-0.3442155,200,2018,Valencia,Vall d'Albaida,EUCovenantofMayors2021;GCoM2021,Europe
Aigaleo,GRC,City,Greece,6.45,3,37.9928313,23.68159021,120000,2011,Attica,West Athens,EUCovenantofMayors2021;GCoM2021;GCoMHarmonized2021;GCoM2021,Europe
Aigialeia,GRC,City,Greece,723.1,3,38.140844,22.25179945,49872,2011,West Greece,Achaea,EUCovenantofMayors2021;GCoM2021;GCoMHarmonized2021;GCoM2021,Europe
Aiguafreda,ESP,City,Spain,7.9,3,41.7692525,2.2517162,2505,2018,Barcelona Province,Vallès Oriental,EUCovenantofMayors2021;GCoM2021;GCoMHarmonized2021;GCoM2021,Europe
Aiguamúrcia,ESP,City,Spain,73.2,3,41.32888889,1.358888889,909,2018,Tarragona,Alt Camp,EUCovenantofMayors2021;GCoM2021;GCoMHarmonized2021;GCoM2021,Europe
Aiguaviva,ESP,City,Spain,13.9,3,41.9381188,2.7626201,765,2018,Girona,Gironès,EUCovenantofMayors2021;GCoM2021,Europe
Aigües,ESP,City,Spain,18.47,3,38.500265,-0.3634257,984,2018,Valencia,Alacantí,EUCovenantofMayors2021;GCoM2021;GCoMHarmonized2021;GCoM2021,Europe
Ailano,ITA,City,Italy,16.06,2,41.391372,14.207422,1384,NA,Caserta,,EUCovenantofMayors2021;GCoM2021,Europe
Ainzón,ESP,City,Spain,40,3,41.8160689,-1.5196969,1214,2018,Zaragoza,NA,EUCovenantofMayors2021;GCoM2021;GCoMHarmonized2021;GCoM2021,Europe
Aipromades Lago de Chapala,MEX,City,Mexico,385.58,2,20.305278,-103.184722,50738,NA,Jalisco,,CDPCities2020;GCoM2021,Latin America and Caribbean
Airasca,ITA,City,Italy,15.74,2,44.917111,7.489349,3808,NA,Cuneo,Turin,EUCovenantofMayors2021;GCoM2021,Europe
Airola,ITA,City,Italy,14.9,2,41.0610225,14.5584304,8140,NA,Benevento,,EUCovenantofMayors2021;GCoM2021,Europe
Airuno,ITA,City,Italy,4.29,3,45.75388,9.424247,2994,NA,Lecco,,EUCovenantofMayors2021;GCoM2021;GCoMHarmonized2021;GCoM2021,Europe
Aitona,ESP,City,Spain,66.9,2,41.4939531,0.4591083,2456,2018,Lleida,Segrià,EUCovenantofMayors2021;GCoM2021,Europe
Aiud,ROU,City,Romania,142.52,3,46.3108411,23.7188503,28934,2011,Alba County,Alba,EUCovenantofMayors2021;GCoM2021;GCoMHarmonized2021;GCoM2021,Europe
"Ajax, ON",CAN,City,Canada,67.07,2,43.8509,-79.0204,119677,2016,Ontario,"Durham, ON",CDPCities2018,North America
Ajuntament D'Argelaguer,ESP,City,Spain,NA,1,42,2.641429901,430,2015,Girona,Garrotxa,EUCovenantofMayors2019,Europe
Ajuntament d'Espinelves,ESP,City,Spain,17.4,NA,41.871109999999994,2.4180599999999997,206,2018,Girona,Girona,EUCovenantofMayors2021;GCoM2021,Europe
AJUNTAMENT DE PORTBOU,ESP,City,Spain,9.2,NA,42.42694,3.16111,1100,2018,Girona,Girona,EUCovenantofMayors2021;GCoMHarmonized2021,Europe
Ajuntament de Sant Agustí de Lluçanès,ESP,City,Spain,13.2,NA,42.086940000000006,2.12833,87,2018,Barcelona,Barcelona,NA,Europe
Ajuntament de Santa Maria d'Oló,ESP,City,Spain,66.2,NA,41.875,2.03611,1024,2018,Barcelona,Barcelona,NA,Europe
Ajuntament de Torrelavit,ESP,City,Spain,23.6,NA,41.44944,1.73,1430,2018,Barcelona,Barcelona,NA,Europe
Ajuntament de Vilobí del Penedès,ESP,City,Spain,9.3,NA,41.39056,1.6625,1106,2018,Barcelona,Barcelona,NA,Europe
AJUNTAMENT DES CASTELL,ESP,City,Spain,11.6,NA,39.88028,4.290830000000001,7348,2018,Balearic Islands,Menorca,EUCovenantofMayors2021,Europe
Aka,HUN,City,Hungary,18.1,NA,47.40207,18.07163,252,2015,Komárom-Esztergom,Komárom-Esztergom,EUCovenantofMayors2021;GCoM2021,Europe
Akashi,JPN,City,Japan,49,1,34.65,135,290776,2017,Hyogo Prefecture,,NAZCA2020;DDLNetZeroDB2020;Carbonn2019;RacetoZero2020;JapanMOEZeroCarbonCities;DDLNetZeroDB2020;Carbonn2019;RacetoZero2020;Carbonn2019;Carbonn2019,East Asia and the Pacific
Akatsi North,GHA,City,Ghana,NA,2,6.36419,0.85461,40738,NA,Volta,Akatsi South,GlobalCovenantofMayors2019;NAZCA,Sub-Saharan Africa
Akershus,NOR,City,Norway,4579,1,60,11,615000,2017,NA,Ås,CDPStates&Regions2018-19;DDLNetZeroDB2020;CDPStates&Regions2018-19,Europe
Akershus,NOR,City,Norway,4579,1,60,11,615000,2017,NA,Ås,CDPStates&Regions2018-19;DDLNetZeroDB2020;CDPStates&Regions2018-19,Europe
Akershus,NOR,City,Norway,4579,1,60,11,615000,2017,NA,Ås,CDPStates&Regions2018-19;DDLNetZeroDB2020;CDPStates&Regions2018-19,Europe
Akhaltsikhe,GEO,City,Georgia,NA,3,41.63888889,42.98611111,19200,2014,Samtskhe-Javakheti,,EUCovenantofMayors2021;GCoM2021;GCoMHarmonized2021;GCoM2021,Eastern Europe and Central Asia
Akhmeta,GEO,City,Georgia,NA,2,42.03852,45.206841,34154,NA,Kakheti,Georgia,EUCovenantofMayors2021;GCoM2021,Eastern Europe and Central Asia
Akhtala,ARM,City,Armenia,4.3,2,41.150494,44.763959,2753,NA,Lori,,EUCovenantofMayors2021;GCoM2021,Eastern Europe and Central Asia
Akita City,JPN,City,Japan,906,1,39.72002778,140.1025833,320909,2016,Akita Prefecture,,Carbonn2019,East Asia and the Pacific
Akita Prefecture,JPN,Region,Japan,11636,1,39.71861111,140.1025,1026983,NA,NA,,JapanPrefectureSites2021,East Asia and the Pacific
Akmene,LTU,City,Lithuania,NA,3,56.31666667,22.9,25729,2011,Šiauliai County,NA,EUCovenantofMayors2021;GCoM2021;GCoMHarmonized2021;GCoM2021,Europe
Aksakovo,BGR,City,Bulgaria,NA,3,43.2586259,27.8173611,8600,2009,Varna,,EUCovenantofMayors2021;GCoM2021;GCoMHarmonized2021;GCoM2021,Europe
Aksu,KAZ,City,Kazakhstan,NA,2,52.04072,76.93376,69354,NA,Tarbagatay District,Pavlodar Region,EUCovenantofMayors2021;GCoM2021,Eastern Europe and Central Asia
Akureyri,ISL,City,Iceland,138,3,65.6825696,-18.0913026,18340,2019,Northeastern Region,,CDPCities2020;GCoM2021;CDPCities2020;CDPJRC2020;GCoM2021,Europe
Al-Mafraq,JOR,City,Jordan,14,NA,32.339939,36.205166,580000,2017,NA,Mafraq Governorate,EUCovenantofMayors2021;GCoM2021,Middle East and North Africa
Al-Ram,PSE,City,Palestine,3289,NA,31.853609999999996,35.23333,55000,2006,Jerusalem,Jerusalem,EUCovenantofMayors2021;GCoM2021,Middle East and North Africa
Al-Ram,PSE,City,Palestine,3289,NA,31.853609999999996,35.23333,55000,2006,Jerusalem,Jerusalem,EUCovenantofMayors2021;GCoM2021,Middle East and North Africa
Al-Ram,PSE,City,Palestine,3289,NA,31.853609999999996,35.23333,55000,2006,Jerusalem,Jerusalem,EUCovenantofMayors2021;GCoM2021,Middle East and North Africa
Al-Ram,PSE,City,Palestine,3289,NA,31.853609999999996,35.23333,55000,2006,Jerusalem,Jerusalem,EUCovenantofMayors2021;GCoM2021,Middle East and North Africa
Al-Ram,PSE,City,Palestine,3289,NA,31.853609999999996,35.23333,55000,2006,Jerusalem,Jerusalem,EUCovenantofMayors2021;GCoM2021,Middle East and North Africa
Al-Ram,PSE,City,Palestine,3289,NA,31.853609999999996,35.23333,55000,2006,Jerusalem,Jerusalem,EUCovenantofMayors2021;GCoM2021,Middle East and North Africa
Al-Ram,PSE,City,Palestine,3289,NA,31.853609999999996,35.23333,55000,2006,Jerusalem,Jerusalem,EUCovenantofMayors2021;GCoM2021,Middle East and North Africa
Ala,ITA,City,Italy,119,NA,45.75833,11.005560000000001,8897,2017,Trentino,Trentino,EUCovenantofMayors2021,Europe
Aladren,ESP,City,Spain,21,3,41.249166,-1.1560465,67,2018,Zaragoza,Aladrén,EUCovenantofMayors2021;GCoM2021;GCoMHarmonized2021;GCoM2021,Europe
Alájar,ESP,City,Spain,41,3,37.8746137,-6.66506,802,2018,Huelva,Alajar,EUCovenantofMayors2021;GCoM2021;GCoMHarmonized2021;GCoM2021,Europe
Alajeró,ESP,City,Spain,49.43,NA,28.05,-17.21667,2264,2018,Santa Cruz de Tenerife,La Gomera,EUCovenantofMayors2021,Europe
Alajuela,CRI,City,Costa Rica,44.62,NA,9.933,-84.083,342188,2018,San José,San José,CDPCities2020;GCoM2021,Latin America and Caribbean
Alajuela,CRI,City,Costa Rica,44.62,NA,9.933,-84.083,342188,2018,San José,San José,CDPCities2020;GCoM2021,Latin America and Caribbean
Alajuela,CRI,City,Costa Rica,44.62,NA,9.933,-84.083,342188,2018,San José,San José,CDPCities2020;GCoM2021,Latin America and Caribbean
Alajuela,CRI,City,Costa Rica,44.62,NA,9.933,-84.083,342188,2018,San José,San José,CDPCities2020;GCoM2021,Latin America and Caribbean
"Alameda County, CA",USA,City,United States of America,NA,1,37.65,-121.9166667,1666753,NA,California,,WeAreStillIn2019,North America
"Alameda County, CA",USA,City,United States of America,NA,1,37.65,-121.9166667,1666753,NA,California,,WeAreStillIn2019,North America
"Alameda County, CA",USA,City,United States of America,NA,1,37.65,-121.9166667,1666753,NA,California,,WeAreStillIn2019,North America
"Alameda County, CA",USA,City,United States of America,NA,1,37.65,-121.9166667,1666753,NA,California,,WeAreStillIn2019,North America
"Alameda County, CA",USA,City,United States of America,NA,1,37.65,-121.9166667,1666753,NA,California,,WeAreStillIn2019,North America
"Alameda, CA",USA,City,United States of America,27.0394956,5,37.75611111,-122.2744444,78906,2010,California,"Alameda County, CA",CDPCities2020;GCoM2021;ClimateMayors2019;WeAreStillIn2019;GCoM2021,North America
"Alameda, CA",USA,City,United States of America,27.0394956,5,37.75611111,-122.2744444,78906,2010,California,"Alameda County, CA",CDPCities2020;GCoM2021;ClimateMayors2019;WeAreStillIn2019;GCoM2021,North America
"Alameda, CA",USA,City,United States of America,27.0394956,5,37.75611111,-122.2744444,78906,2010,California,"Alameda County, CA",CDPCities2020;GCoM2021;ClimateMayors2019;WeAreStillIn2019;GCoM2021,North America
"Alameda, CA",USA,City,United States of America,27.0394956,5,37.75611111,-122.2744444,78906,2010,California,"Alameda County, CA",CDPCities2020;GCoM2021;ClimateMayors2019;WeAreStillIn2019;GCoM2021,North America
"Alameda, CA",USA,City,United States of America,27.0394956,5,37.75611111,-122.2744444,78906,2010,California,"Alameda County, CA",CDPCities2020;GCoM2021;ClimateMayors2019;WeAreStillIn2019;GCoM2021,North America
"Alameda, Spain",ESP,City,Spain,64.74975,3,37.2,-4.65,5426,2018,Málaga,Antequera,EUCovenantofMayors2021;GCoM2021;GCoMHarmonized2021;GCoM2021,Europe
Aland,FIN,Region,Finland,1580,2,60,20,29489,2017,NA,,CompactofStatesRegions2018,Europe
Alange,ESP,City,Spain,160,2,38.78588,-6.244232,1971,2018,Badajoz,Tierra de Mérida Vegas Bajas,EUCovenantofMayors2021;GCoM2021,Europe
Alanis de la Sierra,ESP,City,Spain,NA,3,37.3601614,-5.9788488,1900,NA,Seville,,EUCovenantofMayors2021;GCoM2021;GCoMHarmonized2021;GCoM2021,Europe
Alanno,ITA,City,Italy,32.53,3,42.3,13.96666667,3679,NA,Pescara,,EUCovenantofMayors2021;GCoM2021;GCoMHarmonized2021;GCoM2021,Europe
Alano di Piave,ITA,City,Italy,36.4,NA,45.9,11.917,2886,2004,Province of Belluno,Province of Belluno,EUCovenantofMayors2021;GCoM2021;GCoMHarmonized2021;GCoM2021,Europe
Alaquàs,ESP,City,Spain,3.9,2,39.4572928,-0.4609799,29965,2018,Valencia,Horta Oest,EUCovenantofMayors2021;GCoM2021,Europe
Alaró,ESP,City,Spain,45.72,NA,39.70667,2.79083,5494,2018,Balearic Islands,Inca,EUCovenantofMayors2021;GCoM2021,Europe
Alàs i Cerc,ESP,City,Spain,57.7,2,42.324487,1.540233,400,2018,Lleida,Alt Urgell,EUCovenantofMayors2021;GCoM2021,Europe
Alassio,ITA,City,Italy,17.25,3,44,8.166666667,12000,NA,Savona,,EUCovenantofMayors2021;GCoM2021;GCoMHarmonized2021;GCoM2021,Europe
Alaverdi,ARM,City,Armenia,18,2,41.0958608,44.6459522,16400,2017,Lori,,EUCovenantofMayors2021;GCoM2021,Eastern Europe and Central Asia
Alba,ITA,City,Italy,28748,3,44.691542,8.025636,31531,2017,Cuneo,,EUCovenantofMayors2021;GCoM2021;GCoMHarmonized2021;GCoM2021,Europe
Alba Adriatica,ITA,City,Italy,9.6,3,42.8343422,13.927816,12522,NA,Abruzzo,Teramo,EUCovenantofMayors2021;GCoM2021;GCoMHarmonized2021;GCoM2021,Europe
Alba Iulia,ROU,City,Romania,103.65,4,46.06694444,23.57,63536,2011,Alba County,Alba,CDPCities2020;GCoM2021;EUCovenantofMayors2021;GCoM2021;GCoMHarmonized2021;GCoM2021,Europe
Alba Posse,ARG,City,Argentina,405,2,-27.55,-54.7,481,NA,Misiones Province,25 De Mayo,NAZCA2020;DDLNetZeroDB2020;RacetoZero2020ZCA2020,Latin America and Caribbean
Alba Posse,ARG,City,Argentina,405,2,-27.55,-54.7,481,NA,Misiones Province,25 De Mayo,NAZCA2020;DDLNetZeroDB2020;RacetoZero2020ZCA2020,Latin America and Caribbean
Alba Posse,ARG,City,Argentina,405,2,-27.55,-54.7,481,NA,Misiones Province,25 De Mayo,NAZCA2020;DDLNetZeroDB2020;RacetoZero2020ZCA2020,Latin America and Caribbean
Albagés,ESP,City,Spain,25.7,3,41.7317684,1.8151935,425,2018,Lleida,,EUCovenantofMayors2021;GCoM2021,Europe
Albagiara,ITA,City,Italy,8.87,2,39.786857,8.861913,278,NA,Oristano,,EUCovenantofMayors2021;GCoM2021,Europe
Albaida,ESP,City,Spain,89.78,2,38.838669,-0.5181894,5987,2018,Baleares,Vall d'Albaida,EUCovenantofMayors2021;GCoM2021,Europe
Albairate,ITA,City,Italy,14.98,3,45.41666667,8.933333333,4148,NA,Lombardy,Milan,EUCovenantofMayors2021;GCoM2021;GCoMHarmonized2021;GCoM2021,Europe
Albal,ESP,City,Spain,38,2,39.3956438,-0.415082,16029,2018,Cáceres,Horta Sud,EUCovenantofMayors2021;GCoM2021,Europe
Albala,ESP,City,Spain,38,2,39.255502,-6.190489,744,2018,Cáceres,Albalá,EUCovenantofMayors2021;GCoM2021,Europe
Albalat de la Ribera,ESP,City,Spain,14.29,2,39.2012627,-0.3866467,3485,2018,Valencia,Ribera Baixa,EUCovenantofMayors2021;GCoM2021,Europe
Albalat Dels Sorells,ESP,City,Spain,4.62,2,39.5436955,-0.3461911,3937,2018,Valencia,Horta Nord,EUCovenantofMayors2021;GCoM2021,Europe
Albánchez de Mágina,ESP,City,Spain,39,3,37.79166667,-3.45,1326,2018,Jaén,Albanchez de Mágina,EUCovenantofMayors2021;GCoM2021;GCoMHarmonized2021;GCoM2021,Europe
Albanella,ITA,City,Italy,40.23,2,40.478163,15.114332,6519,NA,Salerno,,EUCovenantofMayors2021;GCoM2021,Europe
Albano di Lucania,ITA,City,Italy,55.87,3,40.587058,16.037129,1502,2017,Potenza,,EUCovenantofMayors2021;GCoM2021;GCoMHarmonized2021;GCoM2021,Europe
Albano Laziale,ITA,City,Italy,23.8,3,41.7288894,12.6582689,38997,NA,Rome,,EUCovenantofMayors2021;GCoM2021;GCoMHarmonized2021;GCoM2021,Europe
Albano Sant'Alessandro,ITA,City,Italy,5.28,NA,45.683,9.75,8100,2011,Province of Bergamo,Province of Bergamo,EUCovenantofMayors2021;GCoM2021;GCoMHarmonized2021;GCoM2021,Europe
"Albany, CA",USA,City,United States of America,4.6360821,2,37.886944,-122.297778,18969,2010,California,"Alameda County, CA",ClimateMayors2019,North America
"Albany, CA",USA,City,United States of America,4.6360821,2,37.886944,-122.297778,18969,2010,California,"Alameda County, CA",ClimateMayors2019,North America
"Albany, CA",USA,City,United States of America,4.6360821,2,37.886944,-122.297778,18969,2010,California,"Alameda County, CA",ClimateMayors2019,North America
"Albany, CA",USA,City,United States of America,4.6360821,2,37.886944,-122.297778,18969,2010,California,"Alameda County, CA",ClimateMayors2019,North America
"Albany, CA",USA,City,United States of America,4.6360821,2,37.886944,-122.297778,18969,2010,California,"Alameda County, CA",ClimateMayors2019,North America
"Albany, NY",USA,City,United States of America,55.3998861,5,42.6511674,-73.7549679,98566,2016,New York State,"Albany County, NY",CDPCities2020;GCoM2021;ClimateMayors2019;WeAreStillIn2019;GCoM2021;ClimateMayors2020;GCoM2021,North America
"Albany, NY",USA,City,United States of America,55.3998861,5,42.6511674,-73.7549679,98566,2016,New York State,"Albany County, NY",CDPCities2020;GCoM2021;ClimateMayors2019;WeAreStillIn2019;GCoM2021;ClimateMayors2020;GCoM2021,North America
"Albany, NY",USA,City,United States of America,55.3998861,5,42.6511674,-73.7549679,98566,2016,New York State,"Albany County, NY",CDPCities2020;GCoM2021;ClimateMayors2019;WeAreStillIn2019;GCoM2021;ClimateMayors2020;GCoM2021,North America
"Albany, NY",USA,City,United States of America,55.3998861,5,42.6511674,-73.7549679,98566,2016,New York State,"Albany County, NY",CDPCities2020;GCoM2021;ClimateMayors2019;WeAreStillIn2019;GCoM2021;ClimateMayors2020;GCoM2021,North America
"Albany, NY",USA,City,United States of America,55.3998861,5,42.6511674,-73.7549679,98566,2016,New York State,"Albany County, NY",CDPCities2020;GCoM2021;ClimateMayors2019;WeAreStillIn2019;GCoM2021;ClimateMayors2020;GCoM2021,North America
"Albany, OR",USA,City,United States of America,3.2374875,1,44.630278,-123.096111,53211,2010,Oregon,"Linn County, OR",ClimateMayors2019,North America
"Albany, OR",USA,City,United States of America,3.2374875,1,44.630278,-123.096111,53211,2010,Oregon,"Linn County, OR",ClimateMayors2019,North America
"Albany, OR",USA,City,United States of America,3.2374875,1,44.630278,-123.096111,53211,2010,Oregon,"Linn County, OR",ClimateMayors2019,North America
"Albany, OR",USA,City,United States of America,3.2374875,1,44.630278,-123.096111,53211,2010,Oregon,"Linn County, OR",ClimateMayors2019,North America
"Albany, OR",USA,City,United States of America,3.2374875,1,44.630278,-123.096111,53211,2010,Oregon,"Linn County, OR",ClimateMayors2019,North America
Albanyà,ESP,City,Spain,94.4,3,42.30694444,2.723055556,150,2018,Girona,Alt Empordà,EUCovenantofMayors2021;GCoM2021;GCoMHarmonized2021;GCoM2021,Europe
Albaredo d'Adige,ITA,City,Italy,28.25,2,45.316997,11.276161,5179,2004,Verona,,EUCovenantofMayors2021;GCoM2021;GCoMHarmonized2021;GCoM2021,Europe
Albaretto Della Torre,ITA,City,Italy,4.59,2,44.59681,8.06451,5952,NA,Cuneo,,EUCovenantofMayors2021;GCoM2021,Europe
Albatàrrec,ESP,City,Spain,10.5,3,41.575,0.606388889,2090,2018,Lleida,Segrià,EUCovenantofMayors2021;GCoM2021;GCoMHarmonized2021;GCoM2021,Europe
Albatera,ESP,City,Spain,66327,3,38.1794357,-0.8700719,11767,2018,Teruel,Vega Baja del Segura,EUCovenantofMayors2021;GCoM2021;GCoMHarmonized2021;GCoM2021,Europe
"Albemarle County, VA",USA,City,United States of America,1880,1,38.03333333,-78.56666667,98970,NA,Virginia,,WeAreStillIn2019,North America
"Albemarle County, VA",USA,City,United States of America,1880,1,38.03333333,-78.56666667,98970,NA,Virginia,,WeAreStillIn2019,North America
"Albemarle County, VA",USA,City,United States of America,1880,1,38.03333333,-78.56666667,98970,NA,Virginia,,WeAreStillIn2019,North America
"Albemarle County, VA",USA,City,United States of America,1880,1,38.03333333,-78.56666667,98970,NA,Virginia,,WeAreStillIn2019,North America
"Albemarle County, VA",USA,City,United States of America,1880,1,38.03333333,-78.56666667,98970,NA,Virginia,,WeAreStillIn2019,North America
Albenga,ITA,City,Italy,36.58,3,44.05,8.216666667,25000,NA,Savona,,EUCovenantofMayors2021;GCoM2021;GCoMHarmonized2021;GCoM2021,Europe
Albergaria-a-Velha,PRT,City,Portugal,158.83,3,40.69333333,-8.481111111,25252,2011,Centro,Aveiro,EUCovenantofMayors2021;GCoM2021;GCoMHarmonized2021;GCoM2021,Europe
Alberic,ESP,City,Spain,NA,2,39.1164369,-0.5201837,10826,NA,Valencia,Ribera Alta,EUCovenantofMayors2021;GCoM2021,Europe
Alberite De San Juan,ESP,City,Spain,11.23,3,41.81666667,-1.466666667,99,2018,Zaragoza,Alberite de San Juan,EUCovenantofMayors2021;GCoM2021;GCoMHarmonized2021;GCoM2021,Europe
Alberobello,ITA,City,Italy,0.1052,2,40.786413,17.240936,11300,NA,Bari,,EUCovenantofMayors2021;GCoM2021,Europe
Alberona,ITA,City,Italy,49.75,3,41.43333333,15.11666667,1010,NA,Foggia,,EUCovenantofMayors2021;GCoM2021;GCoMHarmonized2021;GCoM2021,Europe
Alberta,CAN,Region,Canada,640081,2,54.4,-115,4318772,2018,NA,,CDPStates&Regions2020,North America
Alberti,ARG,City,Argentina,1130,NA,-35.033,-60.25,10322,NA,Buenos Aires,Alberti,Race to Zero,Latin America and Caribbean
Alberti,ARG,City,Argentina,1130,NA,-35.033,-60.25,10322,NA,Buenos Aires,Alberti,Race to Zero,Latin America and Caribbean
Alberti,ARG,City,Argentina,1130,NA,-35.033,-60.25,10322,NA,Buenos Aires,Alberti,Race to Zero,Latin America and Caribbean
Albertslund,DNK,City,Denmark,NA,3,55.6586018,12.3562849,27880,NA,Capital Region,Copenhagen,EUCovenantofMayors2021;GCoM2021;RacetoZero2020;GCoMHarmonized2021;GCoM2021;RacetoZero2020,Europe
Albesa,ESP,City,Spain,37.6,3,41.75388889,0.661666667,1652,2018,Lleida,Noguera,EUCovenantofMayors2021;GCoM2021;GCoMHarmonized2021;GCoM2021,Europe
Albeta,ESP,City,Spain,2.65,3,41.8272224,-1.4926769,149,2018,Zaragoza,NA,EUCovenantofMayors2021;GCoM2021;GCoMHarmonized2021;GCoM2021,Europe
Albiano,ITA,City,Italy,9,NA,46.15,11.2,1508,2001,Trentino,Trentino,EUCovenantofMayors2021;GCoM2021,Europe
Albiate,ITA,City,Italy,2.86,3,45.66666667,9.25,5216,NA,Monza Brianza,Monza and Brianza,EUCovenantofMayors2021;GCoM2021;GCoMHarmonized2021;GCoM2021,Europe
Albignasego,ITA,City,Italy,21.16,3,45.35,11.86666667,25000,NA,Padua,,EUCovenantofMayors2021;GCoM2021;GCoMHarmonized2021;GCoM2021,Europe
Albinea,ITA,City,Italy,43.89,3,44.6201821,10.6019259,8755,NA,Reggio Emilia,,EUCovenantofMayors2021;GCoM2021;GCoMHarmonized2021;GCoM2021,Europe
Albino,ITA,City,Italy,31.81,3,45.7608142,9.7968303,17807,NA,Bergamo,,EUCovenantofMayors2021;GCoM2021;GCoMHarmonized2021;GCoM2021,Europe
Albinyana,ESP,City,Spain,19.4,3,41.2454739,1.486748,2354,2018,Tarragona,Baix Penedès,EUCovenantofMayors2021;GCoM2021;GCoMHarmonized2021;GCoM2021,Europe
Albiolo,ITA,City,Italy,2.84,3,45.805577,8.939235,2739,NA,Como,,EUCovenantofMayors2021;GCoM2021;GCoMHarmonized2021;GCoM2021,Europe
Albisola Superiore,ITA,City,Italy,28.68,3,44.33944444,8.526944444,10485,NA,Savona,,EUCovenantofMayors2021;GCoM2021;GCoMHarmonized2021;GCoM2021,Europe
Alboloduy,ESP,City,Spain,70,3,37.0327593,-2.6209782,745,2018,Almería,,EUCovenantofMayors2021;GCoM2021;GCoMHarmonized2021;GCoM2021,Europe
Albolote,ESP,City,Spain,79,3,37.23055556,-3.656944444,18088,2018,Granada,NA,EUCovenantofMayors2021;GCoM2021;GCoMHarmonized2021;GCoM2021,Europe
Albonese,ITA,City,Italy,4.33,3,45.2944385,8.706322,559,NA,Pavia,,EUCovenantofMayors2021;GCoM2021;GCoMHarmonized2021;GCoM2021,Europe
Albons,ESP,City,Spain,11.1,3,42.1043559,3.0852797,740,2018,Girona,Baix Empordà,EUCovenantofMayors2021;GCoM2021;GCoMHarmonized2021;GCoM2021,Europe
Alborache,ESP,City,Spain,27.33,2,39.3929025,-0.774052,1136,2018,Valencia,Hoya de Buñol,EUCovenantofMayors2021;GCoM2021,Europe
Alboraya,ESP,City,Spain,8.3,2,39.5009954,-0.3494799,23572,2018,Valencia,Horta Nord,EUCovenantofMayors2021;GCoM2021,Europe
Albosaggia,ITA,City,Italy,34.35,3,46.1472316,9.8531698,3188,NA,Sondrio,,EUCovenantofMayors2021;GCoM2021;GCoMHarmonized2021;GCoM2021,Europe
Albota de Sus,MDA,City,Moldova,NA,NA,45.9666666667,28.4666666667,1944,2014,Taraclia District,Taraclia District,EUCovenantofMayors2021,Eastern Europe and Central Asia
Albota de Sus,MDA,City,Moldova,NA,NA,45.9666666667,28.4666666667,1944,2014,Taraclia District,Taraclia District,EUCovenantofMayors2021,Eastern Europe and Central Asia
Albota de Sus,MDA,City,Moldova,NA,NA,45.9666666667,28.4666666667,1944,2014,Taraclia District,Taraclia District,EUCovenantofMayors2021,Eastern Europe and Central Asia
Albota de Sus,MDA,City,Moldova,NA,NA,45.9666666667,28.4666666667,1944,2014,Taraclia District,Taraclia District,EUCovenantofMayors2021,Eastern Europe and Central Asia
Albox,ESP,City,Spain,168,3,37.38333333,-2.133333333,11271,2018,Almería,,EUCovenantofMayors2021;GCoM2021;GCoMHarmonized2021;GCoM2021,Europe
Albudeite,ESP,City,Spain,17.02,2,38.026663,-1.3866538,1423,2018,Murcia,Río Mula,EUCovenantofMayors2021;GCoM2021,Europe
Albuixech,ESP,City,Spain,4.4,2,39.5449181,-0.3241613,3920,2018,Valencia,Horta Nord,EUCovenantofMayors2021;GCoM2021,Europe
Albuñol,ESP,City,Spain,63,3,36.7912927,-3.2016737,6270,2018,Granada,Costa Tropical,EUCovenantofMayors2021;GCoM2021;GCoMHarmonized2021;GCoM2021,Europe
"Albuquerque, NM",USA,City,United States of America,NA,1,35.11083333,-106.61,558545,NA,New Mexico,"Bernalillo County, NM",CDPCities2020,North America
"Albuquerque, NM",USA,City,United States of America,NA,1,35.11083333,-106.61,558545,NA,New Mexico,"Bernalillo County, NM",CDPCities2020,North America
"Albuquerque, NM",USA,City,United States of America,NA,1,35.11083333,-106.61,558545,NA,New Mexico,"Bernalillo County, NM",CDPCities2020,North America
"Albuquerque, NM",USA,City,United States of America,NA,1,35.11083333,-106.61,558545,NA,New Mexico,"Bernalillo County, NM",CDPCities2020,North America
"Albuquerque, NM",USA,City,United States of America,NA,1,35.11083333,-106.61,558545,NA,New Mexico,"Bernalillo County, NM",CDPCities2020,North America
"Alburqueque, Spain",ESP,City,Spain,723,2,39.219167,-7.001111,5340,2018,Badajoz,,EUCovenantofMayors2021;GCoM2021,Europe
Alcalá De Ebro,ESP,City,Spain,9.9,3,41.8140364,-1.1940809,283,2018,Zaragoza,Alcalá de Ebro,EUCovenantofMayors2021;GCoM2021;GCoMHarmonized2021;GCoM2021,Europe
Alcalá de Guadaíra,ESP,City,Spain,284.61,NA,37.33333,-5.85,75256,2018,Sevilla,Sevilla,EUCovenantofMayors2021;GCoM2021;GCoMHarmonized2021;GCoM2021,Europe
Alcalá de Henares,ESP,City,Spain,87.72,NA,40.467,-3.367,193751,2018,NA,Community of Madrid,EUCovenantofMayors2021,Europe
Alcalá de los Gazules,ESP,City,Spain,479.59,3,36.46666667,-5.716666667,5619,2018,Cádiz,La Janda,EUCovenantofMayors2021;GCoM2021;GCoMHarmonized2021;GCoM2021,Europe
Alcala De Moncayo,ESP,City,Spain,13.69,3,41.7862357,-1.6969471,205,2018,Zaragoza,Tarazona y el Moncayo,EUCovenantofMayors2021;GCoM2021;GCoMHarmonized2021;GCoM2021,Europe
Alcalá del Valle,ESP,City,Spain,46.89,3,36.905066,-5.1726099,5300,2018,Cádiz,Sierra de Cádiz,EUCovenantofMayors2021;GCoM2021;GCoMHarmonized2021;GCoM2021,Europe
Alcalá la Real,ESP,City,Spain,262,3,37.45,-3.916666667,22129,2018,Jaén,Sierra Sur de Jaén,EUCovenantofMayors2021;GCoM2021;GCoMHarmonized2021;GCoM2021,Europe
Alcalalí,ESP,City,Spain,14.4,3,38.7503504,-0.0399998,1350,2018,Valencia,Marina Alta,EUCovenantofMayors2021;GCoM2021;GCoMHarmonized2021;GCoM2021,Europe
Alcamo,ITA,City,Italy,130.9,3,37.97777778,12.96388889,46238,NA,Trapani,,EUCovenantofMayors2021;GCoM2021;GCoMHarmonized2021;GCoM2021,Europe
Alcanena,PRT,City,Portugal,127.33,NA,39.467,-8.667,13868,2011,Centro,Santarém,EUCovenantofMayors2021;GCoM2021,Europe
ALCÁNTARA,ESP,City,Spain,552,NA,39.72222,-6.88972,1480,2018,Cáceres,Cáceres,EUCovenantofMayors2021,Europe
Alcantarilla,ESP,City,Spain,16,2,37.969517,-1.219342,40774,2018,Murcia,Huerta de Murcia,EUCovenantofMayors2021;GCoM2021;GCoMHarmonized2021;GCoM2021,Europe
Alcàntera de Xúquer,ESP,City,Spain,3.3,2,39.0694393,-0.5601547,1350,2018,Valencia,Ribera Alta,EUCovenantofMayors2021;GCoM2021,Europe
Alcara li Fusi,ITA,City,Italy,62.94,3,38.01666667,14.7,2473,2017,Sicily,Messina,EUCovenantofMayors2021;GCoM2021;GCoMHarmonized2021;GCoM2021,Europe
Alcarràs,ESP,City,Spain,114.3,3,41.5630062,0.5245393,9100,2018,Lleida,Segrià,EUCovenantofMayors2021;GCoM2021;GCoMHarmonized2021;GCoM2021,Europe
Alcasser,ESP,City,Spain,9.01,2,39.3677124,-0.444674,9615,2018,Valencia,Horta Sud,EUCovenantofMayors2021;GCoM2021,Europe
Alcaudete,ESP,City,Spain,238,3,37.58333333,-4.1,11164,2018,Jaén,Sierra Sur de Jaén,EUCovenantofMayors2021;GCoM2021;GCoMHarmonized2021;GCoM2021,Europe
Alcázar de San Juan,ESP,City,Spain,666.78,3,39.40555556,-3.205555556,31992,2018,Ciudad Real,,EUCovenantofMayors2021;GCoM2021;GCoMHarmonized2021;GCoM2021,Europe
Alchevsk,UKR,City,Ukraine,55,2,48.47134,38.813441,110529,2013,Luhansk Oblast,,EUCovenantofMayors2021;GCoM2021,Eastern Europe and Central Asia
Alcocer de Planes,ESP,City,Spain,4.39,3,38.79444444,-0.4025,238,2018,Alicante,Comtat,EUCovenantofMayors2021;GCoM2021;GCoMHarmonized2021;GCoM2021,Europe
Alcochete,PRT,City,Portugal,128.36,3,38.7488526,-8.973300657,17569,2011,Lisbon,Setúbal,EUCovenantofMayors2021;GCoM2021;GCoMHarmonized2021;GCoM2021,Europe
Alcoi,ESP,City,Spain,129.86,3,38.69833333,-0.473611111,59675,2018,Valencia,Alcoià,EUCovenantofMayors2021;GCoM2021;GCoMHarmonized2021;GCoM2021,Europe
Alcolea,ESP,City,Spain,67,3,36.96666667,-2.95,966,2018,Almería,,EUCovenantofMayors2021;GCoM2021;GCoMHarmonized2021;GCoM2021,Europe
Alcolea del Río,ESP,City,Spain,50.02,3,37.5180353,-5.9800362,9317,2005,Seville,,EUCovenantofMayors2021;GCoM2021;GCoMHarmonized2021;GCoM2021,Europe
Alcoleja,ESP,City,Spain,14.56,3,38.6755861,-0.3311341,191,2018,Valencia,Comtat,EUCovenantofMayors2021;GCoM2021;GCoMHarmonized2021;GCoM2021,Europe
Alcoletge,ESP,City,Spain,16.7,2,41.6472222,0.6944444,3285,2018,Lleida,,EUCovenantofMayors2021;GCoM2021,Europe
Alcollarín,ESP,City,Spain,79,2,39.245057,-5.737223,433,2018,Cáceres,NA,EUCovenantofMayors2021;GCoM2021,Europe
Alconchel,ESP,City,Spain,294.9,2,38.517011,-7.070012,1876,2018,Badajoz,Llanos de Olivenza,EUCovenantofMayors2021;GCoM2021,Europe
Alcóntar,ESP,City,Spain,94,3,37.33333333,-2.583333333,647,2018,Almería,,EUCovenantofMayors2021;GCoM2021;GCoMHarmonized2021;GCoM2021,Europe
Alcorcón,ESP,City,Spain,33.7,3,40.35,-3.833333333,167997,2018,Madrid,of Madrid,EUCovenantofMayors2021;GCoM2021;GCoMHarmonized2021;GCoM2021,Europe
Alcover,ESP,City,Spain,460,3,41.26666667,1.166666667,5131,2018,Tarragona,Alt Camp,EUCovenantofMayors2021;GCoM2021;GCoMHarmonized2021;GCoM2021,Europe
Alcublas,ESP,City,Spain,43.5,2,39.7979196,-0.7025735,690,2018,Valencia,Los Serranos,EUCovenantofMayors2021;GCoM2021,Europe
Alcudia,ESP,City,Spain,60.05,2,39.853267,3.124024,22942,2018,Baleares,Raiguer,EUCovenantofMayors2021;GCoM2021,Europe
Aldaia,ESP,City,Spain,16.1,2,39.4647207,-0.4607809,31246,2018,Valencia,Horta Oest,EUCovenantofMayors2021;GCoM2021,Europe
Aldehuela De Liestos,ESP,City,Spain,38.12,3,41.0642215,-1.7005881,51,2018,Aragon,Aldehuela de Liestos,EUCovenantofMayors2021;GCoM2021;GCoMHarmonized2021;GCoM2021,Europe
Aldeire,ESP,City,Spain,67,3,37.15,-3.066666667,696,2018,Granada,NA,EUCovenantofMayors2021;GCoM2021;GCoMHarmonized2021;GCoM2021,Europe
Aldeno,ITA,City,Italy,8.97,3,45.9767795,11.0908573,3053,NA,Trentino,,EUCovenantofMayors2021;GCoM2021;GCoMHarmonized2021;GCoM2021,Europe
Aldover,ESP,City,Spain,20.2,2,40.8800537,0.5000194,918,2018,Tarragona,Baix Ebre,EUCovenantofMayors2021;GCoM2021,Europe
Ale,SWE,City,Sweden,332.1359,1,57.925833,12.083611,31402,2019,Västergötland,Västra Götaland County,ACTSweden;DDLNetZeroDB2020;Sveriges Ekokommuner,Europe
Ale,SWE,City,Sweden,332.1359,1,57.925833,12.083611,31402,2019,Västergötland,Västra Götaland County,ACTSweden;DDLNetZeroDB2020;Sveriges Ekokommuner,Europe
Ale,SWE,City,Sweden,332.1359,1,57.925833,12.083611,31402,2019,Västergötland,Västra Götaland County,ACTSweden;DDLNetZeroDB2020;Sveriges Ekokommuner,Europe
Aledo,ESP,City,Spain,49.74,2,37.794985,-1.573546,1053,2018,Murcia,Bajo Guadalentín,EUCovenantofMayors2021;GCoM2021,Europe
Alella,ESP,City,Spain,9.6,3,41.495,2.296111111,9397,2018,Barcelona Province,Maresme,EUCovenantofMayors2021;GCoM2021;GCoMHarmonized2021;GCoM2021,Europe
Alencon,FRA,City,France,10.68,NA,48.4306,0.0931,25775,2018,Normandy,Alençon,Race to Zero,Europe
Alencon,FRA,City,France,10.68,NA,48.4306,0.0931,25775,2018,Normandy,Alençon,Race to Zero,Europe
Alencon,FRA,City,France,10.68,NA,48.4306,0.0931,25775,2018,Normandy,Alençon,Race to Zero,Europe
Alenquer,PRT,City,Portugal,304.22,2,39.0574,-9.006365,42000,2011,Lisbon,,EUCovenantofMayors2021;GCoM2021,Europe
Alento Montestella,ITA,City,Italy,NA,2,40.2374011,15.0487682,15104,NA,Campania,,EUCovenantofMayors2021;GCoMHarmonized2021,Europe
Alessandria,ITA,City,Italy,203.57,3,44.9129225,8.615321,85438,NA,NA,,EUCovenantofMayors2021;GCoM2021;GCoMHarmonized2021;GCoM2021,Europe
Alessandria della Rocca,ITA,City,Italy,62.24,3,37.56666667,13.45,3082,2017,Agrigento,,EUCovenantofMayors2021;GCoM2021;GCoMHarmonized2021;GCoM2021,Europe
Alessano,ITA,City,Italy,28.69,3,39.8896785,18.3312082,6552,NA,Lecce,,EUCovenantofMayors2021;GCoM2021;GCoMHarmonized2021;GCoM2021,Europe
Ålesund,NOR,City,Norway,93.17,3,62.47777778,6.190277778,42317,2017,Møre og Romsdal,NA,EUCovenantofMayors2021;GCoM2021;GCoMHarmonized2021;GCoM2021,Europe
Ålesund,NOR,City,Norway,93.17,3,62.47777778,6.190277778,42317,2017,Møre og Romsdal,NA,EUCovenantofMayors2021;GCoM2021;GCoMHarmonized2021;GCoM2021,Europe
Ålesund,NOR,City,Norway,93.17,3,62.47777778,6.190277778,42317,2017,Møre og Romsdal,NA,EUCovenantofMayors2021;GCoM2021;GCoMHarmonized2021;GCoM2021,Europe
Alexandria,GRC,City,Greece,2679,3,37.9506108,23.7029521,41604,2018,Central Macedonia,,EUCovenantofMayors2021;GCoM2021;GCoMHarmonized2021;GCoM2021,Europe
"Alexandria, VA",USA,City,United States of America,38.6685507,2,38.804722,-77.047222,153511,2010,Virginia,,ClimateMayors2019;WeAreStillIn2019,North America
"Alexandria, VA",USA,City,United States of America,38.6685507,2,38.804722,-77.047222,153511,2010,Virginia,,ClimateMayors2019;WeAreStillIn2019,North America
"Alexandria, VA",USA,City,United States of America,38.6685507,2,38.804722,-77.047222,153511,2010,Virginia,,ClimateMayors2019;WeAreStillIn2019,North America
"Alexandria, VA",USA,City,United States of America,38.6685507,2,38.804722,-77.047222,153511,2010,Virginia,,ClimateMayors2019;WeAreStillIn2019,North America
"Alexandria, VA",USA,City,United States of America,38.6685507,2,38.804722,-77.047222,153511,2010,Virginia,,ClimateMayors2019;WeAreStillIn2019,North America
Alexandroupolis,GRC,City,Greece,1217,3,40.85,25.86666667,72750,2011,East Macedonia and Thrace,Evros,EUCovenantofMayors2021;GCoM2021;GCoMHarmonized2021;GCoM2021,Europe
Alexânia,BRA,City,Brazil,847.891,2,-16.0887,-48.5017,30000,2007,Goiás,,CDPCities2020;GCoM2021,Latin America and Caribbean
Alezio,ITA,City,Italy,16.79,3,40.06666667,18.05,5547,NA,Lecce,,EUCovenantofMayors2021;GCoM2021;GCoMHarmonized2021;GCoM2021,Europe
Alfacar,ESP,City,Spain,16,3,37.2383551,-3.566372,5508,2018,Granada,NA,EUCovenantofMayors2021;GCoM2021;GCoMHarmonized2021;GCoM2021,Europe
Alfafar,ESP,City,Spain,16,2,39.4200749,-0.3891354,20772,2018,Granada,Horta Sud,EUCovenantofMayors2021;GCoM2021,Europe
Alfafara,ESP,City,Spain,19.78,3,38.7732651,-0.554559,418,2018,Alicante,Comtat,EUCovenantofMayors2021;GCoM2021;GCoMHarmonized2021;GCoM2021,Europe
Alfajarín,ESP,City,Spain,137,3,41.61666667,-0.7,2215,2018,Aragon,NA,EUCovenantofMayors2021;GCoM2021;GCoMHarmonized2021;GCoM2021,Europe
Alfamen,ESP,City,Spain,102,3,41.43333333,-1.25,1577,2018,Zaragoza,Campo de Cariñena,EUCovenantofMayors2021;GCoM2021;GCoMHarmonized2021;GCoM2021,Europe
Alfândega da Fé,PRT,City,Portugal,321.95,3,41.35555556,-6.945,5104,2011,Norte,Bragança,EUCovenantofMayors2021;GCoM2021,Europe
Alfara De Carles,ESP,City,Spain,63.9,2,40.8729772,0.4005288,395,2018,Tarragona,Baix Ebre,EUCovenantofMayors2021;GCoM2021,Europe
Alfara De La Baronia,ESP,City,Spain,11.71,2,39.762781,-0.355419,535,2018,Valencia,Camp de Morvedre,EUCovenantofMayors2021;GCoM2021,Europe
Alfara Del Patriarca,ESP,City,Spain,1.98,2,39.544129,-0.3856584,3228,2018,Valencia,Horta Nord,EUCovenantofMayors2021;GCoM2021,Europe
Alfarnate,ESP,City,Spain,33.66987,3,36.98333333,-4.25,1362,2018,Málaga,Axarquía Costa del Sol,EUCovenantofMayors2021;GCoM2021;GCoMHarmonized2021;GCoM2021,Europe
Alfarnatejo,ESP,City,Spain,20.71992,3,36.9790514,-4.2726473,404,2018,Málaga,Axarquía Costa del Sol,EUCovenantofMayors2021;GCoM2021;GCoMHarmonized2021;GCoM2021,Europe
Alfarp,ESP,City,Spain,20.6,2,39.2767351,-0.560509,1553,2018,Valencia,Ribera Alta,EUCovenantofMayors2021;GCoM2021,Europe
Alfarràs,ESP,City,Spain,11.4,2,41.8311403,0.5692934,2923,2018,Lleida,Segrià,EUCovenantofMayors2021;GCoM2021,Europe
Alfarrasí,ESP,City,Spain,6.4,2,38.903726,-0.4961549,1309,2018,Valencia,Vall d'Albaida,EUCovenantofMayors2021;GCoM2021,Europe
Alfauir,ESP,City,Spain,6.2,2,38.9283659,-0.2516594,451,2018,Valencia,Safor,EUCovenantofMayors2021;GCoM2021,Europe
Alfedena,ITA,City,Italy,39.96,3,41.73424,14.03253,791,NA,Province of L'Aquila,L'Aquila,EUCovenantofMayors2021;GCoM2021;GCoMHarmonized2021;GCoM2021,Europe
Alfianello,ITA,City,Italy,13.75,3,45.266975,10.148172,2445,NA,Brescia,,EUCovenantofMayors2021;GCoM2021;GCoMHarmonized2021;GCoM2021,Europe
Alfonsine,ITA,City,Italy,106.79,3,44.5053302,12.0410437,12411,NA,Ravenna,,EUCovenantofMayors2021;GCoM2021;GCoMHarmonized2021;GCoM2021,Europe
Alforja,ESP,City,Spain,38.2,3,41.2099763,0.9750606,1857,2018,Tarragona,Baix Camp,EUCovenantofMayors2021;GCoM2021;GCoMHarmonized2021;GCoM2021,Europe
Alforque,ESP,City,Spain,10,3,41.3298767,-0.3852708,86,2018,Zaragoza,,EUCovenantofMayors2021;GCoM2021;GCoMHarmonized2021;GCoM2021,Europe
ALFOZ,ESP,City,Spain,43,NA,41.65,-3.5,2007,2018,Burgos,Burgos,EUCovenantofMayors2021,Europe
Algaida,ESP,City,Spain,89.78,3,39.55833333,2.891666667,5367,2018,Baleares,Pla de Mallorca,EUCovenantofMayors2021;GCoM2021;GCoMHarmonized2021;GCoM2021,Europe
Algámitas,ESP,City,Spain,20.42,3,37.0163821,-5.1488475,1330,2018,Seville,Sierra Sur de Sevilla,EUCovenantofMayors2021;GCoM2021;GCoMHarmonized2021;GCoM2021,Europe
Algar,ESP,City,Spain,175.6,3,-33.39111111,-71.69277778,1540,NA,Málaga,,EUCovenantofMayors2021;GCoM2021;GCoMHarmonized2021;GCoM2021,Europe
Algar De Palancia,ESP,City,Spain,13.2,2,39.7810953,-0.3674639,503,2018,Valencia,Camp de Morvedre,EUCovenantofMayors2021;GCoM2021,Europe
Algarinejo,ESP,City,Spain,93,3,37.31666667,-4.15,4184,2018,Granada,NA,EUCovenantofMayors2021;GCoM2021;GCoMHarmonized2021;GCoM2021,Europe
Algarrobo,ESP,City,Spain,10.35996,3,36.7732439,-4.0399306,6144,2018,Málaga,Axarquía Costa del Sol,EUCovenantofMayors2021;GCoM2021;GCoMHarmonized2021;GCoM2021,Europe
Algatocín,ESP,City,Spain,20,3,36.57277778,-5.275555556,951,2018,Málaga,Serranía de Ronda,EUCovenantofMayors2021;GCoM2021;GCoMHarmonized2021;GCoM2021,Europe
Algeciras,ESP,City,Spain,86,3,36.1275,-5.453888889,115333,2018,Cádiz,Campo de Gibraltar,EUCovenantofMayors2021;GCoM2021;GCoMHarmonized2021;GCoM2021,Europe
Algemesí,ESP,City,Spain,41.5,2,39.1907907,-0.4357531,27808,2018,Valencia,Ribera Alta,EUCovenantofMayors2021;GCoM2021,Europe
Algerri,ESP,City,Spain,54.3,3,41.8151794,0.6371437,437,2018,Lleida,Noguera,EUCovenantofMayors2021;GCoM2021;GCoMHarmonized2021;GCoM2021,Europe
Alghero,ITA,City,Italy,225.4,3,40.55,8.316666667,43945,2018,Sassari,SS,GCoMHarmonized2021;GCoM2021;EUCovenantofMayors2021;GCoM2021,Europe
Algimia De Alfara,ESP,City,Spain,14.4,2,39.7536043,-0.362999,1047,2018,Valencia,Camp de Morvedre,EUCovenantofMayors2021;GCoM2021,Europe
Alginet,ESP,City,Spain,24.1,2,39.2651129,-0.4716911,13068,2018,Valencia,Ribera Alta,EUCovenantofMayors2021;GCoM2021,Europe
Algua,ITA,City,Italy,8.32,3,45.83333333,9.716666667,722,NA,Bergamo,,EUCovenantofMayors2021;GCoM2021;GCoMHarmonized2021;GCoM2021,Europe
ALGUAIRE,ESP,City,Spain,50.1,NA,41.738609999999994,0.5855600000000001,2970,2018,Lleida,Lleida,EUCovenantofMayors2021,Europe
Alguazas,ESP,City,Spain,23.74,2,38.052566,-1.249398,9146,2018,Murcia,Vega Media del Segura,EUCovenantofMayors2021;GCoM2021,Europe
Algueña,ESP,City,Spain,18.43,3,38.33777778,-1.003611111,1457,2018,Valencia,Vinalopó Mitjà,EUCovenantofMayors2021;GCoM2021;GCoMHarmonized2021;GCoM2021,Europe
Alhama de Almería,ESP,City,Spain,26,3,36.95,-2.566666667,3587,2018,Almería,Alpujarra Almeriense,EUCovenantofMayors2021;GCoM2021;GCoMHarmonized2021;GCoM2021,Europe
Alhama de Aragón,ESP,City,Spain,31,3,41.3,-1.9,1146,2018,Aragon,Alhama de Aragón,EUCovenantofMayors2021;GCoM2021;GCoMHarmonized2021;GCoM2021,Europe
Alhama de Granada,ESP,City,Spain,433.5,3,37.0028286,-3.9891095,6214,2018,Granada,Alhama,EUCovenantofMayors2021;GCoM2021;GCoMHarmonized2021;GCoM2021,Europe
Alhama de Murcia,ESP,City,Spain,311.55,NA,37.85139,-1.42639,21657,2018,Murcia,Totana,EUCovenantofMayors2021;GCoM2021;GCoMHarmonized2021;GCoM2021,Europe
Alhaurín de la Torre,ESP,City,Spain,83,NA,36.667,-4.55,39911,2018,Málaga,Málaga,EUCovenantofMayors2021;GCoM2021;GCoMHarmonized2021;GCoM2021,Europe
Alhaurin el Grande,ESP,City,Spain,73.1,NA,36.63306,-4.68306,24123,2018,Málaga,Málaga,EUCovenantofMayors2021;GCoM2021;GCoMHarmonized2021;GCoM2021,Europe
Alhendín,ESP,City,Spain,51,3,37.1081077,-3.64366,5200,2018,Granada,Empire of Alhendín,EUCovenantofMayors2021;GCoM2021;GCoMHarmonized2021;GCoM2021,Europe
Alì,ITA,City,Italy,6.2,NA,38,15.417,2570,2014,NA,Messina,EUCovenantofMayors2021,Europe
Alì Terme,ITA,City,Italy,6.27,2,38.005064,15.42269,2567,NA,Sicily,Messina,EUCovenantofMayors2021;GCoM2021,Europe
Alia,ITA,City,Italy,NA,3,37.779948,13.713856,3806,NA,Palermo,,EUCovenantofMayors2021;GCoM2021;GCoMHarmonized2021;GCoM2021,Europe
Aliano,ITA,City,Italy,98.41,3,40.3138266,16.2299609,1110,NA,Basilicata,Matera,EUCovenantofMayors2021;GCoM2021;GCoMHarmonized2021;GCoM2021,Europe
Aliartou - Thespieon,GRC,City,Greece,108.152,3,38.3,23.15,4793,NA,Boeotia,,EUCovenantofMayors2021;GCoM2021;GCoMHarmonized2021;GCoM2021,Europe
Alicante,ESP,City,Spain,201.27,3,38.353738,-0.4901845,334678,2018,NA,Alacantí,EUCovenantofMayors2021;GCoM2021;GCoMHarmonized2021;GCoM2021,Europe
Alife,ITA,City,Italy,64.32,3,41.33333333,14.33333333,7613,NA,Caserta,,EUCovenantofMayors2021;GCoM2021;GCoMHarmonized2021;GCoM2021,Europe
Alijó,PRT,City,Portugal,297.6,3,41.27611111,-7.475,11840,2011,Norte,Vila Real,EUCovenantofMayors2021;GCoM2021;GCoMHarmonized2021;GCoM2021,Europe
Alimena,ITA,City,Italy,59.7,3,37.7,14.11666667,2087,NA,Sicily,Palermo,EUCovenantofMayors2021;GCoM2021;GCoMHarmonized2021;GCoM2021,Europe
Aliminusa,ITA,City,Italy,13.68,3,37.86666667,13.78333333,1269,NA,Palermo,,EUCovenantofMayors2021;GCoM2021;GCoMHarmonized2021;GCoM2021,Europe
Alimos,GRC,City,Greece,5.909,3,37.91666667,23.71666667,42000,2011,Attica,Cythirians,EUCovenantofMayors2021;GCoM2021;GCoMHarmonized2021;GCoM2021,Europe
Alins,ESP,City,Spain,183.2,NA,42.55056,1.31972,290,2018,Lleida,Lleida,EUCovenantofMayors2021;GCoM2021,Europe
Alió,ESP,City,Spain,7.2,3,41.3,1.3,432,2018,Tarragona,Alt Camp,EUCovenantofMayors2021;GCoM2021;GCoMHarmonized2021;GCoM2021,Europe
Aliseda,ESP,City,Spain,81,2,39.4247,-6.691883,1951,2018,Cáceres,,EUCovenantofMayors2021;GCoM2021,Europe
Aljaraque,ESP,City,Spain,34,3,37.2664912,-7.0246858,17960,2018,Huelva,,EUCovenantofMayors2021;GCoM2021;GCoMHarmonized2021;GCoM2021,Europe
Alken,BEL,City,Belgium,28.14,3,50.8754731,5.3079873,11242,NA,Limburg,Tongeren,EUCovenantofMayors2021;GCoM2021;GCoMHarmonized2021;GCoM2021,Europe
Alken,BEL,City,Belgium,28.14,3,50.8754731,5.3079873,11242,NA,Limburg,Tongeren,EUCovenantofMayors2021;GCoM2021;GCoMHarmonized2021;GCoM2021,Europe
Alken,BEL,City,Belgium,28.14,3,50.8754731,5.3079873,11242,NA,Limburg,Tongeren,EUCovenantofMayors2021;GCoM2021;GCoMHarmonized2021;GCoM2021,Europe
Alkmaar,NLD,City,Netherlands,29.26,2,52.632381,4.753375,288000,2016,North Holland,,EUCovenantofMayors2021;GCoM2021;GCoMHarmonized2021;GCoM2021,Europe
Alkmaar,NLD,City,Netherlands,29.26,2,52.632381,4.753375,288000,2016,North Holland,,EUCovenantofMayors2021;GCoM2021;GCoMHarmonized2021;GCoM2021,Europe
Alkmaar,NLD,City,Netherlands,29.26,2,52.632381,4.753375,288000,2016,North Holland,,EUCovenantofMayors2021;GCoM2021;GCoMHarmonized2021;GCoM2021,Europe
Alkmaar,NLD,City,Netherlands,29.26,2,52.632381,4.753375,288000,2016,North Holland,,EUCovenantofMayors2021;GCoM2021;GCoMHarmonized2021;GCoM2021,Europe
Alkmaar,NLD,City,Netherlands,29.26,2,52.632381,4.753375,288000,2016,North Holland,,EUCovenantofMayors2021;GCoM2021;GCoMHarmonized2021;GCoM2021,Europe
Alkmaar,NLD,City,Netherlands,29.26,2,52.632381,4.753375,288000,2016,North Holland,,EUCovenantofMayors2021;GCoM2021;GCoMHarmonized2021;GCoM2021,Europe
ALLARIZ,ESP,City,Spain,85.3,NA,42.183,-7.8,6110,2018,Ourense,Ourense,EUCovenantofMayors2021,Europe
Alleghe,ITA,City,Italy,29,NA,46.407347200000004,12.0253222,1408,2004,Province of Belluno,Province of Belluno,EUCovenantofMayors2021,Europe
"Allentown, PA",USA,City,United States of America,749.802105,2,40.601667,-75.477222,120443,2010,Pennsylvania,"Lehigh County, PA",ClimateMayors2019;WeAreStillIn2019,North America
"Allentown, PA",USA,City,United States of America,749.802105,2,40.601667,-75.477222,120443,2010,Pennsylvania,"Lehigh County, PA",ClimateMayors2019;WeAreStillIn2019,North America
"Allentown, PA",USA,City,United States of America,749.802105,2,40.601667,-75.477222,120443,2010,Pennsylvania,"Lehigh County, PA",ClimateMayors2019;WeAreStillIn2019,North America
"Allentown, PA",USA,City,United States of America,749.802105,2,40.601667,-75.477222,120443,2010,Pennsylvania,"Lehigh County, PA",ClimateMayors2019;WeAreStillIn2019,North America
"Allentown, PA",USA,City,United States of America,749.802105,2,40.601667,-75.477222,120443,2010,Pennsylvania,"Lehigh County, PA",ClimateMayors2019;WeAreStillIn2019,North America
Alleroed,DNK,City,Denmark,67.44,2,55.866667,12.366667,24201,NA,Capital Region,Zealand,NAZCA2020;DDLNetZeroDB2020;RacetoZero2020ZCA2020,Europe
Alliste,ITA,City,Italy,23.53,2,39.947527,18.086225,6719,NA,Lecce,,EUCovenantofMayors2021;GCoM2021,Europe
Allo,ESP,City,Spain,NA,NA,42.56722,-2.01917,983,NA,NA,NA,EUCovenantofMayors2021,Europe
Allumiere,ITA,City,Italy,92.17,3,42.15,11.9,4293,NA,Rome,,EUCovenantofMayors2021;GCoM2021;GCoMHarmonized2021;GCoM2021,Europe
Almacelles,ESP,City,Spain,49,3,41.7325,0.440277778,6961,2018,Lleida,Segrià,EUCovenantofMayors2021;GCoM2021;GCoMHarmonized2021;GCoM2021,Europe
Almáchar,ESP,City,Spain,14.3,3,36.8,-4.233333333,1898,2018,Málaga,Axarquía,EUCovenantofMayors2021;GCoM2021;GCoMHarmonized2021;GCoM2021,Europe
Almada,PRT,City,Portugal,70.21,4,38.6803861,-9.1559562,174030,2011,Lisbon,Setúbal,EUCovenantofMayors2021;GCoM2021;GCoMHarmonized2021;GCoM2021,Europe
Almadén de la Plata,ESP,City,Spain,256.02,3,37.8736407,-6.0804953,1696,2018,Seville,,EUCovenantofMayors2021;GCoM2021;GCoMHarmonized2021;GCoM2021,Europe
Almafuerte,ARG,City,Argentina,NA,2,-32.192227,-64.254416,1276000,NA,Córdoba,Tercero Arriba,CDPCities2020;GCoM2021;RacetoZero2020,Latin America and Caribbean
Almafuerte,ARG,City,Argentina,NA,2,-32.192227,-64.254416,1276000,NA,Córdoba,Tercero Arriba,CDPCities2020;GCoM2021;RacetoZero2020,Latin America and Caribbean
Almafuerte,ARG,City,Argentina,NA,2,-32.192227,-64.254416,1276000,NA,Córdoba,Tercero Arriba,CDPCities2020;GCoM2021;RacetoZero2020,Latin America and Caribbean
Almargen,ESP,City,Spain,165,3,37,-5.016666667,2106,2018,Málaga,Comarca of Antequera,EUCovenantofMayors2021;GCoM2021;GCoMHarmonized2021;GCoM2021,Europe
Almásfüzito,HUN,City,Hungary,8.19,NA,47.7287,18.25539,2047,2015,Komárom-Esztergom,Komárom-Esztergom,NA,Europe
Almásfüzitő,HUN,City,Hungary,8.19,NA,47.7287,18.25539,2097,2015,Komárom-Esztergom,Komárom-Esztergom,EUCovenantofMayors2021;GCoM2021,Europe
Almàssera,ESP,City,Spain,2.7,2,39.5118213,-0.3562373,7514,2018,Valencia,Horta Nord,EUCovenantofMayors2021;GCoM2021,Europe
Almassora,ESP,City,Spain,33,3,39.9435743,-0.0634782,24963,2018,Castellón,Plana Alta,EUCovenantofMayors2021;GCoM2021;GCoMHarmonized2021;GCoM2021,Europe
ALMATRET,ESP,City,Spain,56.8,NA,41.3075,0.425,319,2018,Lleida,Lleida,EUCovenantofMayors2021,Europe
Almè,ITA,City,Italy,2,3,45.73333333,9.616666667,5631,NA,Bergamo,,EUCovenantofMayors2021;GCoM2021;GCoMHarmonized2021;GCoM2021,Europe
Almegíjar,ESP,City,Spain,30,3,36.9,-3.3,435,2018,Granada,Alpujarra Granadina,EUCovenantofMayors2021;GCoM2021;GCoMHarmonized2021;GCoM2021,Europe
Almenar,ESP,City,Spain,66.6,2,41.7943506,0.5695395,3502,2018,Lleida,Segrià,EUCovenantofMayors2021;GCoM2021;GCoMHarmonized2021;GCoM2021,Europe
ALMENARA,ESP,City,Spain,37.72,NA,39.783,-2.8,5998,2018,Cuenca,Puebla de Almenara,EUCovenantofMayors2021,Europe
Almendral,ESP,City,Spain,67,2,38.613437,-6.821032,1354,2018,Badajoz,Llanos de Olivenza,EUCovenantofMayors2021;GCoM2021,Europe
Almenno San Bartolomeo,ITA,City,Italy,10.61,3,45.75,9.583333333,5388,NA,Bergamo,,EUCovenantofMayors2021;GCoM2021;GCoMHarmonized2021;GCoM2021,Europe
Almenno San Salvatore,ITA,City,Italy,4.73,3,45.7499556,9.5963684,5789,NA,Bergamo,,EUCovenantofMayors2021;GCoM2021;GCoMHarmonized2021;GCoM2021,Europe
Almensilla,ESP,City,Spain,NA,3,37.3100014,-6.1130522,5096,NA,Seville,,EUCovenantofMayors2021;GCoM2021;GCoMHarmonized2021;GCoM2021,Europe
Almere,NLD,City,Netherlands,129.6,3,52.36666667,5.216666667,193156,2017,Flevoland,,EUCovenantofMayors2021;GCoM2021;GCoMHarmonized2021;GCoM2021,Europe
Almere,NLD,City,Netherlands,129.6,3,52.36666667,5.216666667,193156,2017,Flevoland,,EUCovenantofMayors2021;GCoM2021;GCoMHarmonized2021;GCoM2021,Europe
Almere,NLD,City,Netherlands,129.6,3,52.36666667,5.216666667,193156,2017,Flevoland,,EUCovenantofMayors2021;GCoM2021;GCoMHarmonized2021;GCoM2021,Europe
Almere,NLD,City,Netherlands,129.6,3,52.36666667,5.216666667,193156,2017,Flevoland,,EUCovenantofMayors2021;GCoM2021;GCoMHarmonized2021;GCoM2021,Europe
Almere,NLD,City,Netherlands,129.6,3,52.36666667,5.216666667,193156,2017,Flevoland,,EUCovenantofMayors2021;GCoM2021;GCoMHarmonized2021;GCoM2021,Europe
Almere,NLD,City,Netherlands,129.6,3,52.36666667,5.216666667,193156,2017,Flevoland,,EUCovenantofMayors2021;GCoM2021;GCoMHarmonized2021;GCoM2021,Europe
Almería,ESP,City,Spain,296.21,3,36.84027778,-2.468055556,175000,2018,NA,Comarca de Almería,EUCovenantofMayors2021;GCoM2021;GCoMHarmonized2021;GCoM2021,Europe
Almese,ITA,City,Italy,17.88,3,45.1168763,7.39455,6378,NA,Turin,,EUCovenantofMayors2021;GCoM2021;GCoMHarmonized2021;GCoM2021,Europe
Älmhults,SWE,City,Sweden,8.78,3,56.55,14.116667,15570,2010,Småland,NA,EUCovenantofMayors2021;GCoM2021;GCoMHarmonized2021;GCoM2021,Europe
Älmhults,SWE,City,Sweden,8.78,3,56.55,14.116667,15570,2010,Småland,NA,EUCovenantofMayors2021;GCoM2021;GCoMHarmonized2021;GCoM2021,Europe
Älmhults,SWE,City,Sweden,8.78,3,56.55,14.116667,15570,2010,Småland,NA,EUCovenantofMayors2021;GCoM2021;GCoMHarmonized2021;GCoM2021,Europe
Almiserà,ESP,City,Spain,7.4,2,38.9153082,-0.286036,276,2018,Valencia,Safor,EUCovenantofMayors2021;GCoM2021,Europe
Almócita,ESP,City,Spain,30,3,37.003137,-2.7904478,158,2018,Almería,,EUCovenantofMayors2021;GCoM2021;GCoMHarmonized2021;GCoM2021,Europe
Almoharín,ESP,City,Spain,97,2,39.175874,-6.042773,2082,2018,Cáceres,NA,EUCovenantofMayors2021;GCoM2021,Europe
Almoines,ESP,City,Spain,2.1,2,38.9434696,-0.1809756,2302,2018,Valencia,Safor,EUCovenantofMayors2021;GCoM2021,Europe
Almonacid De La Cuba,ESP,City,Spain,55,3,41.2795006,-0.7923988,270,2018,Aragon,Campo de Belchite,EUCovenantofMayors2021;GCoM2021;GCoMHarmonized2021;GCoM2021,Europe
Almonacid De La Sierra,ESP,City,Spain,54,3,41.4,-1.316666667,824,2018,Aragon,Almonacid de la Sierra,EUCovenantofMayors2021;GCoM2021;GCoMHarmonized2021;GCoM2021,Europe
Almonaster la Real,ESP,City,Spain,322,3,37.87333333,-6.786111111,1848,2018,Huelva,Almonaster la Real,EUCovenantofMayors2021;GCoM2021;GCoMHarmonized2021;GCoM2021,Europe
Almonte,ESP,City,Spain,859.2,3,39.68416667,-6.46,21782,NA,Huelva,,EUCovenantofMayors2021;GCoM2021;GCoMHarmonized2021;GCoM2021,Europe
Almopia,GRC,City,Greece,985.8,2,41.039781,22.09533,29354,2011,Central Macedonia,Pella,EUCovenantofMayors2021;GCoM2021,Europe
Almoradí,ESP,City,Spain,42.72,3,38.1096544,-0.7919255,19601,2018,Valencia,Vega Baja del Segura,EUCovenantofMayors2021;GCoM2021;GCoMHarmonized2021;GCoM2021,Europe
Almoster,ESP,City,Spain,6,3,41.2,1.116666667,1396,2018,Tarragona,Bajo Campo,EUCovenantofMayors2021;GCoM2021;GCoMHarmonized2021;GCoM2021,Europe
Almudaina,ESP,City,Spain,8.82,3,38.7611112,-0.3539786,112,2018,Alicante,Comtat,EUCovenantofMayors2021;GCoM2021;GCoMHarmonized2021;GCoM2021,Europe
Almussafes,ESP,City,Spain,10.77,2,39.2924334,-0.4138576,8744,2018,Valencia,Ribera Baixa,EUCovenantofMayors2021;GCoM2021,Europe
Almyros,GRC,City,Greece,905.4,3,39.18,22.76,18614,2011,Magnesia,,EUCovenantofMayors2021;GCoM2021;GCoMHarmonized2021;GCoM2021,Europe
Alonte,ITA,City,Italy,11.15,2,45.364644,11.428491,1663,NA,Vicenza,,EUCovenantofMayors2021;GCoM2021,Europe
Alor Gajah,MYS,City,Malaysia,635.84,1,2.383333333,102.2166667,198400,NA,Melaka,NA,Carbonn2019,East Asia and the Pacific
Álora,ESP,City,Spain,79.26,2,36.839681,-4.707062,13499,2018,Málaga,Valle del Guadalhorce,EUCovenantofMayors2021;GCoM2021,Europe
Alosno,ESP,City,Spain,193,3,37.55,-7.116666667,4381,2018,Huelva,Andévalo,EUCovenantofMayors2021;GCoM2021;GCoMHarmonized2021;GCoM2021,Europe
Alozaina,ESP,City,Spain,33.85,3,36.7278925,-4.8564749,2236,2018,Málaga,Comarca of Antequera,EUCovenantofMayors2021;GCoM2021;GCoMHarmonized2021;GCoM2021,Europe
Alp,ESP,City,Spain,NA,2,42.372845,1.886116,1747,NA,Girona,Cerdanya,EUCovenantofMayors2021;GCoM2021,Europe
Alpa Corral,ARG,City,Argentina,NA,2,-32.69138,-64.7213,1200,NA,Córdoba,,NAZCA2020;DDLNetZeroDB2020;GlobalCovenantofMayors2019ZCA;RacetoZero2020,Latin America and Caribbean
Alpa Corral,ARG,City,Argentina,NA,2,-32.69138,-64.7213,1200,NA,Córdoba,,NAZCA2020;DDLNetZeroDB2020;GlobalCovenantofMayors2019ZCA;RacetoZero2020,Latin America and Caribbean
Alpa Corral,ARG,City,Argentina,NA,2,-32.69138,-64.7213,1200,NA,Córdoba,,NAZCA2020;DDLNetZeroDB2020;GlobalCovenantofMayors2019ZCA;RacetoZero2020,Latin America and Caribbean
Alpago,ITA,City,Italy,80.34,2,46.1306681,12.3548944,7299,NA,Venice,Belluno,EUCovenantofMayors2021;GCoMHarmonized2021,Europe
Alpandeire,ESP,City,Spain,31.3,3,36.63444444,-5.202777778,271,2018,Málaga,Serranía de Ronda,EUCovenantofMayors2021;GCoM2021;GCoMHarmonized2021;GCoM2021,Europe
Alpens,ESP,City,Spain,13.8,3,42.11666667,2.1,311,2018,Barcelona Province,Osona,EUCovenantofMayors2021;GCoM2021;GCoMHarmonized2021;GCoM2021,Europe
Alpicat,ESP,City,Spain,15.3,3,41.66666667,0.55,6203,2018,Lleida,Segrià,EUCovenantofMayors2021;GCoM2021;GCoMHarmonized2021;GCoM2021,Europe
Alpignano,ITA,City,Italy,11.92,3,45.1,7.516666667,16993,NA,Turin,,EUCovenantofMayors2021;GCoM2021;GCoMHarmonized2021;GCoM2021,Europe
Alpuente,ESP,City,Spain,138.3,2,39.8759884,-1.0137761,640,2018,Valencia,Los Serranos,EUCovenantofMayors2021;GCoM2021,Europe
Alquería de Aznar,ESP,City,Spain,1.08,3,38.77277778,-0.425833333,527,2018,Valencia,Comtat,EUCovenantofMayors2021;GCoM2021;GCoMHarmonized2021;GCoM2021,Europe
Alsace,FRA,Region,France,NA,1,48.66666667,7,1872949,NA,NA,,Under2Coalition2019,Europe
Alsace,FRA,Region,France,NA,1,48.66666667,7,1872949,NA,NA,,Under2Coalition2019,Europe
Alsace,FRA,Region,France,NA,1,48.66666667,7,1872949,NA,NA,,Under2Coalition2019,Europe
Alseno,ITA,City,Italy,55.27,3,44.9,9.966666667,4977,NA,Piacenza,,EUCovenantofMayors2021;GCoM2021;GCoMHarmonized2021;GCoM2021,Europe
Alsómocsolád,HUN,City,Hungary,5,NA,46.317,18.25,311,2015,Baranya,Baranya,EUCovenantofMayors2021;GCoM2021,Europe
Alta Gracia,ARG,City,Argentina,NA,2,-27.5095304,-58.8264294,48506,NA,Córdoba,,GlobalCovenantofMayors2019;NAZCA,Latin America and Caribbean
Alta Gracia,ARG,City,Argentina,NA,2,-27.5095304,-58.8264294,48506,NA,Córdoba,,GlobalCovenantofMayors2019;NAZCA,Latin America and Caribbean
Alta Gracia,ARG,City,Argentina,NA,2,-27.5095304,-58.8264294,48506,NA,Córdoba,,GlobalCovenantofMayors2019;NAZCA,Latin America and Caribbean
Altafulla,ESP,City,Spain,7,3,41.14333333,1.376944444,4928,2018,Tarragona,Tarragonès,EUCovenantofMayors2021;GCoM2021;GCoMHarmonized2021;GCoM2021,Europe
Altare-Cosseria,ITA,City,Italy,NA,2,44.3352858,8.3180253,3249,NA,Liguria,Savona,EUCovenantofMayors2021;GCoMHarmonized2021,Europe
Altavilla Milicia,ITA,City,Italy,23.78,3,38.037851,13.54835,7791,NA,Palermo,,EUCovenantofMayors2021;GCoM2021;GCoMHarmonized2021;GCoM2021,Europe
Altavilla Silentina,ITA,City,Italy,52.48,3,40.5302405,15.1310307,7029,NA,Salerno,,EUCovenantofMayors2021;GCoM2021;GCoMHarmonized2021;GCoM2021,Europe
Altavilla Vicentina,ITA,City,Italy,16.72,3,45.5084288,11.4706863,12084,NA,Vicenza,,EUCovenantofMayors2021;GCoM2021;GCoMHarmonized2021;GCoM2021,Europe
Altea,ESP,City,Spain,34.43,3,38.59861111,-0.0519,21739,2018,Alicante,Marina Baixa,EUCovenantofMayors2021;GCoM2021;GCoMHarmonized2021;GCoM2021,Europe
Alter do Chão,PRT,City,Portugal,362.07,3,39.18333333,-7.65,3591,2011,Alentejo,Portalegre,EUCovenantofMayors2021;GCoM2021;GCoMHarmonized2021;GCoM2021,Europe
ALTIDONA,ITA,City,Italy,12.97,NA,43.117,13.8,3410,2017,Fermo,Fermo,EUCovenantofMayors2021,Europe
Altilia,ITA,City,Italy,10.56,3,39.13333333,16.25,779,NA,Cosenza,,EUCovenantofMayors2021;GCoM2021;GCoMHarmonized2021;GCoM2021,Europe
Altino,ITA,City,Italy,15.33,3,42.1,14.33333333,2823,NA,Chieti Province,,EUCovenantofMayors2021;GCoM2021;GCoMHarmonized2021;GCoM2021,Europe
Altivole,ITA,City,Italy,21.95,3,45.7540029,11.9553621,6828,NA,Treviso,,EUCovenantofMayors2021;GCoM2021;GCoMHarmonized2021;GCoM2021,Europe
Alto,ITA,City,Italy,40.0671453,2,46.433666,11.16933,113,2010,Cuneo,,EUCovenantofMayors2021;GCoM2021,Europe
Alto Agordino,ITA,City,Italy,NA,3,46.2683053,12.036373,3869,NA,Venice,Belluno,EUCovenantofMayors2021;GCoM2021;GCoMHarmonized2021;GCoM2021,Europe
Alto Alegre,BRA,City,Brazil,25567,2,-21.623976,-50.203844,4164,2015,Roraima,,GlobalCovenantofMayors2019;NAZCA,Latin America and Caribbean
Alto e Medio Metauro,ITA,City,Italy,590.82,2,43.668333,12.524167,41375,NA,Marche,,EUCovenantofMayors2021;GCoMHarmonized2021,Europe
Alto Reno Terme,ITA,City,Italy,73.64,NA,44.16028,10.97333,7003,2015,NA,Bologna,EUCovenantofMayors2021,Europe
Altofonte,ITA,City,Italy,35.44,2,38.044476,13.298103,10438,NA,Sicily,Palermo,EUCovenantofMayors2021;GCoM2021,Europe
"Alton, IL",USA,City,United States of America,43,4,38.90055556,-90.15972222,26581,2010,Illinois,"Madison County, IL",CDPCities2020;GCoM2021,North America
"Alton, IL",USA,City,United States of America,43,4,38.90055556,-90.15972222,26581,2010,Illinois,"Madison County, IL",CDPCities2020;GCoM2021,North America
"Alton, IL",USA,City,United States of America,43,4,38.90055556,-90.15972222,26581,2010,Illinois,"Madison County, IL",CDPCities2020;GCoM2021,North America
"Alton, IL",USA,City,United States of America,43,4,38.90055556,-90.15972222,26581,2010,Illinois,"Madison County, IL",CDPCities2020;GCoM2021,North America
"Alton, IL",USA,City,United States of America,43,4,38.90055556,-90.15972222,26581,2010,Illinois,"Madison County, IL",CDPCities2020;GCoM2021,North America
Altötting,DEU,City,Germany,23.43,3,48.2268085,12.6757914,13000,NA,Bavaria,NA,EUCovenantofMayors2021;GCoM2021;GCoMHarmonized2021;GCoM2021,Europe
Altötting,DEU,City,Germany,23.43,3,48.2268085,12.6757914,13000,NA,Bavaria,NA,EUCovenantofMayors2021;GCoM2021;GCoMHarmonized2021;GCoM2021,Europe
Altötting,DEU,City,Germany,23.43,3,48.2268085,12.6757914,13000,NA,Bavaria,NA,EUCovenantofMayors2021;GCoM2021;GCoMHarmonized2021;GCoM2021,Europe
Altsasu,ESP,City,Spain,26.72,NA,42.89528,-2.16889,7407,2018,Navarre,Navarre,EUCovenantofMayors2021,Europe
Altura,ESP,City,Spain,7.3037718,2,39.850792,-0.512944,3920,2010,Castellón,,EUCovenantofMayors2021;GCoM2021,Europe
Aluminé,ARG,City,Argentina,NA,NA,-39.217,-70.95,3720,2001,Neuquén,Neuquén,Race to Zero,Latin America and Caribbean
Aluminé,ARG,City,Argentina,NA,NA,-39.217,-70.95,3720,2001,Neuquén,Neuquén,Race to Zero,Latin America and Caribbean
Aluminé,ARG,City,Argentina,NA,NA,-39.217,-70.95,3720,2001,Neuquén,Neuquén,Race to Zero,Latin America and Caribbean
Alvaiázere,PRT,City,Portugal,160.48,3,39.8161333,-8.402046067,8112,2011,Centro,Leiria,EUCovenantofMayors2021;GCoM2021;GCoMHarmonized2021;GCoM2021,Europe
Alvarado,MEX,City,Mexico,840.63,2,18.76648,-95.7573,56927,2005,Veracruz,NA,GlobalCovenantofMayors2019;NAZCA,Latin America and Caribbean
Alvesta,SWE,City,Sweden,6.1,3,56.86382675,14.44793099,18757,2010,Småland,NA,EUCovenantofMayors2021;GCoM2021;GCoMHarmonized2021;GCoM2021,Europe
Alvesta,SWE,City,Sweden,6.1,3,56.86382675,14.44793099,18757,2010,Småland,NA,EUCovenantofMayors2021;GCoM2021;GCoMHarmonized2021;GCoM2021,Europe
Alvesta,SWE,City,Sweden,6.1,3,56.86382675,14.44793099,18757,2010,Småland,NA,EUCovenantofMayors2021;GCoM2021;GCoMHarmonized2021;GCoM2021,Europe
Alvignano,ITA,City,Italy,38.13,3,41.25,14.33333333,4885,NA,Caserta,,EUCovenantofMayors2021;GCoM2021;GCoMHarmonized2021;GCoM2021,Europe
Älvsbyn,SWE,City,Sweden,6.35,3,65.68333333,21.01666667,8274,2010,Norrbotten County,NA,EUCovenantofMayors2021;GCoM2021;GCoMHarmonized2021;GCoM2021,Europe
Älvsbyn,SWE,City,Sweden,6.35,3,65.68333333,21.01666667,8274,2010,Norrbotten County,NA,EUCovenantofMayors2021;GCoM2021;GCoMHarmonized2021;GCoM2021,Europe
Älvsbyn,SWE,City,Sweden,6.35,3,65.68333333,21.01666667,8274,2010,Norrbotten County,NA,EUCovenantofMayors2021;GCoM2021;GCoMHarmonized2021;GCoM2021,Europe
Alzano Lombardo,ITA,City,Italy,13.68,3,45.73333333,9.733333333,13757,NA,Bergamo,,EUCovenantofMayors2021;GCoM2021;GCoMHarmonized2021;GCoM2021,Europe
Alzira,ESP,City,Spain,110.4,2,39.1512424,-0.4346132,44518,2018,Valencia,Ribera Alta,EUCovenantofMayors2021;GCoM2021,Europe
Amacuzac,MEX,City,Mexico,125,1,18,-99,17021,NA,Morelos,,Carbonn2019,Latin America and Caribbean
Amadora,PRT,City,Portugal,23.78,2,38.75776,-9.224547,172350,2011,Lisbon,,EUCovenantofMayors2021;GCoM2021,Europe
Amami,JPN,City,Japan,308.15,1,28.31666667,129.45,44561,2016,Kagoshima Prefecture,Kagoshima,Carbonn2019,East Asia and the Pacific
Amarante,PRT,City,Portugal,301.33,NA,41.266999999999996,-8.067,56264,2011,Norte,Porto,CDPCities2020,Europe
Amares,PRT,City,Portugal,81.95,3,41.61666667,-8.333333333,19000,2011,Norte,Braga,EUCovenantofMayors2021;GCoM2021;GCoMHarmonized2021;GCoM2021,Europe
Amaroussion,GRC,City,Greece,12.938,3,38.0455,23.7689,72480,2011,Attica,North Athens,EUCovenantofMayors2021;GCoM2021;GCoMHarmonized2021;GCoM2021,Europe
Amato,ITA,City,Italy,20.93,3,38.93333333,16.46666667,861,NA,Reggio Calabria,Catanzaro,EUCovenantofMayors2021;GCoM2021;GCoMHarmonized2021;GCoM2021,Europe
Amay,BEL,City,Belgium,27.61,2,50.5497761,5.3240992,14145,NA,Liège,Huy,EUCovenantofMayors2021;GCoM2021;GCoMHarmonized2021;GCoM2021,Europe
Amay,BEL,City,Belgium,27.61,2,50.5497761,5.3240992,14145,NA,Liège,Huy,EUCovenantofMayors2021;GCoM2021;GCoMHarmonized2021;GCoM2021,Europe
Amay,BEL,City,Belgium,27.61,2,50.5497761,5.3240992,14145,NA,Liège,Huy,EUCovenantofMayors2021;GCoM2021;GCoMHarmonized2021;GCoM2021,Europe
"Amazonas, Brazil",BRA,Region,Brazil,1570745.7,2,-5,-63,4063614,2010,NA,,CDPStates&Regions2020;Under2Coalition2021;Under2Coalition2020,Latin America and Caribbean
"Amazonas, Peru",PER,Region,Peru,39249.13,3,-6.216666667,-77.85,424952,2017,NA,,CDPStates&Regions2020;Under2Coalition2021;Under2Coalition2020,Latin America and Caribbean
Ambivere,ITA,City,Italy,3.28,3,45.71666667,9.55,2371,NA,Bergamo,,EUCovenantofMayors2021;GCoM2021;GCoMHarmonized2021;GCoM2021,Europe
"Ambler, PA",USA,City,United States of America,23.2581102,2,67.085,-157.8602778,6506,2010,Pennsylvania,,ClimateMayors2019;WeAreStillIn2019,North America
"Ambler, PA",USA,City,United States of America,23.2581102,2,67.085,-157.8602778,6506,2010,Pennsylvania,,ClimateMayors2019;WeAreStillIn2019,North America
"Ambler, PA",USA,City,United States of America,23.2581102,2,67.085,-157.8602778,6506,2010,Pennsylvania,,ClimateMayors2019;WeAreStillIn2019,North America
"Ambler, PA",USA,City,United States of America,23.2581102,2,67.085,-157.8602778,6506,2010,Pennsylvania,,ClimateMayors2019;WeAreStillIn2019,North America
"Ambler, PA",USA,City,United States of America,23.2581102,2,67.085,-157.8602778,6506,2010,Pennsylvania,,ClimateMayors2019;WeAreStillIn2019,North America
Ameglia,ITA,City,Italy,14.17,3,44.06666667,9.95,4520,NA,La Spezia,,EUCovenantofMayors2021;GCoM2021;GCoMHarmonized2021;GCoM2021,Europe
Amel,BEL,City,Belgium,125.15,2,50.3543055,6.1705559,5500,NA,Liège,Verviers,EUCovenantofMayors2021;GCoM2021,Europe
Amel,BEL,City,Belgium,125.15,2,50.3543055,6.1705559,5500,NA,Liège,Verviers,EUCovenantofMayors2021;GCoM2021,Europe
Amel,BEL,City,Belgium,125.15,2,50.3543055,6.1705559,5500,NA,Liège,Verviers,EUCovenantofMayors2021;GCoM2021,Europe
Amendolara,ITA,City,Italy,60.91,3,39.9524383,16.5822838,3107,NA,Cosenza,,EUCovenantofMayors2021;GCoM2021;GCoMHarmonized2021;GCoM2021,Europe
Ameno,ITA,City,Italy,10,3,45.7886563,8.4413106,878,NA,Novara,,EUCovenantofMayors2021;GCoM2021;GCoMHarmonized2021;GCoM2021,Europe
Amer,ESP,City,Spain,NA,3,42.0092186,2.6030327,2300,NA,Girona,Selva,EUCovenantofMayors2021;GCoM2021;GCoMHarmonized2021;GCoM2021,Europe
Ames,ESP,City,Spain,80.55,NA,42.9,-8.633,32000,2018,A Coruña,A Coruña,EUCovenantofMayors2021,Europe
Améscoa Baja,ESP,City,Spain,30.2,NA,42.77417,-2.13278,730,2018,NA,Navarra,NA,Europe
Améscoa Baja / Ameskoabarrena,ESP,City,Spain,30.2,NA,42.77417,-2.13278,730,2018,NA,Navarra,EUCovenantofMayors2021,Europe
"Amesville, OH",USA,City,United States of America,0.5697978,1,39.401389,-81.955,157,2010,Ohio,"Athens County, OH",ClimateMayors2019,North America
"Amesville, OH",USA,City,United States of America,0.5697978,1,39.401389,-81.955,157,2010,Ohio,"Athens County, OH",ClimateMayors2019,North America
"Amesville, OH",USA,City,United States of America,0.5697978,1,39.401389,-81.955,157,2010,Ohio,"Athens County, OH",ClimateMayors2019,North America
"Amesville, OH",USA,City,United States of America,0.5697978,1,39.401389,-81.955,157,2010,Ohio,"Athens County, OH",ClimateMayors2019,North America
"Amesville, OH",USA,City,United States of America,0.5697978,1,39.401389,-81.955,157,2010,Ohio,"Athens County, OH",ClimateMayors2019,North America
Amezketa,ESP,City,Spain,NA,3,43.04916667,-2.088055556,994,2018,Biscay,Tolosaldea,EUCovenantofMayors2021;GCoM2021;GCoMHarmonized2021;GCoM2021,Europe
Amiens,FRA,City,France,NA,2,49.8941708,2.2956951,132727,NA,Hauts-de-France,NA,EUCovenantofMayors2021;GCoM2021;GCoMHarmonized2021;GCoM2021,Europe
Amiens,FRA,City,France,NA,2,49.8941708,2.2956951,132727,NA,Hauts-de-France,NA,EUCovenantofMayors2021;GCoM2021;GCoMHarmonized2021;GCoM2021,Europe
Amiens,FRA,City,France,NA,2,49.8941708,2.2956951,132727,NA,Hauts-de-France,NA,EUCovenantofMayors2021;GCoM2021;GCoMHarmonized2021;GCoM2021,Europe
Amiens Métropole,FRA,City,France,NA,2,49.87267,2.313818,177345,NA,Hauts-de-France,Amiens,EUCovenantofMayors2021;GCoM2021,Europe
Amiens Métropole,FRA,City,France,NA,2,49.87267,2.313818,177345,NA,Hauts-de-France,Amiens,EUCovenantofMayors2021;GCoM2021,Europe
