name,iso,entity_type,country,region,area,area_units,initiatives_committed,num_commit,lat,lng,population,population_year,state,APPC,C40Cities2019,CDPCities2018,Carbonn2019,ClimateAlliance2019,ClimateMayors,CompactofStatesRegions2018,EUCovenantofMayors2019,GlobalCovenantofMayors2019,IGDP2019,NAZCA,Under2Coalition2019,WeAreStillIn2019
!Kheis,ZAF,City,South Africa,Sub-Saharan Africa,11107,km2,GlobalCovenantofMayors2019;NAZCA,2,-30.4620482,17.9929881,16637,2011,Northern Cape,0,0,0,0,0,0,0,0,1,0,1,0,0
A Bola,ESP,City,Spain,Europe,34.9,km2,EUCovenantofMayors2019;GlobalCovenantofMayors2019;NAZCA,3,42.15194444,-7.913888889,1339,2018,Cáceres,0,0,0,0,0,0,0,1,1,0,1,0,0
A Coru<c3><b1>a,ESP,City,Spain,Europe,37.83,km2,GlobalCovenantofMayors2019;Carbonn2019;EUCovenantofMayors2019;NAZCA,4,43.3712091,-8.3958767,247482,2018,A Coruña,0,0,0,1,0,0,0,1,1,0,1,0,0
<c3><85><c2><a0>empeter-Vrtojba,SVN,City,Slovenia,Europe,15,km2,GlobalCovenantofMayors2019;EUCovenantofMayors2019;NAZCA,3,45.916667,13.65,6269,,Šempeter–Vrtojba,0,0,0,0,0,0,0,1,1,0,1,0,0
Aachen,DEU,City,Germany,Europe,160.85,km2,GlobalCovenantofMayors2019;EUCovenantofMayors2019;NAZCA,3,50.776351,6.083862,244509,,North Rhine-Westphalia,0,0,0,0,0,0,0,1,1,0,1,0,0
Aalborg,DNK,City,Denmark,Europe,139,km2,EUCovenantofMayors2019;GlobalCovenantofMayors2019;NAZCA,3,57.05,9.916666667,205809,2016,North Denmark Region,0,0,0,0,0,0,0,1,1,0,1,0,0
Aalst,BEL,City,Belgium,Europe,78.12,km2,EUCovenantofMayors2019;GlobalCovenantofMayors2019;NAZCA,3,50.93333333,4.033333333,83267,,East Flanders,0,0,0,0,0,0,0,1,1,0,1,0,0
Aarhus,DNK,City,Denmark,Europe,468,km2,GlobalCovenantofMayors2019;NAZCA,2,56.1496278,10.2134046,305000,2018,Central Denmark Region,0,0,0,0,0,0,0,0,1,0,1,0,0
Aarschot,BEL,City,Belgium,Europe,62.52,km2,GlobalCovenantofMayors2019;EUCovenantofMayors2019;NAZCA,3,50.9855815,4.834949915,28760,,Flemish Brabant,0,0,0,0,0,0,0,1,1,0,1,0,0
Abaetetuba,BRA,City,Brazil,Latin America and Caribbean,430.9,km2,GlobalCovenantofMayors2019;NAZCA,2,-1.72509,-48.889938,153553,,Pará,0,0,0,0,0,0,0,0,1,0,1,0,0
Abanilla,ESP,City,Spain,Europe,236.6,km2,GlobalCovenantofMayors2019;NAZCA,2,38.205181,-1.04066,6500,2018,Murcia,0,0,0,0,0,0,0,0,1,0,1,0,0
Abano Terme,ITA,City,Italy,Europe,21.41,km2,EUCovenantofMayors2019;GlobalCovenantofMayors2019;NAZCA,3,45.36027778,11.79,18206,,Padua,0,0,0,0,0,0,0,1,1,0,1,0,0
Abanto-Zierbena,ESP,City,Spain,Europe,18.03,km2,GlobalCovenantofMayors2019;EUCovenantofMayors2019;NAZCA,3,43.31184035,-3.089286215,9724,2018,Biscay,0,0,0,0,0,0,0,1,1,0,1,0,0
Abar<c3><a1>n,ESP,City,Spain,Europe,115,km2,EUCovenantofMayors2019;GlobalCovenantofMayors2019;NAZCA,3,38.2,-1.4,13110,2018,Murcia,0,0,0,0,0,0,0,1,1,0,1,0,0
Abasan Al-Kabira,PSE,City,Palestine,Middle East and North Africa,,"",GlobalCovenantofMayors2019;EUCovenantofMayors2019;Carbonn2019;CDPCities2018;NAZCA,5,31.3238491,34.3497101,32000,2017,State of Palestine,0,0,1,1,0,0,0,1,1,0,1,0,0
Abbadia Lariana,ITA,City,Italy,Europe,16.67,km2,EUCovenantofMayors2019;GlobalCovenantofMayors2019;NAZCA,3,45.9,9.333333333,3249,,Lecco,0,0,0,0,0,0,0,1,1,0,1,0,0
Abbateggio,ITA,City,Italy,Europe,15.4,km2,EUCovenantofMayors2019;GlobalCovenantofMayors2019;NAZCA,3,42.23333333,14.01666667,443,,Pescara,0,0,0,0,0,0,0,1,1,0,1,0,0
Abbiategrasso,ITA,City,Italy,Europe,47.78,km2,GlobalCovenantofMayors2019;EUCovenantofMayors2019;NAZCA,3,45.400767,8.918542,30000,,Lombardy,0,0,0,0,0,0,0,1,1,0,1,0,0
Ab<c3><a9>ch<c3><a9>,TCD,City,Chad,Sub-Saharan Africa,,"",GlobalCovenantofMayors2019;NAZCA,2,13.835912,20.843371,2e+05,2012,Ouaddaï Region,0,0,0,0,0,0,0,0,1,0,1,0,0
Abegondo,ESP,City,Spain,Europe,83.81,km2,GlobalCovenantofMayors2019;NAZCA,2,43.21912,-8.297905,7509,2018,A Coruña,0,0,0,0,0,0,0,0,1,0,1,0,0
Aberdeen,GBR,City,United Kingdom,Europe,,"",GlobalCovenantofMayors2019;EUCovenantofMayors2019;NAZCA,3,57.1452452,-2.0913744,213810,,Scotland,0,0,0,0,0,0,0,1,1,0,1,0,0
Aberdeenshire,GBR,Region,United Kingdom,Europe,6313,km2,GlobalCovenantofMayors2019,1,57.16666667,-2.666666667,243510,,Aberdeenshire,0,0,0,0,0,0,0,0,1,0,0,0,0
Abertura,ESP,City,Spain,Europe,,"",GlobalCovenantofMayors2019;NAZCA,2,39.24395,-5.8147,456,,Cáceres,0,0,0,0,0,0,0,0,1,0,1,0,0
Abidjan,CIV,City,Cote d'Ivoire,Sub-Saharan Africa,422,km2,C40Cities2019;GlobalCovenantofMayors2019;NAZCA,3,5.316666667,-4.033333333,3677115,,Abidjan,0,1,0,0,0,0,0,0,1,0,1,0,0
"Abington, PA",USA,City,United States of America,North America,25.122903,km2,CDPCities2018,1,40.1241,-75.1195,55310,2010,Massachusetts,0,0,1,0,0,0,0,0,0,0,0,0,0
Abla,ESP,City,Spain,Europe,45.24,km2,GlobalCovenantofMayors2019;EUCovenantofMayors2019;NAZCA,3,37.1416926,-2.7792317,1505,2018,Almería,0,0,0,0,0,0,0,1,1,0,1,0,0
Aboisso,CIV,City,Cote d'Ivoire,Sub-Saharan Africa,,"",GlobalCovenantofMayors2019;NAZCA,2,5.474511,-3.203076,63332,2014,Comoé,0,0,0,0,0,0,0,0,1,0,1,0,0
Abrantes,PRT,City,Portugal,Europe,714.69,km2,GlobalCovenantofMayors2019;EUCovenantofMayors2019;NAZCA,3,39.44010295,-8.128236307,19132,2011,Centro,0,0,0,0,0,0,0,1,1,0,1,0,0
Abrera,ESP,City,Spain,Europe,19.9,km2,EUCovenantofMayors2019;GlobalCovenantofMayors2019;NAZCA,3,41.51666667,1.9,11521,2018,Barcelona Province,0,0,0,0,0,0,0,1,1,0,1,0,0
Abriola,ITA,City,Italy,Europe,97.19,km2,GlobalCovenantofMayors2019;EUCovenantofMayors2019;NAZCA,3,40.5078822,15.8137603,1617,,Potenza,0,0,0,0,0,0,0,1,1,0,1,0,0
Abrucena,ESP,City,Spain,Europe,83,km2,GlobalCovenantofMayors2019;EUCovenantofMayors2019;NAZCA,3,37.1332098,-2.7974819,1358,2018,Almería,0,0,0,0,0,0,0,1,1,0,1,0,0
Abruzzo,ITA,Region,Italy,Europe,10763,km2,Under2Coalition2019;NAZCA,2,42.36611111,12.39444444,1326513,2016,Abruzzo,0,0,0,0,0,0,0,0,0,0,1,1,0
Abuja,NGA,City,Nigeria,Sub-Saharan Africa,1769,km2,CDPCities2018,1,9.07647,7.39857,2440000,2017,Federal Capital Territory,0,0,1,0,0,0,0,0,0,0,0,0,0
Aburr<c3><a1> Valley,COL,City,Colombia,Latin America and Caribbean,1152,"",Carbonn2019;NAZCA,2,6,-75,3591963,,Antioquia,0,0,0,1,0,0,0,0,0,0,1,0,0
Acate,ITA,City,Italy,Europe,102.47,km2,EUCovenantofMayors2019;GlobalCovenantofMayors2019;NAZCA,3,37.03388889,14.49416667,10432,,Ragusa,0,0,0,0,0,0,0,1,1,0,1,0,0
Accadia,ITA,City,Italy,Europe,30.74,km2,EUCovenantofMayors2019;GlobalCovenantofMayors2019;NAZCA,3,41.16666667,15.33333333,2470,,Foggia,0,0,0,0,0,0,0,1,1,0,1,0,0
Accettura,ITA,City,Italy,Europe,90.37,km2,EUCovenantofMayors2019;GlobalCovenantofMayors2019;NAZCA,3,40.48333333,16.15,2020,,Matera,0,0,0,0,0,0,0,1,1,0,1,0,0
Acciano,ITA,City,Italy,Europe,32.22,km2,EUCovenantofMayors2019;GlobalCovenantofMayors2019;NAZCA,3,42.18333333,13.73333333,339,,Province of L'Aquila,0,0,0,0,0,0,0,1,1,0,1,0,0
Accra,GHA,City,Ghana,Sub-Saharan Africa,225.67,km2,GlobalCovenantofMayors2019;C40Cities2019;CDPCities2018;NAZCA,4,5.5600141,-0.2057436,1986580,2017,Greater Accra Region,0,1,1,0,0,0,0,0,1,0,1,0,0
Acered,ESP,City,Spain,Europe,30,km2,GlobalCovenantofMayors2019;EUCovenantofMayors2019;NAZCA,3,41.1704796,-1.6042984,243,2018,Zaragoza,0,0,0,0,0,0,0,1,1,0,1,0,0
Acerenza,ITA,City,Italy,Europe,77.64,km2,EUCovenantofMayors2019;GlobalCovenantofMayors2019;NAZCA,3,40.79690278,15.94068056,2623,,Potenza,0,0,0,0,0,0,0,1,1,0,1,0,0
Acharnes,GRC,City,Greece,Europe,149.96,km2,GlobalCovenantofMayors2019;NAZCA,2,38.08522,23.738064,80121,2011,Attica,0,0,0,0,0,0,0,0,1,0,1,0,0
Aci Bonaccorsi,ITA,City,Italy,Europe,1.72,km2,GlobalCovenantofMayors2019;NAZCA,2,37.595517,15.109543,3272,,Sicily,0,0,0,0,0,0,0,0,1,0,1,0,0
Aci Castello,ITA,City,Italy,Europe,8.71,km2,GlobalCovenantofMayors2019;EUCovenantofMayors2019;NAZCA,3,37.5542111,15.14856,18080,,Catania,0,0,0,0,0,0,0,1,1,0,1,0,0
Aci Catena,ITA,City,Italy,Europe,8.53,km2,GlobalCovenantofMayors2019;NAZCA,2,37.606435,15.141924,29662,,Sicily,0,0,0,0,0,0,0,0,1,0,1,0,0
Aci Sant'Antonio,ITA,City,Italy,Europe,14.33,km2,GlobalCovenantofMayors2019;EUCovenantofMayors2019;NAZCA,3,37.6064186,15.1260733,17479,,Catania,0,0,0,0,0,0,0,1,1,0,1,0,0
Acign<c3><a9>,FRA,City,France,Europe,,"",GlobalCovenantofMayors2019;NAZCA,2,48.13368,-1.53385,5246,2016,Brittany,0,0,0,0,0,0,0,0,1,0,1,0,0
Acireale,ITA,City,Italy,Europe,40.43,km2,GlobalCovenantofMayors2019;EUCovenantofMayors2019;NAZCA,3,37.6127773,15.1658804,53122,,Catania,0,0,0,0,0,0,0,1,1,0,1,0,0
Acquanegra sul Chiese,ITA,City,Italy,Europe,28.01,km2,EUCovenantofMayors2019;GlobalCovenantofMayors2019;NAZCA,3,45.16666667,10.43333333,3016,,Mantua,0,0,0,0,0,0,0,1,1,0,1,0,0
Acquapendente,ITA,City,Italy,Europe,131.61,km2,GlobalCovenantofMayors2019;NAZCA,2,42.747723,11.86302,5619,,Viterbo,0,0,0,0,0,0,0,0,1,0,1,0,0
Acquappesa,ITA,City,Italy,Europe,14.45,km2,EUCovenantofMayors2019;GlobalCovenantofMayors2019;NAZCA,3,39.5,15.95,1882,,Cosenza,0,0,0,0,0,0,0,1,1,0,1,0,0
Acquarica del capo,ITA,City,Italy,Europe,18.7,km2,GlobalCovenantofMayors2019;NAZCA,2,39.907845,18.231821,4951,,Lecce,0,0,0,0,0,0,0,0,1,0,1,0,0
Acquaviva Collecroce,ITA,City,Italy,Europe,28.6,km2,EUCovenantofMayors2019;GlobalCovenantofMayors2019;NAZCA,3,41.86666667,14.75,674,,Campobasso,0,0,0,0,0,0,0,1,1,0,1,0,0
Acquaviva delle Fonti,ITA,City,Italy,Europe,132.03,km2,EUCovenantofMayors2019;GlobalCovenantofMayors2019;NAZCA,3,40.9,16.85,21000,,Bari,0,0,0,0,0,0,0,1,1,0,1,0,0
Acquaviva Platani,ITA,City,Italy,Europe,14.63,km2,EUCovenantofMayors2019;GlobalCovenantofMayors2019;NAZCA,3,37.56666667,13.7,1033,,Caltanissetta,0,0,0,0,0,0,0,1,1,0,1,0,0
Acquedolci,ITA,City,Italy,Europe,12.93,km2,EUCovenantofMayors2019;NAZCA,2,38.05,14.58333333,5500,2015,Messina,0,0,0,0,0,0,0,1,0,0,1,0,0
Acre,BRA,Region,Brazil,Latin America and Caribbean,152581,km2,Under2Coalition2019;NAZCA,2,-9.116666667,-70.51666667,790101,2014,Acre,0,0,0,0,0,0,0,0,0,0,1,1,0
Acri,ITA,City,Italy,Europe,200.63,km2,GlobalCovenantofMayors2019;NAZCA,2,39.488691,16.382857,21195,,Cosenza,0,0,0,0,0,0,0,0,1,0,1,0,0
"Acton, MA",USA,City,United States of America,North America,,"",WeAreStillIn2019,1,42.485,-71.4333333333333,219292,,Massachusetts,0,0,0,0,0,0,0,0,0,0,0,0,1
Adachi,JPN,City,Japan,East Asia and the Pacific,53,km2,Carbonn2019,1,35.78333333,139.8,669143,2015,Tokyo Metropolis,0,0,0,1,0,0,0,0,0,0,0,0,0
"Adams County, CO",USA,City,United States of America,North America,,"",Carbonn2019,1,38.79388889,-83.54361111,45913,2017,Colorado,0,0,0,1,0,0,0,0,0,0,0,0,0
"Adams, MA",USA,City,United States of America,North America,59.310771,km2,GlobalCovenantofMayors2019;NAZCA,2,39.839827,-104.193092,498187,2010,Massachusetts,0,0,0,0,0,0,0,0,1,0,1,0,0
Adamuz,ESP,City,Spain,Europe,334,km2,EUCovenantofMayors2019;GlobalCovenantofMayors2019;NAZCA,3,38.01666667,-4.516666667,4476,2018,Córdoba,0,0,0,0,0,0,0,1,1,0,1,0,0
Addis Ababa,ETH,City,Ethiopia,Sub-Saharan Africa,527,km2,C40Cities2019;CDPCities2018;GlobalCovenantofMayors2019;NAZCA,4,9.03,38.74,3103374,2013,Addis Ababa,0,1,1,0,0,0,0,0,1,0,1,0,0
Adeje,ESP,City,Spain,Europe,105.95,km2,GlobalCovenantofMayors2019;NAZCA,2,28.1219416,-16.7241892,46667,2018,Santa Cruz de Tenerife,0,0,0,0,0,0,0,0,1,0,1,0,0
Adelaide,AUS,City,Australia,East Asia and the Pacific,3257.7,km2,Carbonn2019;GlobalCovenantofMayors2019;CDPCities2018;NAZCA,4,-34.92888889,138.6011111,23916,2017,South Australia,0,0,1,1,0,0,0,0,1,0,1,0,0
Ademuz,ESP,City,Spain,Europe,100.42,km2,GlobalCovenantofMayors2019;NAZCA,2,40.0632676,-1.2862303,1092,2018,Valencia,0,0,0,0,0,0,0,0,1,0,1,0,0
Adjud,ROU,City,Romania,Europe,59.1,km2,GlobalCovenantofMayors2019;NAZCA,2,46.096196,27.18219,17585,2011,Vrancea County,0,0,0,0,0,0,0,0,1,0,1,0,0
Administration commmunale de Seneffe,BEL,City,Belgium,Europe,,"",GlobalCovenantofMayors2019;NAZCA,2,50.52964,4.256984,11161,,Wallonia,0,0,0,0,0,0,0,0,1,0,1,0,0
Administration communale d'Estinnes,BEL,City,Belgium,Europe,,"",GlobalCovenantofMayors2019;NAZCA,2,50.516667,4.25,2475,2018,Wallonia,0,0,0,0,0,0,0,0,1,0,1,0,0
Administration Communale de Tellin,BEL,City,Belgium,Europe,56.64,km2,EUCovenantofMayors2019;GlobalCovenantofMayors2019;NAZCA,3,50.081667,5.218333,2468,,Luxembourg,0,0,0,0,0,0,0,1,1,0,1,0,0
Ador,ESP,City,Spain,Europe,13.8,km2,GlobalCovenantofMayors2019;NAZCA,2,38.9177071,-0.2249926,1374,2018,Valencia,0,0,0,0,0,0,0,0,1,0,1,0,0
Adra,ESP,City,Spain,Europe,83.22,km2,EUCovenantofMayors2019;GlobalCovenantofMayors2019;NAZCA,3,37.66666667,14.83333333,23195,,Almería,0,0,0,0,0,0,0,1,1,0,1,0,0
Adrano,ITA,City,Italy,Europe,83.22,km2,GlobalCovenantofMayors2019;EUCovenantofMayors2019;NAZCA,3,37.661966,14.8333672,35519,,Catania,0,0,0,0,0,0,0,1,1,0,1,0,0
<c3><86>r<c3><b8>,DNK,City,Denmark,Europe,,"",CDPCities2018;GlobalCovenantofMayors2019;EUCovenantofMayors2019;NAZCA,4,54.8914,10.4047,6180,2017,South Denmark Region,0,0,1,0,0,0,0,1,1,0,1,0,0
Affi,ITA,City,Italy,Europe,9.88,km2,GlobalCovenantofMayors2019;EUCovenantofMayors2019;NAZCA,3,45.5540914,10.7764241,1942,,Verona,0,0,0,0,0,0,0,1,1,0,1,0,0
Afragola,ITA,City,Italy,Europe,17.91,km2,GlobalCovenantofMayors2019;NAZCA,2,40.923039,14.309304,63674,,Naples,0,0,0,0,0,0,0,0,1,0,1,0,0
Agadir,MAR,City,Morocco,Middle East and North Africa,,"",EUCovenantofMayors2019;GlobalCovenantofMayors2019;NAZCA,3,30.43333333,-9.6,450000,2014,Agadir-Ida Ou Tanane,0,0,0,0,0,0,0,1,1,0,1,0,0
Agaete,ESP,City,Spain,Europe,45.5,km2,GlobalCovenantofMayors2019;NAZCA,2,28.100259,-15.699674,5558,2018,Las Palmas,0,0,0,0,0,0,0,0,1,0,1,0,0
Ag<c3><aa>ncia de energia M<c3><a9>dioTejo21,PRT,City,Portugal,Europe,,"",GlobalCovenantofMayors2019;EUCovenantofMayors2019,2,39.53604175,-8.332223294,219465,,Santarém,0,0,0,0,0,0,0,1,1,0,0,0,0
<c3><80>ger,ESP,City,Spain,Europe,160.6,km2,GlobalCovenantofMayors2019;EUCovenantofMayors2019;NAZCA,3,42.0000879,0.7632247,590,2018,Lleida,0,0,0,0,0,0,0,1,1,0,1,0,0
Agerola,ITA,City,Italy,Europe,19.83,km2,GlobalCovenantofMayors2019;EUCovenantofMayors2019;NAZCA,3,40.637707,14.538839,7500,,Naples,0,0,0,0,0,0,0,1,1,0,1,0,0
Aggregazione BERNEZZO,ITA,City,Italy,Europe,,"",GlobalCovenantofMayors2019;EUCovenantofMayors2019,2,44.3886068,7.4332093,5631,,Cuneo,0,0,0,0,0,0,0,1,1,0,0,0,0
Aggregazione Castelletto Stura,ITA,City,Italy,Europe,,"",GlobalCovenantofMayors2019;EUCovenantofMayors2019,2,44.4417886,7.638649,9322,,Cuneo,0,0,0,0,0,0,0,1,1,0,0,0,0
Aggregazione Ceva,ITA,City,Italy,Europe,,"",GlobalCovenantofMayors2019;EUCovenantofMayors2019,2,44.386254,8.029079,6678,,Cuneo,0,0,0,0,0,0,0,1,1,0,0,0,0
Aggregazione Diano D'alba,ITA,City,Italy,Europe,,"",EUCovenantofMayors2019;GlobalCovenantofMayors2019,2,44.6515358,8.0252513,5643,,Cuneo,0,0,0,0,0,0,0,1,1,0,0,0,0
Aggregazione Dro-Roc-Vil,ITA,City,Italy,Europe,27,km2,GlobalCovenantofMayors2019;EUCovenantofMayors2019,2,45.961111,10.911111,4030,,Trento,0,0,0,0,0,0,0,1,1,0,0,0,0
Aggregazione Garessio,ITA,City,Italy,Europe,,"",GlobalCovenantofMayors2019;EUCovenantofMayors2019,2,44.202931,8.0192528,5155,,Cuneo,0,0,0,0,0,0,0,1,1,0,0,0,0
Aggregazione Genola,ITA,City,Italy,Europe,,"",GlobalCovenantofMayors2019;EUCovenantofMayors2019,2,44.588936,7.66453,2661,,Cuneo,0,0,0,0,0,0,0,1,1,0,0,0,0
Aggregazione MARENE,ITA,City,Italy,Europe,,"",GlobalCovenantofMayors2019;EUCovenantofMayors2019,2,44.6615577,7.7270091,5359,,Cuneo,0,0,0,0,0,0,0,1,1,0,0,0,0
Aggregazione Niella Belbo,ITA,City,Italy,Europe,,"",GlobalCovenantofMayors2019;EUCovenantofMayors2019,2,44.51376,8.08048,7835,,Cuneo,0,0,0,0,0,0,0,1,1,0,0,0,0
Aggregazione Robilante-Roccavione,ITA,City,Italy,Europe,,"",GlobalCovenantofMayors2019;EUCovenantofMayors2019,2,44.2945397,7.509191,5203,,Cuneo,0,0,0,0,0,0,0,1,1,0,0,0,0
Aggregazione Saliceto,ITA,City,Italy,Europe,,"",GlobalCovenantofMayors2019;EUCovenantofMayors2019,2,44.41439,8.16987,5018,,Cuneo,0,0,0,0,0,0,0,1,1,0,0,0,0
Aggregazione Sommariva del Bosco,ITA,City,Italy,Europe,,"",GlobalCovenantofMayors2019;EUCovenantofMayors2019,2,44.768741,7.78533,21367,,Cuneo,0,0,0,0,0,0,0,1,1,0,0,0,0
Aggregazione Vicoforte,ITA,City,Italy,Europe,,"",EUCovenantofMayors2019;GlobalCovenantofMayors2019,2,44.3744419,7.8725517,8567,,Cuneo,0,0,0,0,0,0,0,1,1,0,0,0,0
Aggregazione Villanova Mondov<c3><ac>,ITA,City,Italy,Europe,,"",GlobalCovenantofMayors2019,1,44.348514,7.767477,10206,,Cuneo,0,0,0,0,0,0,0,0,1,0,0,0,0
Aghios Nikolaos,GRC,City,Greece,Europe,,"",GlobalCovenantofMayors2019;EUCovenantofMayors2019;NAZCA,3,36.8243276,22.2811442,27074,2011,Crete,0,0,0,0,0,0,0,1,1,0,1,0,0
Agia,GRC,City,Greece,Europe,,"",EUCovenantofMayors2019;GlobalCovenantofMayors2019;NAZCA,3,39.03333333,26.41666667,14121,,Nomos Larisis,0,0,0,0,0,0,0,1,1,0,1,0,0
Agia Paraskevi,GRC,City,Greece,Europe,7.935,km2,GlobalCovenantofMayors2019;EUCovenantofMayors2019;NAZCA,3,39.2475388,26.2711986,59704,2011,Attica,0,0,0,0,0,0,0,1,1,0,1,0,0
Agia Varvara,GRC,City,Greece,Europe,2.425,km2,EUCovenantofMayors2019;GlobalCovenantofMayors2019;NAZCA,3,38,23.65,26490,2011,Attica,0,0,0,0,0,0,0,1,1,0,1,0,0
Agioi Anargyroi-Kamatero,GRC,City,Greece,Europe,9.15,km2,EUCovenantofMayors2019;GlobalCovenantofMayors2019;NAZCA,3,38.03333333,23.71666667,55191,2011,Attica,0,0,0,0,0,0,0,1,1,0,1,0,0
Agios Athanasios,CYP,City,Cyprus,Europe,,"",GlobalCovenantofMayors2019;EUCovenantofMayors2019;NAZCA,3,34.7093395,33.0504749,15500,2011,Limassol District,0,0,0,0,0,0,0,1,1,0,1,0,0
Agios Dimitrios,GRC,City,Greece,Europe,4.949,km2,EUCovenantofMayors2019;GlobalCovenantofMayors2019;Carbonn2019;NAZCA,4,37.93333333,23.73333333,70000,2011,Attica,0,0,0,1,0,0,0,1,1,0,1,0,0
Agira,ITA,City,Italy,Europe,164.08,km2,GlobalCovenantofMayors2019;NAZCA,2,37.661603,14.51201,8500,,Enna,0,0,0,0,0,0,0,0,1,0,1,0,0
Aglandjia,CYP,City,Cyprus,Europe,,"",GlobalCovenantofMayors2019;NAZCA,2,35.1523806,33.3977301,22000,2011,Nicosia District,0,0,0,0,0,0,0,0,1,0,1,0,0
Agna,ITA,City,Italy,Europe,18.8,km2,GlobalCovenantofMayors2019;EUCovenantofMayors2019;NAZCA,3,45.1702381,11.9603017,3405,,Parma,0,0,0,0,0,0,0,1,1,0,1,0,0
Agnone,ITA,City,Italy,Europe,96.85,km2,GlobalCovenantofMayors2019;EUCovenantofMayors2019;NAZCA,3,41.8095612,14.3770463,5253,,Isernia,0,0,0,0,0,0,0,1,1,0,1,0,0
Agnosine,ITA,City,Italy,Europe,13.55,km2,EUCovenantofMayors2019;GlobalCovenantofMayors2019;NAZCA,3,45.65,10.35,1875,,Brescia,0,0,0,0,0,0,0,1,1,0,1,0,0
Agona East,GHA,City,Ghana,Sub-Saharan Africa,,"",GlobalCovenantofMayors2019;NAZCA,2,5.603215,-0.791323,101522,,Central Region,0,0,0,0,0,0,0,0,1,0,1,0,0
Agost,ESP,City,Spain,Europe,66.64,km2,GlobalCovenantofMayors2019;EUCovenantofMayors2019;NAZCA,3,38.436906,-0.6396686,4752,2018,Alicante,0,0,0,0,0,0,0,1,1,0,1,0,0
Agrafa,GRC,City,Greece,Europe,920.3,km2,GlobalCovenantofMayors2019;NAZCA,2,39.1359953,21.6494392,14365,2011,Central Greece,0,0,0,0,0,0,0,0,1,0,1,0,0
Agramunt,ESP,City,Spain,Europe,79.6,km2,GlobalCovenantofMayors2019;EUCovenantofMayors2019;NAZCA,3,41.7876693,1.0986828,5735,2018,Lleida,0,0,0,0,0,0,0,1,1,0,1,0,0
Agrate Brianza,ITA,City,Italy,Europe,11.22,km2,EUCovenantofMayors2019;GlobalCovenantofMayors2019;NAZCA,3,45.58333333,9.35,15035,,Monza Brianza,0,0,0,0,0,0,0,1,1,0,1,0,0
Agres,ESP,City,Spain,Europe,25.8,km2,GlobalCovenantofMayors2019;EUCovenantofMayors2019;NAZCA,3,38.7799007,-0.5157277,583,2018,Alicante,0,0,0,0,0,0,0,1,1,0,1,0,0
Agrigento,ITA,City,Italy,Europe,245.32,km2,GlobalCovenantofMayors2019;NAZCA,2,37.309407,13.585982,57000,,Agrigento,0,0,0,0,0,0,0,0,1,0,1,0,0
Agrinio,GRC,City,Greece,Europe,1229.33,km2,GlobalCovenantofMayors2019;NAZCA,2,38.6247709,21.4095037,92608,2011,West Greece,0,0,0,0,0,0,0,0,1,0,1,0,0
Agr<c3><b3>n,ESP,City,Spain,Europe,27,km2,EUCovenantofMayors2019;GlobalCovenantofMayors2019;NAZCA,3,37.03,-3.829166667,342,2018,Granada,0,0,0,0,0,0,0,1,1,0,1,0,0
Agropoli,ITA,City,Italy,Europe,32.77,km2,GlobalCovenantofMayors2019;EUCovenantofMayors2019,2,40.346905,14.996553,35823,,Salerno,0,0,0,0,0,0,0,1,1,0,0,0,0
Agros,CYP,City,Cyprus,Europe,,"",GlobalCovenantofMayors2019;EUCovenantofMayors2019;NAZCA,3,34.916667,33.016667,804,2011,Limassol District,0,0,0,0,0,0,0,1,1,0,1,0,0
Aguadulce,ESP,City,Spain,Europe,50.4,km2,EUCovenantofMayors2019;GlobalCovenantofMayors2019;NAZCA,3,8.24,-80.54,2169,2010,Almería,0,0,0,0,0,0,0,1,1,0,1,0,0
Aguascalientes,MEX,City,Mexico,Latin America and Caribbean,385,km2,Carbonn2019;Under2Coalition2019,2,21.876,-102.296,934424,,Aguascalientes,0,0,0,1,0,0,0,0,0,0,0,1,0
<c3><81>gueda,PRT,City,Portugal,Europe,335.27,km2,CDPCities2018;GlobalCovenantofMayors2019;EUCovenantofMayors2019;NAZCA,4,40.5753,-8.44582,47729,2011,Centro,0,0,1,0,0,0,0,1,1,0,1,0,0
Aguilar de Segarra,ESP,City,Spain,Europe,43.3,km2,GlobalCovenantofMayors2019;EUCovenantofMayors2019;NAZCA,3,41.7394902,1.6316676,257,2018,Barcelona Province,0,0,0,0,0,0,0,1,1,0,1,0,0
<c3><81>guilas,ESP,City,Spain,Europe,251.77,km2,GlobalCovenantofMayors2019;EUCovenantofMayors2019;NAZCA,3,37.4099628,-1.5804921,34828,2018,Murcia,0,0,0,0,0,0,0,1,1,0,1,0,0
Agullana,ESP,City,Spain,Europe,27.7,km2,EUCovenantofMayors2019;GlobalCovenantofMayors2019;NAZCA,3,42.4,2.85,900,2018,Girona,0,0,0,0,0,0,0,1,1,0,1,0,0
Agullent,ESP,City,Spain,Europe,16.2,km2,GlobalCovenantofMayors2019;NAZCA,2,38.8233412,-0.5473744,2395,2018,Valencia,0,0,0,0,0,0,0,0,1,0,1,0,0
Ahillones,ESP,City,Spain,Europe,21.5,km2,GlobalCovenantofMayors2019;NAZCA,2,38.259139,-5.865061,1001,2018,Badajoz,0,0,0,0,0,0,0,0,1,0,1,0,0
Ahmedabad,IND,City,India,South Asia,464,"",Carbonn2019,1,23.03333333,72.58333333,5570585,2011,Gujarat,0,0,0,1,0,0,0,0,0,0,0,0,0
Aichi Prefecture,JPN,Region,Japan,East Asia and the Pacific,5165,km2,Carbonn2019,1,35.18018889,136.9135083,7507553,2016,Aichi Prefecture,0,0,0,1,0,0,0,0,0,0,0,0,0
Aicurzio,ITA,City,Italy,Europe,2.47,km2,EUCovenantofMayors2019;GlobalCovenantofMayors2019;NAZCA,3,45.63333333,9.416666667,2087,,Monza Brianza,0,0,0,0,0,0,0,1,1,0,1,0,0
Aidone,ITA,City,Italy,Europe,210.78,km2,GlobalCovenantofMayors2019;NAZCA,2,37.415915,14.445496,5023,,Enna,0,0,0,0,0,0,0,0,1,0,1,0,0
Aielli,ITA,City,Italy,Europe,37.52,km2,GlobalCovenantofMayors2019;EUCovenantofMayors2019;NAZCA,3,42.08083,13.590599,1448,,Province of L'Aquila,0,0,0,0,0,0,0,1,1,0,1,0,0
Aiello Calabro,ITA,City,Italy,Europe,38.51,km2,GlobalCovenantofMayors2019;EUCovenantofMayors2019;NAZCA,3,39.1174689,16.1666633,2017,,Cosenza,0,0,0,0,0,0,0,1,1,0,1,0,0
Aiello del Sabato,ITA,City,Italy,Europe,10.87,km2,GlobalCovenantofMayors2019;NAZCA,2,40.884294,14.816278,4050,,Avellino,0,0,0,0,0,0,0,0,1,0,1,0,0
Aielo De Rugat,ESP,City,Spain,Europe,7.66,km2,GlobalCovenantofMayors2019;NAZCA,2,38.8820867,-0.3442155,200,2018,Valencia,0,0,0,0,0,0,0,0,1,0,1,0,0
Aigaleo,GRC,City,Greece,Europe,6.45,km2,GlobalCovenantofMayors2019;EUCovenantofMayors2019;NAZCA,3,37.9928313,23.68159021,120000,2011,Attica,0,0,0,0,0,0,0,1,1,0,1,0,0
Aigialeia,GRC,City,Greece,Europe,723.1,km2,GlobalCovenantofMayors2019;EUCovenantofMayors2019;NAZCA,3,38.140844,22.25179945,49872,2011,West Greece,0,0,0,0,0,0,0,1,1,0,1,0,0
Aiguafreda,ESP,City,Spain,Europe,7.9,km2,GlobalCovenantofMayors2019;EUCovenantofMayors2019;NAZCA,3,41.7692525,2.2517162,2505,2018,Barcelona Province,0,0,0,0,0,0,0,1,1,0,1,0,0
Aiguam<c3><ba>rcia,ESP,City,Spain,Europe,73.2,km2,EUCovenantofMayors2019;GlobalCovenantofMayors2019;NAZCA,3,41.32888889,1.358888889,909,2018,Tarragona,0,0,0,0,0,0,0,1,1,0,1,0,0
Aiguaviva,ESP,City,Spain,Europe,13.9,km2,GlobalCovenantofMayors2019;EUCovenantofMayors2019;NAZCA,3,41.9381188,2.7626201,765,2018,Girona,0,0,0,0,0,0,0,1,1,0,1,0,0
Aig<c3><bc>es,ESP,City,Spain,Europe,18.47,km2,GlobalCovenantofMayors2019;EUCovenantofMayors2019;NAZCA,3,38.500265,-0.3634257,984,2018,Valencia,0,0,0,0,0,0,0,1,1,0,1,0,0
Ailano,ITA,City,Italy,Europe,16.06,km2,GlobalCovenantofMayors2019;NAZCA,2,41.391372,14.207422,1384,,Caserta,0,0,0,0,0,0,0,0,1,0,1,0,0
Ainz<c3><b3>n,ESP,City,Spain,Europe,40,km2,GlobalCovenantofMayors2019;EUCovenantofMayors2019;NAZCA,3,41.8160689,-1.5196969,1214,2018,Zaragoza,0,0,0,0,0,0,0,1,1,0,1,0,0
Aipromades Lago de Chapala,MEX,City,Mexico,Latin America and Caribbean,385.58,km2,GlobalCovenantofMayors2019;NAZCA,2,20.305278,-103.184722,50738,,Jalisco,0,0,0,0,0,0,0,0,1,0,1,0,0
Airasca,ITA,City,Italy,Europe,15.74,km2,GlobalCovenantofMayors2019;NAZCA,2,44.917111,7.489349,3808,,Cuneo,0,0,0,0,0,0,0,0,1,0,1,0,0
Airola,ITA,City,Italy,Europe,14.9,km2,GlobalCovenantofMayors2019;NAZCA,2,41.0610225,14.5584304,8140,,Benevento,0,0,0,0,0,0,0,0,1,0,1,0,0
Airuno,ITA,City,Italy,Europe,4.29,km2,GlobalCovenantofMayors2019;EUCovenantofMayors2019;NAZCA,3,45.75388,9.424247,2994,,Lecco,0,0,0,0,0,0,0,1,1,0,1,0,0
Aitona,ESP,City,Spain,Europe,66.9,km2,GlobalCovenantofMayors2019;NAZCA,2,41.4939531,0.4591083,2456,2018,Lleida,0,0,0,0,0,0,0,0,1,0,1,0,0
Aiud,ROU,City,Romania,Europe,142.52,km2,GlobalCovenantofMayors2019;EUCovenantofMayors2019;NAZCA,3,46.3108411,23.7188503,28934,2011,Alba County,0,0,0,0,0,0,0,1,1,0,1,0,0
"Ajax, ON",CAN,City,Canada,North America,67.07,km2,CDPCities2018;Carbonn2019,2,43.8509,-79.0204,119677,2016,Ontario,0,0,1,1,0,0,0,0,0,0,0,0,0
Ajuntament D'Argelaguer,ESP,City,Spain,Europe,,"",EUCovenantofMayors2019,1,42,2.641429901,430,2015,Girona,0,0,0,0,0,0,0,1,0,0,0,0,0
Ajuntament d'Espinelves,ESP,City,Spain,Europe,,"",GlobalCovenantofMayors2019;EUCovenantofMayors2019;NAZCA,3,41.8686935,2.4177195,201,,Girona,0,0,0,0,0,0,0,1,1,0,1,0,0
Akashi,JPN,City,Japan,East Asia and the Pacific,49,km2,Carbonn2019,1,34.65,135,290776,2017,Hyogo Prefecture,0,0,0,1,0,0,0,0,0,0,0,0,0
Akatsi North,GHA,City,Ghana,Sub-Saharan Africa,,"",GlobalCovenantofMayors2019;NAZCA,2,6.36419,0.85461,40738,,Volta,0,0,0,0,0,0,0,0,1,0,1,0,0
Akershus,NOR,City,Norway,Europe,4579,km2,Under2Coalition2019,1,60,11,615000,2017,Akershus,0,0,0,0,0,0,0,0,0,0,0,1,0
Akhaltsikhe,GEO,City,Georgia,Eastern Europe and Central Asia,,"",EUCovenantofMayors2019;GlobalCovenantofMayors2019;NAZCA,3,41.63888889,42.98611111,19200,2014,Samtskhe-Javakheti,0,0,0,0,0,0,0,1,1,0,1,0,0
Akhmeta,GEO,City,Georgia,Eastern Europe and Central Asia,,"",GlobalCovenantofMayors2019;NAZCA,2,42.03852,45.206841,34154,,Kakheti,0,0,0,0,0,0,0,0,1,0,1,0,0
Akhtala,ARM,City,Armenia,Eastern Europe and Central Asia,4.3,km2,GlobalCovenantofMayors2019;NAZCA,2,41.150494,44.763959,2753,,Lori,0,0,0,0,0,0,0,0,1,0,1,0,0
Akita City,JPN,City,Japan,East Asia and the Pacific,906,km2,Carbonn2019,1,39.72002778,140.1025833,320909,2016,Akita Prefecture,0,0,0,1,0,0,0,0,0,0,0,0,0
Akita Prefecture,JPN,Region,Japan,East Asia and the Pacific,11636,km2,Carbonn2019,1,39.71861111,140.1025,1026983,,Akita Prefecture,0,0,0,1,0,0,0,0,0,0,0,0,0
Akmene,LTU,City,Lithuania,Europe,,"",EUCovenantofMayors2019;GlobalCovenantofMayors2019;NAZCA,3,56.31666667,22.9,25729,2011,Šiauliai County,0,0,0,0,0,0,0,1,1,0,1,0,0
Aksakovo,BGR,City,Bulgaria,Europe,,"",GlobalCovenantofMayors2019;EUCovenantofMayors2019;NAZCA,3,43.2586259,27.8173611,8600,2009,Varna,0,0,0,0,0,0,0,1,1,0,1,0,0
Aksu,KAZ,City,Kazakhstan,Eastern Europe and Central Asia,,"",GlobalCovenantofMayors2019;NAZCA,2,52.04072,76.93376,69354,,Tarbagatay District,0,0,0,0,0,0,0,0,1,0,1,0,0
Akureyri,ISL,City,Iceland,Europe,138,km2,GlobalCovenantofMayors2019;CDPCities2018;NAZCA,3,65.6825696,-18.0913026,18340,2019,Northeastern Region,0,0,1,0,0,0,0,0,1,0,1,0,0
Aladren,ESP,City,Spain,Europe,21,km2,GlobalCovenantofMayors2019;EUCovenantofMayors2019;NAZCA,3,41.249166,-1.1560465,67,2018,Zaragoza,0,0,0,0,0,0,0,1,1,0,1,0,0
Al<c3><a1>jar,ESP,City,Spain,Europe,41,km2,GlobalCovenantofMayors2019;EUCovenantofMayors2019;NAZCA,3,37.8746137,-6.66506,802,2018,Huelva,0,0,0,0,0,0,0,1,1,0,1,0,0
"Alameda County, CA",USA,City,United States of America,North America,,"",WeAreStillIn2019,1,37.65,-121.9166667,1666753,,California,0,0,0,0,0,0,0,0,0,0,0,0,1
"Alameda, CA",USA,City,United States of America,North America,27.0394956,km2,WeAreStillIn2019;ClimateMayors;WeAreStillIn2019;GlobalCovenantofMayors2019;CDPCities2018;NAZCA,5,37.75611111,-122.2744444,78906,2010,California,0,0,1,0,0,1,0,0,1,0,1,0,1
"Alameda, Spain",ESP,City,Spain,Europe,64.74975,km2,EUCovenantofMayors2019;GlobalCovenantofMayors2019;NAZCA,3,37.2,-4.65,5426,2018,Málaga,0,0,0,0,0,0,0,1,1,0,1,0,0
Aland,FIN,Region,Finland,Europe,1580,km2,CompactofStatesRegions2018;NAZCA,2,60,20,29489,2017,Aland,0,0,0,0,0,0,1,0,0,0,1,0,0
Alange,ESP,City,Spain,Europe,160,km2,GlobalCovenantofMayors2019;NAZCA,2,38.78588,-6.244232,1971,2018,Badajoz,0,0,0,0,0,0,0,0,1,0,1,0,0
Alanis de la Sierra,ESP,City,Spain,Europe,,"",EUCovenantofMayors2019;GlobalCovenantofMayors2019;NAZCA,3,37.3601614,-5.9788488,1900,,Seville,0,0,0,0,0,0,0,1,1,0,1,0,0
Alanno,ITA,City,Italy,Europe,32.53,km2,EUCovenantofMayors2019;GlobalCovenantofMayors2019;NAZCA,3,42.3,13.96666667,3679,,Pescara,0,0,0,0,0,0,0,1,1,0,1,0,0
Alano di Piave,ITA,City,Italy,Europe,36.52,km2,GlobalCovenantofMayors2019;EUCovenantofMayors2019;NAZCA,3,45.907803,11.9081948,2881,,Belluno,0,0,0,0,0,0,0,1,1,0,1,0,0
Alaqu<c3><a0>s,ESP,City,Spain,Europe,3.9,km2,GlobalCovenantofMayors2019;NAZCA,2,39.4572928,-0.4609799,29965,2018,Valencia,0,0,0,0,0,0,0,0,1,0,1,0,0
Al<c3><a0>s i Cerc,ESP,City,Spain,Europe,57.7,km2,GlobalCovenantofMayors2019;NAZCA,2,42.324487,1.540233,400,2018,Lleida,0,0,0,0,0,0,0,0,1,0,1,0,0
Alassio,ITA,City,Italy,Europe,17.25,km2,EUCovenantofMayors2019;GlobalCovenantofMayors2019;NAZCA,3,44,8.166666667,12000,,Savona,0,0,0,0,0,0,0,1,1,0,1,0,0
Alaverdi,ARM,City,Armenia,Eastern Europe and Central Asia,18,km2,GlobalCovenantofMayors2019;NAZCA,2,41.0958608,44.6459522,16400,2017,Lori,0,0,0,0,0,0,0,0,1,0,1,0,0
Alba,ITA,City,Italy,Europe,28748,km2,GlobalCovenantofMayors2019;EUCovenantofMayors2019;NAZCA,3,44.691542,8.025636,31531,2017,Cuneo,0,0,0,0,0,0,0,1,1,0,1,0,0
Alba Adriatica,ITA,City,Italy,Europe,9.6,km2,GlobalCovenantofMayors2019;EUCovenantofMayors2019;NAZCA,3,42.8343422,13.927816,12522,,Abruzzo,0,0,0,0,0,0,0,1,1,0,1,0,0
Alba Iulia,ROU,City,Romania,Europe,103.65,km2,Carbonn2019;GlobalCovenantofMayors2019;EUCovenantofMayors2019;NAZCA,4,46.06694444,23.57,63536,2011,Alba County,0,0,0,1,0,0,0,1,1,0,1,0,0
Albag<c3><a9>s,ESP,City,Spain,Europe,25.7,km2,GlobalCovenantofMayors2019;EUCovenantofMayors2019;NAZCA,3,41.7317684,1.8151935,425,2018,Lleida,0,0,0,0,0,0,0,1,1,0,1,0,0
Albagiara,ITA,City,Italy,Europe,8.87,km2,GlobalCovenantofMayors2019;NAZCA,2,39.786857,8.861913,278,,Oristano,0,0,0,0,0,0,0,0,1,0,1,0,0
Albaida,ESP,City,Spain,Europe,89.78,km2,GlobalCovenantofMayors2019;NAZCA,2,38.838669,-0.5181894,5987,2018,Baleares,0,0,0,0,0,0,0,0,1,0,1,0,0
Albairate,ITA,City,Italy,Europe,14.98,km2,EUCovenantofMayors2019;GlobalCovenantofMayors2019;NAZCA,3,45.41666667,8.933333333,4148,,Lombardy,0,0,0,0,0,0,0,1,1,0,1,0,0
Albal,ESP,City,Spain,Europe,38,km2,GlobalCovenantofMayors2019;NAZCA,2,39.3956438,-0.415082,16029,2018,Cáceres,0,0,0,0,0,0,0,0,1,0,1,0,0
Albala,ESP,City,Spain,Europe,38,km2,GlobalCovenantofMayors2019;NAZCA,2,39.255502,-6.190489,744,2018,Cáceres,0,0,0,0,0,0,0,0,1,0,1,0,0
Albalat de la Ribera,ESP,City,Spain,Europe,14.29,km2,GlobalCovenantofMayors2019;NAZCA,2,39.2012627,-0.3866467,3485,2018,Valencia,0,0,0,0,0,0,0,0,1,0,1,0,0
Albalat Dels Sorells,ESP,City,Spain,Europe,4.62,km2,GlobalCovenantofMayors2019;NAZCA,2,39.5436955,-0.3461911,3937,2018,Valencia,0,0,0,0,0,0,0,0,1,0,1,0,0
Alb<c3><a1>nchez de M<c3><a1>gina,ESP,City,Spain,Europe,39,km2,EUCovenantofMayors2019;GlobalCovenantofMayors2019;NAZCA,3,37.79166667,-3.45,1326,2018,Jaén,0,0,0,0,0,0,0,1,1,0,1,0,0
Albanella,ITA,City,Italy,Europe,40.23,km2,GlobalCovenantofMayors2019;NAZCA,2,40.478163,15.114332,6519,,Salerno,0,0,0,0,0,0,0,0,1,0,1,0,0
Albano di Lucania,ITA,City,Italy,Europe,55.87,km2,GlobalCovenantofMayors2019;EUCovenantofMayors2019;NAZCA,3,40.587058,16.037129,1502,,Potenza,0,0,0,0,0,0,0,1,1,0,1,0,0
Albano Laziale,ITA,City,Italy,Europe,23.8,km2,GlobalCovenantofMayors2019;EUCovenantofMayors2019;NAZCA,3,41.7288894,12.6582689,38997,,Rome,0,0,0,0,0,0,0,1,1,0,1,0,0
Albano Sant'Alessandro,ITA,City,Italy,Europe,5.35,km2,EUCovenantofMayors2019;GlobalCovenantofMayors2019;NAZCA,3,45.68333333,9.75,8075,,Bergamo,0,0,0,0,0,0,0,1,1,0,1,0,0
"Albany, CA",USA,City,United States of America,North America,4.6360821,km2,ClimateMayors;Carbonn2019,2,37.886944,-122.297778,18969,2010,California,0,0,0,1,0,1,0,0,0,0,0,0,0
"Albany, NY",USA,City,United States of America,North America,55.3998861,km2,GlobalCovenantofMayors2019;CDPCities2018;ClimateMayors;WeAreStillIn2019;WeAreStillIn2019;NAZCA,5,42.6511674,-73.7549679,98566,2016,New York,0,0,1,0,0,1,0,0,1,0,1,0,1
"Albany, OR",USA,City,United States of America,North America,3.2374875,km2,ClimateMayors,1,44.630278,-123.096111,53211,2010,Oregon,0,0,0,0,0,1,0,0,0,0,0,0,0
Albany<c3><a0>,ESP,City,Spain,Europe,94.4,km2,EUCovenantofMayors2019;GlobalCovenantofMayors2019;NAZCA,3,42.30694444,2.723055556,150,2018,Girona,0,0,0,0,0,0,0,1,1,0,1,0,0
Albaredo d'Adige,ITA,City,Italy,Europe,28.25,km2,GlobalCovenantofMayors2019;NAZCA,2,45.316997,11.276161,5179,,Verona,0,0,0,0,0,0,0,0,1,0,1,0,0
Albaretto Della Torre,ITA,City,Italy,Europe,4.59,km2,GlobalCovenantofMayors2019;NAZCA,2,44.59681,8.06451,5952,,Cuneo,0,0,0,0,0,0,0,0,1,0,1,0,0
Albat<c3><a0>rrec,ESP,City,Spain,Europe,10.5,km2,EUCovenantofMayors2019;GlobalCovenantofMayors2019;NAZCA,3,41.575,0.606388889,2090,2018,Lleida,0,0,0,0,0,0,0,1,1,0,1,0,0
Albatera,ESP,City,Spain,Europe,66327,km2,GlobalCovenantofMayors2019;EUCovenantofMayors2019;NAZCA,3,38.1794357,-0.8700719,11767,2018,Teruel,0,0,0,0,0,0,0,1,1,0,1,0,0
"Albemarle County, VA",USA,City,United States of America,North America,1880,km2,WeAreStillIn2019,1,38.03333333,-78.56666667,98970,,Virginia,0,0,0,0,0,0,0,0,0,0,0,0,1
Albenga,ITA,City,Italy,Europe,36.58,km2,EUCovenantofMayors2019;GlobalCovenantofMayors2019;NAZCA,3,44.05,8.216666667,25000,,Savona,0,0,0,0,0,0,0,1,1,0,1,0,0
Albergaria-a-Velha,PRT,City,Portugal,Europe,158.83,km2,EUCovenantofMayors2019;GlobalCovenantofMayors2019;NAZCA,3,40.69333333,-8.481111111,25252,2011,Centro,0,0,0,0,0,0,0,1,1,0,1,0,0
Alberic,ESP,City,Spain,Europe,,"",GlobalCovenantofMayors2019;NAZCA,2,39.1164369,-0.5201837,10826,,Valencia,0,0,0,0,0,0,0,0,1,0,1,0,0
Alberite De San Juan,ESP,City,Spain,Europe,11.23,km2,EUCovenantofMayors2019;GlobalCovenantofMayors2019;NAZCA,3,41.81666667,-1.466666667,99,2018,Zaragoza,0,0,0,0,0,0,0,1,1,0,1,0,0
Alberobello,ITA,City,Italy,Europe,10.52,ha,GlobalCovenantofMayors2019;NAZCA,2,40.786413,17.240936,11300,,Bari,0,0,0,0,0,0,0,0,1,0,1,0,0
Alberona,ITA,City,Italy,Europe,49.75,km2,EUCovenantofMayors2019;GlobalCovenantofMayors2019;NAZCA,3,41.43333333,15.11666667,1010,,Foggia,0,0,0,0,0,0,0,1,1,0,1,0,0
Alberta,CAN,Region,Canada,North America,640081,km2,CompactofStatesRegions2018;NAZCA,2,54.4,-115,4318772,2018,Alberta,0,0,0,0,0,0,1,0,0,0,1,0,0
Albertslund,DNK,City,Denmark,Europe,,"",GlobalCovenantofMayors2019;EUCovenantofMayors2019;NAZCA,3,55.6586018,12.3562849,27880,,Capital Region,0,0,0,0,0,0,0,1,1,0,1,0,0
Albesa,ESP,City,Spain,Europe,37.6,km2,EUCovenantofMayors2019;GlobalCovenantofMayors2019;NAZCA,3,41.75388889,0.661666667,1652,2018,Lleida,0,0,0,0,0,0,0,1,1,0,1,0,0
Albeta,ESP,City,Spain,Europe,2.65,km2,GlobalCovenantofMayors2019;EUCovenantofMayors2019;NAZCA,3,41.8272224,-1.4926769,149,2018,Zaragoza,0,0,0,0,0,0,0,1,1,0,1,0,0
Albiate,ITA,City,Italy,Europe,2.86,km2,EUCovenantofMayors2019;GlobalCovenantofMayors2019;NAZCA,3,45.66666667,9.25,5216,,Monza Brianza,0,0,0,0,0,0,0,1,1,0,1,0,0
Albignasego,ITA,City,Italy,Europe,21.16,km2,EUCovenantofMayors2019;GlobalCovenantofMayors2019;NAZCA,3,45.35,11.86666667,25000,,Padua,0,0,0,0,0,0,0,1,1,0,1,0,0
Albinea,ITA,City,Italy,Europe,43.89,km2,GlobalCovenantofMayors2019;EUCovenantofMayors2019;NAZCA,3,44.6201821,10.6019259,8755,,Reggio Emilia,0,0,0,0,0,0,0,1,1,0,1,0,0
Albino,ITA,City,Italy,Europe,31.81,km2,GlobalCovenantofMayors2019;EUCovenantofMayors2019;NAZCA,3,45.7608142,9.7968303,17807,,Bergamo,0,0,0,0,0,0,0,1,1,0,1,0,0
Albinyana,ESP,City,Spain,Europe,19.4,km2,GlobalCovenantofMayors2019;EUCovenantofMayors2019;NAZCA,3,41.2454739,1.486748,2354,2018,Tarragona,0,0,0,0,0,0,0,1,1,0,1,0,0
Albiolo,ITA,City,Italy,Europe,2.84,km2,GlobalCovenantofMayors2019;EUCovenantofMayors2019;NAZCA,3,45.805577,8.939235,2739,,Como,0,0,0,0,0,0,0,1,1,0,1,0,0
Albisola Superiore,ITA,City,Italy,Europe,28.68,km2,EUCovenantofMayors2019;GlobalCovenantofMayors2019;NAZCA,3,44.33944444,8.526944444,10485,,Savona,0,0,0,0,0,0,0,1,1,0,1,0,0
Alboloduy,ESP,City,Spain,Europe,70,km2,GlobalCovenantofMayors2019;EUCovenantofMayors2019;NAZCA,3,37.0327593,-2.6209782,745,2018,Almería,0,0,0,0,0,0,0,1,1,0,1,0,0
Albolote,ESP,City,Spain,Europe,79,km2,EUCovenantofMayors2019;GlobalCovenantofMayors2019;NAZCA,3,37.23055556,-3.656944444,18088,2018,Granada,0,0,0,0,0,0,0,1,1,0,1,0,0
Albonese,ITA,City,Italy,Europe,4.33,km2,GlobalCovenantofMayors2019;EUCovenantofMayors2019;NAZCA,3,45.2944385,8.706322,559,,Pavia,0,0,0,0,0,0,0,1,1,0,1,0,0
Albons,ESP,City,Spain,Europe,11.1,km2,GlobalCovenantofMayors2019;EUCovenantofMayors2019;NAZCA,3,42.1043559,3.0852797,740,2018,Girona,0,0,0,0,0,0,0,1,1,0,1,0,0
Alborache,ESP,City,Spain,Europe,27.33,km2,GlobalCovenantofMayors2019;NAZCA,2,39.3929025,-0.774052,1136,2018,Valencia,0,0,0,0,0,0,0,0,1,0,1,0,0
Alboraya,ESP,City,Spain,Europe,8.3,km2,GlobalCovenantofMayors2019;NAZCA,2,39.5009954,-0.3494799,23572,2018,Valencia,0,0,0,0,0,0,0,0,1,0,1,0,0
Albosaggia,ITA,City,Italy,Europe,34.35,km2,GlobalCovenantofMayors2019;EUCovenantofMayors2019;NAZCA,3,46.1472316,9.8531698,3188,,Sondrio,0,0,0,0,0,0,0,1,1,0,1,0,0
Albox,ESP,City,Spain,Europe,168,km2,EUCovenantofMayors2019;GlobalCovenantofMayors2019;NAZCA,3,37.38333333,-2.133333333,11271,2018,Almería,0,0,0,0,0,0,0,1,1,0,1,0,0
Albudeite,ESP,City,Spain,Europe,17.02,km2,GlobalCovenantofMayors2019;NAZCA,2,38.026663,-1.3866538,1423,2018,Murcia,0,0,0,0,0,0,0,0,1,0,1,0,0
Albuixech,ESP,City,Spain,Europe,4.4,km2,GlobalCovenantofMayors2019;NAZCA,2,39.5449181,-0.3241613,3920,2018,Valencia,0,0,0,0,0,0,0,0,1,0,1,0,0
Albu<c3><b1>ol,ESP,City,Spain,Europe,63,km2,GlobalCovenantofMayors2019;EUCovenantofMayors2019;NAZCA,3,36.7912927,-3.2016737,6270,2018,Granada,0,0,0,0,0,0,0,1,1,0,1,0,0
"Albuquerque, NM",USA,City,United States of America,North America,,"",WeAreStillIn2019,1,35.1108333333333,-106.61,558545,,New Mexico,0,0,0,0,0,0,0,0,0,0,0,0,1
"Alburqueque, Spain",ESP,City,Spain,Europe,723,km2,GlobalCovenantofMayors2019;NAZCA,2,39.219167,-7.001111,5340,2018,Badajoz,0,0,0,0,0,0,0,0,1,0,1,0,0
Alcal<c3><a1> De Ebro,ESP,City,Spain,Europe,9.9,km2,GlobalCovenantofMayors2019;EUCovenantofMayors2019;NAZCA,3,41.8140364,-1.1940809,283,2018,Zaragoza,0,0,0,0,0,0,0,1,1,0,1,0,0
Alcal<c3><a1> de Guada<c3><ad>ra,ESP,City,Spain,Europe,284.61,km2,GlobalCovenantofMayors2019;EUCovenantofMayors2019;NAZCA,3,37.3397709,-5.8408395,72100,2018,Seville,0,0,0,0,0,0,0,1,1,0,1,0,0
Alcal<c3><a1> de los Gazules,ESP,City,Spain,Europe,479.59,km2,EUCovenantofMayors2019;GlobalCovenantofMayors2019;NAZCA,3,36.46666667,-5.716666667,5619,2018,Cádiz,0,0,0,0,0,0,0,1,1,0,1,0,0
Alcala De Moncayo,ESP,City,Spain,Europe,13.69,km2,GlobalCovenantofMayors2019;EUCovenantofMayors2019;NAZCA,3,41.7862357,-1.6969471,205,2018,Zaragoza,0,0,0,0,0,0,0,1,1,0,1,0,0
Alcal<c3><a1> del Valle,ESP,City,Spain,Europe,46.89,km2,GlobalCovenantofMayors2019;EUCovenantofMayors2019;NAZCA,3,36.905066,-5.1726099,5300,2018,Cádiz,0,0,0,0,0,0,0,1,1,0,1,0,0
Alcal<c3><a1> la Real,ESP,City,Spain,Europe,262,km2,EUCovenantofMayors2019;GlobalCovenantofMayors2019;NAZCA,3,37.45,-3.916666667,22129,2018,Jaén,0,0,0,0,0,0,0,1,1,0,1,0,0
Alcalal<c3><ad>,ESP,City,Spain,Europe,14.4,km2,GlobalCovenantofMayors2019;EUCovenantofMayors2019;NAZCA,3,38.7503504,-0.0399998,1350,2018,Valencia,0,0,0,0,0,0,0,1,1,0,1,0,0
Alcamo,ITA,City,Italy,Europe,130.9,km2,EUCovenantofMayors2019;GlobalCovenantofMayors2019;NAZCA,3,37.97777778,12.96388889,46238,,Trapani,0,0,0,0,0,0,0,1,1,0,1,0,0
Alcantarilla,ESP,City,Spain,Europe,16,km2,GlobalCovenantofMayors2019;NAZCA,2,37.969517,-1.219342,40774,2018,Murcia,0,0,0,0,0,0,0,0,1,0,1,0,0
Alc<c3><a0>ntera de X<c3><ba>quer,ESP,City,Spain,Europe,3.3,km2,GlobalCovenantofMayors2019;NAZCA,2,39.0694393,-0.5601547,1350,2018,Valencia,0,0,0,0,0,0,0,0,1,0,1,0,0
Alcara li Fusi,ITA,City,Italy,Europe,62.94,km2,EUCovenantofMayors2019;GlobalCovenantofMayors2019;NAZCA,3,38.01666667,14.7,2473,,Sicily,0,0,0,0,0,0,0,1,1,0,1,0,0
Alcarr<c3><a0>s,ESP,City,Spain,Europe,114.3,km2,GlobalCovenantofMayors2019;EUCovenantofMayors2019;NAZCA,3,41.5630062,0.5245393,9100,2018,Lleida,0,0,0,0,0,0,0,1,1,0,1,0,0
Alcasser,ESP,City,Spain,Europe,9.01,km2,GlobalCovenantofMayors2019;NAZCA,2,39.3677124,-0.444674,9615,2018,Valencia,0,0,0,0,0,0,0,0,1,0,1,0,0
Alcaudete,ESP,City,Spain,Europe,238,km2,EUCovenantofMayors2019;GlobalCovenantofMayors2019;NAZCA,3,37.58333333,-4.1,11164,2018,Jaén,0,0,0,0,0,0,0,1,1,0,1,0,0
Alc<c3><a1>zar de San Juan,ESP,City,Spain,Europe,666.78,km2,EUCovenantofMayors2019;GlobalCovenantofMayors2019;NAZCA,3,39.40555556,-3.205555556,31992,2018,Ciudad Real,0,0,0,0,0,0,0,1,1,0,1,0,0
Alchevsk,UKR,City,Ukraine,Eastern Europe and Central Asia,55,km2,GlobalCovenantofMayors2019;NAZCA,2,48.47134,38.813441,110529,2013,Luhansk Oblast,0,0,0,0,0,0,0,0,1,0,1,0,0
Alcocer de Planes,ESP,City,Spain,Europe,4.39,km2,EUCovenantofMayors2019;GlobalCovenantofMayors2019;NAZCA,3,38.79444444,-0.4025,238,2018,Alicante,0,0,0,0,0,0,0,1,1,0,1,0,0
Alcochete,PRT,City,Portugal,Europe,128.36,km2,GlobalCovenantofMayors2019;EUCovenantofMayors2019;NAZCA,3,38.7488526,-8.973300657,17569,2011,Lisbon,0,0,0,0,0,0,0,1,1,0,1,0,0
Alcoi,ESP,City,Spain,Europe,129.86,km2,EUCovenantofMayors2019;GlobalCovenantofMayors2019;NAZCA,3,38.69833333,-0.473611111,59675,2018,Valencia,0,0,0,0,0,0,0,1,1,0,1,0,0
Alcolea,ESP,City,Spain,Europe,67,km2,EUCovenantofMayors2019;GlobalCovenantofMayors2019;NAZCA,3,36.96666667,-2.95,966,2018,Almería,0,0,0,0,0,0,0,1,1,0,1,0,0
Alcolea del R<c3><ad>o,ESP,City,Spain,Europe,,"",EUCovenantofMayors2019;GlobalCovenantofMayors2019;NAZCA,3,37.5180353,-5.9800362,9317,2005,Seville,0,0,0,0,0,0,0,1,1,0,1,0,0
Alcoleja,ESP,City,Spain,Europe,14.56,km2,GlobalCovenantofMayors2019;EUCovenantofMayors2019;NAZCA,3,38.6755861,-0.3311341,191,2018,Valencia,0,0,0,0,0,0,0,1,1,0,1,0,0
Alcoletge,ESP,City,Spain,Europe,16.7,km2,GlobalCovenantofMayors2019;NAZCA,2,41.6472222,0.6944444,3285,2018,Lleida,0,0,0,0,0,0,0,0,1,0,1,0,0
Alcollar<c3><ad>n,ESP,City,Spain,Europe,79,km2,GlobalCovenantofMayors2019;NAZCA,2,39.245057,-5.737223,433,2018,Cáceres,0,0,0,0,0,0,0,0,1,0,1,0,0
Alconchel,ESP,City,Spain,Europe,294.9,km2,GlobalCovenantofMayors2019;NAZCA,2,38.517011,-7.070012,1876,2018,Badajoz,0,0,0,0,0,0,0,0,1,0,1,0,0
Alc<c3><b3>ntar,ESP,City,Spain,Europe,94,km2,EUCovenantofMayors2019;GlobalCovenantofMayors2019;NAZCA,3,37.33333333,-2.583333333,647,2018,Almería,0,0,0,0,0,0,0,1,1,0,1,0,0
Alcorc<c3><b3>n,ESP,City,Spain,Europe,33.7,km2,EUCovenantofMayors2019;GlobalCovenantofMayors2019;NAZCA,3,40.35,-3.833333333,167997,2018,Madrid,0,0,0,0,0,0,0,1,1,0,1,0,0
Alcover,ESP,City,Spain,Europe,46000,ha,EUCovenantofMayors2019;GlobalCovenantofMayors2019;NAZCA,3,41.26666667,1.166666667,5131,2018,Tarragona,0,0,0,0,0,0,0,1,1,0,1,0,0
Alcublas,ESP,City,Spain,Europe,43.5,km2,GlobalCovenantofMayors2019;NAZCA,2,39.7979196,-0.7025735,690,2018,Valencia,0,0,0,0,0,0,0,0,1,0,1,0,0
Alcudia,ESP,City,Spain,Europe,60.05,km2,GlobalCovenantofMayors2019;NAZCA,2,39.853267,3.124024,22942,2018,Baleares,0,0,0,0,0,0,0,0,1,0,1,0,0
Aldaia,ESP,City,Spain,Europe,16.1,km2,GlobalCovenantofMayors2019;NAZCA,2,39.4647207,-0.4607809,31246,2018,Valencia,0,0,0,0,0,0,0,0,1,0,1,0,0
Aldehuela De Liestos,ESP,City,Spain,Europe,38.12,km2,GlobalCovenantofMayors2019;EUCovenantofMayors2019;NAZCA,3,41.0642215,-1.7005881,51,2018,Aragon,0,0,0,0,0,0,0,1,1,0,1,0,0
Aldeire,ESP,City,Spain,Europe,67,km2,EUCovenantofMayors2019;GlobalCovenantofMayors2019;NAZCA,3,37.15,-3.066666667,696,2018,Granada,0,0,0,0,0,0,0,1,1,0,1,0,0
Aldeno,ITA,City,Italy,Europe,8.97,km2,GlobalCovenantofMayors2019;EUCovenantofMayors2019;NAZCA,3,45.9767795,11.0908573,3053,,Trentino,0,0,0,0,0,0,0,1,1,0,1,0,0
Aldover,ESP,City,Spain,Europe,20.2,km2,GlobalCovenantofMayors2019;NAZCA,2,40.8800537,0.5000194,918,2018,Tarragona,0,0,0,0,0,0,0,0,1,0,1,0,0
Aledo,ESP,City,Spain,Europe,49.74,km2,GlobalCovenantofMayors2019;NAZCA,2,37.794985,-1.573546,1053,2018,Murcia,0,0,0,0,0,0,0,0,1,0,1,0,0
Alella,ESP,City,Spain,Europe,9.6,km2,EUCovenantofMayors2019;GlobalCovenantofMayors2019;NAZCA,3,41.495,2.296111111,9397,2018,Barcelona Province,0,0,0,0,0,0,0,1,1,0,1,0,0
Alenquer,PRT,City,Portugal,Europe,304.22,km2,GlobalCovenantofMayors2019;NAZCA,2,39.0574,-9.006365,42000,2011,Lisbon,0,0,0,0,0,0,0,0,1,0,1,0,0
Alento Montestella,ITA,City,Italy,Europe,,"",GlobalCovenantofMayors2019;EUCovenantofMayors2019,2,40.2374011,15.0487682,15104,,Campania,0,0,0,0,0,0,0,1,1,0,0,0,0
Alessandria,ITA,City,Italy,Europe,203.57,km2,GlobalCovenantofMayors2019;EUCovenantofMayors2019;NAZCA,3,44.9129225,8.615321,85438,,Alessandria,0,0,0,0,0,0,0,1,1,0,1,0,0
Alessandria della Rocca,ITA,City,Italy,Europe,62.24,km2,EUCovenantofMayors2019;GlobalCovenantofMayors2019;NAZCA,3,37.56666667,13.45,3082,,Agrigento,0,0,0,0,0,0,0,1,1,0,1,0,0
Alessano,ITA,City,Italy,Europe,28.69,km2,GlobalCovenantofMayors2019;EUCovenantofMayors2019;NAZCA,3,39.8896785,18.3312082,6552,,Lecce,0,0,0,0,0,0,0,1,1,0,1,0,0
<c3><85>lesund,NOR,City,Norway,Europe,93.17,km2,EUCovenantofMayors2019;GlobalCovenantofMayors2019;NAZCA,3,62.47777778,6.190277778,42317,2017,Møre og Romsdal,0,0,0,0,0,0,0,1,1,0,1,0,0
Alexandria,GRC,City,Greece,Europe,2679,km2,GlobalCovenantofMayors2019;EUCovenantofMayors2019;NAZCA,3,37.9506108,23.7029521,41604,2018,Central Macedonia,0,0,0,0,0,0,0,1,1,0,1,0,0
"Alexandria, VA",USA,City,United States of America,North America,38.6685507,km2,ClimateMayors;WeAreStillIn2019;WeAreStillIn2019,2,38.804722,-77.047222,153511,2010,Virginia,0,0,0,0,0,1,0,0,0,0,0,0,1
Alexandroupolis,GRC,City,Greece,Europe,1217,km2,EUCovenantofMayors2019;GlobalCovenantofMayors2019;NAZCA,3,40.85,25.86666667,72750,2011,East Macedonia and Thrace,0,0,0,0,0,0,0,1,1,0,1,0,0
Alex<c3><a2>nia,BRA,City,Brazil,Latin America and Caribbean,847.891,km2,GlobalCovenantofMayors2019;NAZCA,2,-16.0887,-48.5017,30000,2007,Goiás,0,0,0,0,0,0,0,0,1,0,1,0,0
Alezio,ITA,City,Italy,Europe,16.79,km2,EUCovenantofMayors2019;GlobalCovenantofMayors2019;NAZCA,3,40.06666667,18.05,5547,,Lecce,0,0,0,0,0,0,0,1,1,0,1,0,0
Alfacar,ESP,City,Spain,Europe,16,km2,GlobalCovenantofMayors2019;EUCovenantofMayors2019;NAZCA,3,37.2383551,-3.566372,5508,2018,Granada,0,0,0,0,0,0,0,1,1,0,1,0,0
Alfafar,ESP,City,Spain,Europe,16,km2,GlobalCovenantofMayors2019;NAZCA,2,39.4200749,-0.3891354,20772,2018,Granada,0,0,0,0,0,0,0,0,1,0,1,0,0
Alfafara,ESP,City,Spain,Europe,19.78,km2,GlobalCovenantofMayors2019;EUCovenantofMayors2019;NAZCA,3,38.7732651,-0.554559,418,2018,Alicante,0,0,0,0,0,0,0,1,1,0,1,0,0
Alfajar<c3><ad>n,ESP,City,Spain,Europe,137,km2,EUCovenantofMayors2019;GlobalCovenantofMayors2019;NAZCA,3,41.61666667,-0.7,2215,2018,Aragon,0,0,0,0,0,0,0,1,1,0,1,0,0
Alfamen,ESP,City,Spain,Europe,102,km2,EUCovenantofMayors2019;GlobalCovenantofMayors2019;NAZCA,3,41.43333333,-1.25,1577,2018,Zaragoza,0,0,0,0,0,0,0,1,1,0,1,0,0
Alf<c3><a2>ndega da F<c3><a9>,PRT,City,Portugal,Europe,321.95,"",Carbonn2019;GlobalCovenantofMayors2019;NAZCA,3,41.35555556,-6.945,5104,2011,Norte,0,0,0,1,0,0,0,0,1,0,1,0,0
Alfara De Carles,ESP,City,Spain,Europe,63.9,km2,GlobalCovenantofMayors2019;NAZCA,2,40.8729772,0.4005288,395,2018,Tarragona,0,0,0,0,0,0,0,0,1,0,1,0,0
Alfara De La Baronia,ESP,City,Spain,Europe,11.71,km2,GlobalCovenantofMayors2019;NAZCA,2,39.762781,-0.355419,535,2018,Valencia,0,0,0,0,0,0,0,0,1,0,1,0,0
Alfara Del Patriarca,ESP,City,Spain,Europe,1.98,km2,GlobalCovenantofMayors2019;NAZCA,2,39.544129,-0.3856584,3228,2018,Valencia,0,0,0,0,0,0,0,0,1,0,1,0,0
Alfarnate,ESP,City,Spain,Europe,33.66987,km2,EUCovenantofMayors2019;GlobalCovenantofMayors2019;NAZCA,3,36.98333333,-4.25,1362,2018,Málaga,0,0,0,0,0,0,0,1,1,0,1,0,0
Alfarnatejo,ESP,City,Spain,Europe,20.71992,km2,GlobalCovenantofMayors2019;EUCovenantofMayors2019;NAZCA,3,36.9790514,-4.2726473,404,2018,Málaga,0,0,0,0,0,0,0,1,1,0,1,0,0
Alfarp,ESP,City,Spain,Europe,20.6,km2,GlobalCovenantofMayors2019;NAZCA,2,39.2767351,-0.560509,1553,2018,Valencia,0,0,0,0,0,0,0,0,1,0,1,0,0
Alfarr<c3><a0>s,ESP,City,Spain,Europe,11.4,km2,GlobalCovenantofMayors2019;NAZCA,2,41.8311403,0.5692934,2923,2018,Lleida,0,0,0,0,0,0,0,0,1,0,1,0,0
Alfarras<c3><ad>,ESP,City,Spain,Europe,6.4,km2,GlobalCovenantofMayors2019;NAZCA,2,38.903726,-0.4961549,1309,2018,Valencia,0,0,0,0,0,0,0,0,1,0,1,0,0
Alfauir,ESP,City,Spain,Europe,6.2,km2,GlobalCovenantofMayors2019;NAZCA,2,38.9283659,-0.2516594,451,2018,Valencia,0,0,0,0,0,0,0,0,1,0,1,0,0
Alfedena,ITA,City,Italy,Europe,39.96,km2,GlobalCovenantofMayors2019;EUCovenantofMayors2019;NAZCA,3,41.73424,14.03253,791,,Province of L'Aquila,0,0,0,0,0,0,0,1,1,0,1,0,0
Alfianello,ITA,City,Italy,Europe,13.75,km2,GlobalCovenantofMayors2019;EUCovenantofMayors2019;NAZCA,3,45.266975,10.148172,2445,,Brescia,0,0,0,0,0,0,0,1,1,0,1,0,0
Alfonsine,ITA,City,Italy,Europe,106.79,km2,GlobalCovenantofMayors2019;EUCovenantofMayors2019;NAZCA,3,44.5053302,12.0410437,12411,,Ravenna,0,0,0,0,0,0,0,1,1,0,1,0,0
Alforja,ESP,City,Spain,Europe,38.2,km2,GlobalCovenantofMayors2019;EUCovenantofMayors2019;NAZCA,3,41.2099763,0.9750606,1857,2018,Tarragona,0,0,0,0,0,0,0,1,1,0,1,0,0
Alforque,ESP,City,Spain,Europe,10,km2,GlobalCovenantofMayors2019;EUCovenantofMayors2019;NAZCA,3,41.3298767,-0.3852708,86,2018,Zaragoza,0,0,0,0,0,0,0,1,1,0,1,0,0
Algaida,ESP,City,Spain,Europe,89.78,km2,EUCovenantofMayors2019;GlobalCovenantofMayors2019;NAZCA,3,39.55833333,2.891666667,5367,2018,Baleares,0,0,0,0,0,0,0,1,1,0,1,0,0
Alg<c3><a1>mitas,ESP,City,Spain,Europe,20.42,km2,GlobalCovenantofMayors2019;EUCovenantofMayors2019;NAZCA,3,37.0163821,-5.1488475,1330,2018,Seville,0,0,0,0,0,0,0,1,1,0,1,0,0
Algar,ESP,City,Spain,Europe,175.6,km2,EUCovenantofMayors2019;GlobalCovenantofMayors2019;NAZCA,3,-33.39111111,-71.69277778,1540,,Málaga,0,0,0,0,0,0,0,1,1,0,1,0,0
Algar De Palancia,ESP,City,Spain,Europe,13.2,km2,GlobalCovenantofMayors2019;NAZCA,2,39.7810953,-0.3674639,503,2018,Valencia,0,0,0,0,0,0,0,0,1,0,1,0,0
Algarinejo,ESP,City,Spain,Europe,93,km2,EUCovenantofMayors2019;GlobalCovenantofMayors2019;NAZCA,3,37.31666667,-4.15,4184,2018,Granada,0,0,0,0,0,0,0,1,1,0,1,0,0
Algarrobo,ESP,City,Spain,Europe,10.35996,km2,GlobalCovenantofMayors2019;EUCovenantofMayors2019;NAZCA,3,36.7732439,-4.0399306,6144,2018,Málaga,0,0,0,0,0,0,0,1,1,0,1,0,0
Algatoc<c3><ad>n,ESP,City,Spain,Europe,20,km2,EUCovenantofMayors2019;GlobalCovenantofMayors2019;NAZCA,3,36.57277778,-5.275555556,951,2018,Málaga,0,0,0,0,0,0,0,1,1,0,1,0,0
Algeciras,ESP,City,Spain,Europe,86,km2,EUCovenantofMayors2019;GlobalCovenantofMayors2019;NAZCA,3,36.1275,-5.453888889,115333,2018,Cádiz,0,0,0,0,0,0,0,1,1,0,1,0,0
Algemes<c3><ad>,ESP,City,Spain,Europe,41.5,km2,GlobalCovenantofMayors2019;NAZCA,2,39.1907907,-0.4357531,27808,2018,Valencia,0,0,0,0,0,0,0,0,1,0,1,0,0
Algerri,ESP,City,Spain,Europe,54.3,km2,GlobalCovenantofMayors2019;EUCovenantofMayors2019;NAZCA,3,41.8151794,0.6371437,437,2018,Lleida,0,0,0,0,0,0,0,1,1,0,1,0,0
Alghero,ITA,City,Italy,Europe,225.4,km2,EUCovenantofMayors2019;GlobalCovenantofMayors2019;NAZCA,3,40.55,8.316666667,43945,2018,Sassari,0,0,0,0,0,0,0,1,1,0,1,0,0
Algimia De Alfara,ESP,City,Spain,Europe,14.4,km2,GlobalCovenantofMayors2019;NAZCA,2,39.7536043,-0.362999,1047,2018,Valencia,0,0,0,0,0,0,0,0,1,0,1,0,0
Alginet,ESP,City,Spain,Europe,24.1,km2,GlobalCovenantofMayors2019;NAZCA,2,39.2651129,-0.4716911,13068,2018,Valencia,0,0,0,0,0,0,0,0,1,0,1,0,0
Algua,ITA,City,Italy,Europe,8.32,km2,EUCovenantofMayors2019;GlobalCovenantofMayors2019;NAZCA,3,45.83333333,9.716666667,722,,Bergamo,0,0,0,0,0,0,0,1,1,0,1,0,0
Alguazas,ESP,City,Spain,Europe,23.74,km2,GlobalCovenantofMayors2019;NAZCA,2,38.052566,-1.249398,9146,2018,Murcia,0,0,0,0,0,0,0,0,1,0,1,0,0
Algue<c3><b1>a,ESP,City,Spain,Europe,18.43,km2,EUCovenantofMayors2019;GlobalCovenantofMayors2019;NAZCA,3,38.33777778,-1.003611111,1457,2018,Valencia,0,0,0,0,0,0,0,1,1,0,1,0,0
Alhama de Almer<c3><ad>a,ESP,City,Spain,Europe,26,km2,EUCovenantofMayors2019;GlobalCovenantofMayors2019;NAZCA,3,36.95,-2.566666667,3587,2018,Almería,0,0,0,0,0,0,0,1,1,0,1,0,0
Alhama de Arag<c3><b3>n,ESP,City,Spain,Europe,31,km2,EUCovenantofMayors2019;GlobalCovenantofMayors2019;NAZCA,3,41.3,-1.9,1146,2018,Aragon,0,0,0,0,0,0,0,1,1,0,1,0,0
Alhama de Granada,ESP,City,Spain,Europe,433.5,km2,GlobalCovenantofMayors2019;EUCovenantofMayors2019;NAZCA,3,37.0028286,-3.9891095,6214,2018,Granada,0,0,0,0,0,0,0,1,1,0,1,0,0
Alhama de Murcia,ESP,City,Spain,Europe,311.55,km2,GlobalCovenantofMayors2019;EUCovenantofMayors2019;NAZCA,3,37.8515173,-1.4264423,20915,2018,Murcia,0,0,0,0,0,0,0,1,1,0,1,0,0
Alhaur<c3><ad>n de la Torre,ESP,City,Spain,Europe,83,km2,EUCovenantofMayors2019;GlobalCovenantofMayors2019;NAZCA,3,36.66666667,-4.55,37446,2018,Málaga,0,0,0,0,0,0,0,1,1,0,1,0,0
Alhaurin el Grande,ESP,City,Spain,Europe,73.1,km2,EUCovenantofMayors2019;GlobalCovenantofMayors2019;NAZCA,3,36.63305556,-4.683055556,21776,2018,Málaga,0,0,0,0,0,0,0,1,1,0,1,0,0
Alhend<c3><ad>n,ESP,City,Spain,Europe,51,km2,GlobalCovenantofMayors2019;EUCovenantofMayors2019;NAZCA,3,37.1081077,-3.64366,5200,2018,Granada,0,0,0,0,0,0,0,1,1,0,1,0,0
Al<c3><ac> Terme,ITA,City,Italy,Europe,6.27,km2,GlobalCovenantofMayors2019;NAZCA,2,38.005064,15.42269,2567,,Sicily,0,0,0,0,0,0,0,0,1,0,1,0,0
Alia,ITA,City,Italy,Europe,,"",EUCovenantofMayors2019;GlobalCovenantofMayors2019;NAZCA,3,37.779948,13.713856,3806,,Palermo,0,0,0,0,0,0,0,1,1,0,1,0,0
Aliano,ITA,City,Italy,Europe,98.41,km2,GlobalCovenantofMayors2019;EUCovenantofMayors2019;NAZCA,3,40.3138266,16.2299609,1110,,Basilicata,0,0,0,0,0,0,0,1,1,0,1,0,0
Aliartou - Thespieon,GRC,City,Greece,Europe,108.152,km2,GlobalCovenantofMayors2019;EUCovenantofMayors2019;NAZCA,3,38.3,23.15,4793,,Boeotia,0,0,0,0,0,0,0,1,1,0,1,0,0
Alicante,ESP,City,Spain,Europe,201.27,km2,GlobalCovenantofMayors2019;EUCovenantofMayors2019;NAZCA,3,38.353738,-0.4901845,334678,2018,Alicante,0,0,0,0,0,0,0,1,1,0,1,0,0
Alife,ITA,City,Italy,Europe,64.32,km2,EUCovenantofMayors2019;GlobalCovenantofMayors2019;NAZCA,3,41.33333333,14.33333333,7613,,Caserta,0,0,0,0,0,0,0,1,1,0,1,0,0
Alij<c3><b3>,PRT,City,Portugal,Europe,297.6,km2,EUCovenantofMayors2019;GlobalCovenantofMayors2019;NAZCA,3,41.27611111,-7.475,11840,2011,Norte,0,0,0,0,0,0,0,1,1,0,1,0,0
Alimena,ITA,City,Italy,Europe,59.7,km2,EUCovenantofMayors2019;GlobalCovenantofMayors2019;NAZCA,3,37.7,14.11666667,2087,,Sicily,0,0,0,0,0,0,0,1,1,0,1,0,0
Aliminusa,ITA,City,Italy,Europe,13.68,km2,EUCovenantofMayors2019;GlobalCovenantofMayors2019;NAZCA,3,37.86666667,13.78333333,1269,,Palermo,0,0,0,0,0,0,0,1,1,0,1,0,0
Alimos,GRC,City,Greece,Europe,5.909,km2,EUCovenantofMayors2019;GlobalCovenantofMayors2019;NAZCA,3,37.91666667,23.71666667,42000,2011,Attica,0,0,0,0,0,0,0,1,1,0,1,0,0
Ali<c3><b3>,ESP,City,Spain,Europe,7.2,km2,EUCovenantofMayors2019;GlobalCovenantofMayors2019;NAZCA,3,41.3,1.3,432,2018,Tarragona,0,0,0,0,0,0,0,1,1,0,1,0,0
Aliseda,ESP,City,Spain,Europe,81,km2,GlobalCovenantofMayors2019;NAZCA,2,39.4247,-6.691883,1951,2018,Cáceres,0,0,0,0,0,0,0,0,1,0,1,0,0
Aljaraque,ESP,City,Spain,Europe,34,km2,GlobalCovenantofMayors2019;EUCovenantofMayors2019;NAZCA,3,37.2664912,-7.0246858,17960,2018,Huelva,0,0,0,0,0,0,0,1,1,0,1,0,0
Alken,BEL,City,Belgium,Europe,28.14,km2,GlobalCovenantofMayors2019;EUCovenantofMayors2019;NAZCA,3,50.8754731,5.3079873,11242,,Limburg,0,0,0,0,0,0,0,1,1,0,1,0,0
Alkmaar,NLD,City,Netherlands,Europe,29.26,km2,GlobalCovenantofMayors2019;NAZCA,2,52.632381,4.753375,288000,2016,North Holland,0,0,0,0,0,0,0,0,1,0,1,0,0
"Allentown, PA",USA,City,United States of America,North America,749.802105,km2,ClimateMayors;WeAreStillIn2019;WeAreStillIn2019,2,40.601667,-75.477222,120443,2010,Pennsylvania,0,0,0,0,0,1,0,0,0,0,0,0,1
Alliance of Peaking Pioneer Cities (APPC),CHN,Region,China,East Asia and the Pacific,,"",Under2Coalition2019,1,,,,,Alliance of Peaking Pioneer Cities (APPC),0,0,0,0,0,0,0,0,0,0,0,1,0
Alliste,ITA,City,Italy,Europe,23.53,km2,GlobalCovenantofMayors2019;NAZCA,2,39.947527,18.086225,6719,,Lecce,0,0,0,0,0,0,0,0,1,0,1,0,0
Allumiere,ITA,City,Italy,Europe,92.17,km2,EUCovenantofMayors2019;GlobalCovenantofMayors2019;NAZCA,3,42.15,11.9,4293,,Rome,0,0,0,0,0,0,0,1,1,0,1,0,0
Almacelles,ESP,City,Spain,Europe,49,km2,EUCovenantofMayors2019;GlobalCovenantofMayors2019;NAZCA,3,41.7325,0.440277778,6961,2018,Lleida,0,0,0,0,0,0,0,1,1,0,1,0,0
Alm<c3><a1>char,ESP,City,Spain,Europe,14.3,km2,EUCovenantofMayors2019;GlobalCovenantofMayors2019;NAZCA,3,36.8,-4.233333333,1898,2018,Málaga,0,0,0,0,0,0,0,1,1,0,1,0,0
Almada,PRT,City,Portugal,Europe,70.21,km2,GlobalCovenantofMayors2019;EUCovenantofMayors2019;Carbonn2019;NAZCA,4,38.6803861,-9.1559562,174030,2011,Lisbon,0,0,0,1,0,0,0,1,1,0,1,0,0
Almad<c3><a9>n de la Plata,ESP,City,Spain,Europe,,"",GlobalCovenantofMayors2019;EUCovenantofMayors2019;NAZCA,3,37.8736407,-6.0804953,1696,,Seville,0,0,0,0,0,0,0,1,1,0,1,0,0
Almargen,ESP,City,Spain,Europe,165,km2,EUCovenantofMayors2019;GlobalCovenantofMayors2019;NAZCA,3,37,-5.016666667,2106,2018,Málaga,0,0,0,0,0,0,0,1,1,0,1,0,0
Alm<c3><a0>ssera,ESP,City,Spain,Europe,2.7,km2,GlobalCovenantofMayors2019;NAZCA,2,39.5118213,-0.3562373,7514,2018,Valencia,0,0,0,0,0,0,0,0,1,0,1,0,0
Almassora,ESP,City,Spain,Europe,33,km2,GlobalCovenantofMayors2019;EUCovenantofMayors2019;NAZCA,3,39.9435743,-0.0634782,24963,2018,Castellón,0,0,0,0,0,0,0,1,1,0,1,0,0
Alm<c3><a8>,ITA,City,Italy,Europe,2,km2,EUCovenantofMayors2019;GlobalCovenantofMayors2019;NAZCA,3,45.73333333,9.616666667,5631,,Bergamo,0,0,0,0,0,0,0,1,1,0,1,0,0
Almeg<c3><ad>jar,ESP,City,Spain,Europe,30,km2,EUCovenantofMayors2019;GlobalCovenantofMayors2019;NAZCA,3,36.9,-3.3,435,2018,Granada,0,0,0,0,0,0,0,1,1,0,1,0,0
Almenar,ESP,City,Spain,Europe,66.6,km2,GlobalCovenantofMayors2019;NAZCA,2,41.7943506,0.5695395,3502,2018,Lleida,0,0,0,0,0,0,0,0,1,0,1,0,0
Almendral,ESP,City,Spain,Europe,67,km2,GlobalCovenantofMayors2019;NAZCA,2,38.613437,-6.821032,1354,2018,Badajoz,0,0,0,0,0,0,0,0,1,0,1,0,0
Almenno San Bartolomeo,ITA,City,Italy,Europe,10.61,km2,EUCovenantofMayors2019;GlobalCovenantofMayors2019;NAZCA,3,45.75,9.583333333,5388,,Bergamo,0,0,0,0,0,0,0,1,1,0,1,0,0
Almenno San Salvatore,ITA,City,Italy,Europe,4.73,km2,GlobalCovenantofMayors2019;EUCovenantofMayors2019;NAZCA,3,45.7499556,9.5963684,5789,,Bergamo,0,0,0,0,0,0,0,1,1,0,1,0,0
Almensilla,ESP,City,Spain,Europe,,"",GlobalCovenantofMayors2019;EUCovenantofMayors2019;NAZCA,3,37.3100014,-6.1130522,5096,,Seville,0,0,0,0,0,0,0,1,1,0,1,0,0
Almere,NLD,City,Netherlands,Europe,129.6,km2,EUCovenantofMayors2019;GlobalCovenantofMayors2019;NAZCA,3,52.36666667,5.216666667,193156,2017,Flevoland,0,0,0,0,0,0,0,1,1,0,1,0,0
Almer<c3><ad>a,ESP,City,Spain,Europe,296.21,km2,EUCovenantofMayors2019;GlobalCovenantofMayors2019;NAZCA,3,36.84027778,-2.468055556,175000,2018,Almería,0,0,0,0,0,0,0,1,1,0,1,0,0
Almese,ITA,City,Italy,Europe,17.88,km2,GlobalCovenantofMayors2019;EUCovenantofMayors2019;NAZCA,3,45.1168763,7.39455,6378,,Turin,0,0,0,0,0,0,0,1,1,0,1,0,0
<c3><84>lmhults,SWE,City,Sweden,Europe,8.78,km2,GlobalCovenantofMayors2019;EUCovenantofMayors2019;NAZCA,3,56.55,14.116667,15570,2010,Småland,0,0,0,0,0,0,0,1,1,0,1,0,0
Almiser<c3><a0>,ESP,City,Spain,Europe,7.4,km2,GlobalCovenantofMayors2019;NAZCA,2,38.9153082,-0.286036,276,2018,Valencia,0,0,0,0,0,0,0,0,1,0,1,0,0
Alm<c3><b3>cita,ESP,City,Spain,Europe,30,km2,GlobalCovenantofMayors2019;EUCovenantofMayors2019;NAZCA,3,37.003137,-2.7904478,158,2018,Almería,0,0,0,0,0,0,0,1,1,0,1,0,0
Almohar<c3><ad>n,ESP,City,Spain,Europe,97,km2,GlobalCovenantofMayors2019;NAZCA,2,39.175874,-6.042773,2082,2018,Cáceres,0,0,0,0,0,0,0,0,1,0,1,0,0
Almoines,ESP,City,Spain,Europe,2.1,km2,GlobalCovenantofMayors2019;NAZCA,2,38.9434696,-0.1809756,2302,2018,Valencia,0,0,0,0,0,0,0,0,1,0,1,0,0
Almonacid De La Cuba,ESP,City,Spain,Europe,55,km2,GlobalCovenantofMayors2019;EUCovenantofMayors2019;NAZCA,3,41.2795006,-0.7923988,270,2018,Aragon,0,0,0,0,0,0,0,1,1,0,1,0,0
Almonacid De La Sierra,ESP,City,Spain,Europe,54,km2,EUCovenantofMayors2019;GlobalCovenantofMayors2019;NAZCA,3,41.4,-1.316666667,824,2018,Aragon,0,0,0,0,0,0,0,1,1,0,1,0,0
Almonaster la Real,ESP,City,Spain,Europe,322,km2,EUCovenantofMayors2019;GlobalCovenantofMayors2019;NAZCA,3,37.87333333,-6.786111111,1848,2018,Huelva,0,0,0,0,0,0,0,1,1,0,1,0,0
Almonte,ESP,City,Spain,Europe,859.2,km2,EUCovenantofMayors2019;GlobalCovenantofMayors2019;NAZCA,3,39.68416667,-6.46,21782,,Huelva,0,0,0,0,0,0,0,1,1,0,1,0,0
Almopia,GRC,City,Greece,Europe,985.8,km2,GlobalCovenantofMayors2019;NAZCA,2,41.039781,22.09533,29354,2011,Central Macedonia,0,0,0,0,0,0,0,0,1,0,1,0,0
Almorad<c3><ad>,ESP,City,Spain,Europe,42.72,km2,GlobalCovenantofMayors2019;EUCovenantofMayors2019;NAZCA,3,38.1096544,-0.7919255,19601,2018,Valencia,0,0,0,0,0,0,0,1,1,0,1,0,0
Almoster,ESP,City,Spain,Europe,6,km2,EUCovenantofMayors2019;GlobalCovenantofMayors2019;NAZCA,3,41.2,1.116666667,1396,2018,Tarragona,0,0,0,0,0,0,0,1,1,0,1,0,0
Almudaina,ESP,City,Spain,Europe,8.82,km2,GlobalCovenantofMayors2019;EUCovenantofMayors2019;NAZCA,3,38.7611112,-0.3539786,112,2018,Alicante,0,0,0,0,0,0,0,1,1,0,1,0,0
Almussafes,ESP,City,Spain,Europe,10.77,km2,GlobalCovenantofMayors2019;NAZCA,2,39.2924334,-0.4138576,8744,2018,Valencia,0,0,0,0,0,0,0,0,1,0,1,0,0
Almyros,GRC,City,Greece,Europe,905.4,km2,EUCovenantofMayors2019;GlobalCovenantofMayors2019;NAZCA,3,39.18,22.76,18614,2011,Magnesia,0,0,0,0,0,0,0,1,1,0,1,0,0
Alonte,ITA,City,Italy,Europe,11.15,km2,GlobalCovenantofMayors2019;NAZCA,2,45.364644,11.428491,1663,,Vicenza,0,0,0,0,0,0,0,0,1,0,1,0,0
Alor Gajah,MYS,City,Malaysia,East Asia and the Pacific,635.84,"",Carbonn2019,1,2.383333333,102.2166667,198400,,Melaka,0,0,0,1,0,0,0,0,0,0,0,0,0
<c3><81>lora,ESP,City,Spain,Europe,79.26,km2,GlobalCovenantofMayors2019;NAZCA,2,36.839681,-4.707062,13499,2018,Málaga,0,0,0,0,0,0,0,0,1,0,1,0,0
Alosno,ESP,City,Spain,Europe,193,km2,EUCovenantofMayors2019;GlobalCovenantofMayors2019;NAZCA,3,37.55,-7.116666667,4381,2018,Huelva,0,0,0,0,0,0,0,1,1,0,1,0,0
Alozaina,ESP,City,Spain,Europe,33.85,km2,GlobalCovenantofMayors2019;EUCovenantofMayors2019;NAZCA,3,36.7278925,-4.8564749,2236,2018,Málaga,0,0,0,0,0,0,0,1,1,0,1,0,0
Alp,ESP,City,Spain,Europe,,"",GlobalCovenantofMayors2019;NAZCA,2,42.372845,1.886116,1747,,Girona,0,0,0,0,0,0,0,0,1,0,1,0,0
Alpa Corral,ARG,City,Argentina,Latin America and Caribbean,,"",GlobalCovenantofMayors2019;NAZCA,2,-32.69138,-64.7213,1200,,Córdoba,0,0,0,0,0,0,0,0,1,0,1,0,0
Alpago,ITA,City,Italy,Europe,80.34,km2,GlobalCovenantofMayors2019;EUCovenantofMayors2019,2,46.1306681,12.3548944,7299,,Venice,0,0,0,0,0,0,0,1,1,0,0,0,0
Alpandeire,ESP,City,Spain,Europe,31.3,km2,EUCovenantofMayors2019;GlobalCovenantofMayors2019;NAZCA,3,36.63444444,-5.202777778,271,2018,Málaga,0,0,0,0,0,0,0,1,1,0,1,0,0
Alpens,ESP,City,Spain,Europe,13.8,km2,EUCovenantofMayors2019;GlobalCovenantofMayors2019;NAZCA,3,42.11666667,2.1,311,2018,Barcelona Province,0,0,0,0,0,0,0,1,1,0,1,0,0
Alpicat,ESP,City,Spain,Europe,15.3,km2,EUCovenantofMayors2019;GlobalCovenantofMayors2019;NAZCA,3,41.66666667,0.55,6203,2018,Lleida,0,0,0,0,0,0,0,1,1,0,1,0,0
Alpignano,ITA,City,Italy,Europe,11.92,km2,EUCovenantofMayors2019;GlobalCovenantofMayors2019;NAZCA,3,45.1,7.516666667,16993,,Turin,0,0,0,0,0,0,0,1,1,0,1,0,0
Alpuente,ESP,City,Spain,Europe,138.3,km2,GlobalCovenantofMayors2019;NAZCA,2,39.8759884,-1.0137761,640,2018,Valencia,0,0,0,0,0,0,0,0,1,0,1,0,0
Alquer<c3><ad>a de Aznar,ESP,City,Spain,Europe,1.08,km2,EUCovenantofMayors2019;GlobalCovenantofMayors2019;NAZCA,3,38.77277778,-0.425833333,527,2018,Valencia,0,0,0,0,0,0,0,1,1,0,1,0,0
Alsace,FRA,Region,France,Europe,,"",Under2Coalition2019,1,48.66666667,7,1872949,,Alsace,0,0,0,0,0,0,0,0,0,0,0,1,0
Alseno,ITA,City,Italy,Europe,55.27,km2,EUCovenantofMayors2019;GlobalCovenantofMayors2019;NAZCA,3,44.9,9.966666667,4977,,Piacenza,0,0,0,0,0,0,0,1,1,0,1,0,0
Alta Gracia,ARG,City,Argentina,Latin America and Caribbean,,"",GlobalCovenantofMayors2019;NAZCA,2,-27.5095304,-58.8264294,48506,,Córdoba,0,0,0,0,0,0,0,0,1,0,1,0,0
Altafulla,ESP,City,Spain,Europe,7,km2,EUCovenantofMayors2019;GlobalCovenantofMayors2019;NAZCA,3,41.14333333,1.376944444,4928,2018,Tarragona,0,0,0,0,0,0,0,1,1,0,1,0,0
Altare-Cosseria,ITA,City,Italy,Europe,,"",GlobalCovenantofMayors2019;EUCovenantofMayors2019,2,44.3352858,8.3180253,3249,,Liguria,0,0,0,0,0,0,0,1,1,0,0,0,0
Altavilla Milicia,ITA,City,Italy,Europe,23.78,km2,GlobalCovenantofMayors2019;EUCovenantofMayors2019;NAZCA,3,38.037851,13.54835,7791,,Palermo,0,0,0,0,0,0,0,1,1,0,1,0,0
Altavilla Silentina,ITA,City,Italy,Europe,52.48,km2,GlobalCovenantofMayors2019;EUCovenantofMayors2019;NAZCA,3,40.5302405,15.1310307,7029,,Salerno,0,0,0,0,0,0,0,1,1,0,1,0,0
Altavilla Vicentina,ITA,City,Italy,Europe,16.72,km2,GlobalCovenantofMayors2019;EUCovenantofMayors2019;NAZCA,3,45.5084288,11.4706863,12084,,Vicenza,0,0,0,0,0,0,0,1,1,0,1,0,0
Altea,ESP,City,Spain,Europe,34.43,km2,EUCovenantofMayors2019;GlobalCovenantofMayors2019;NAZCA,3,38.59861111,-0.0519,21739,2018,Alicante,0,0,0,0,0,0,0,1,1,0,1,0,0
Alter do Ch<c3><a3>o,PRT,City,Portugal,Europe,362.07,km2,EUCovenantofMayors2019;GlobalCovenantofMayors2019;NAZCA,3,39.18333333,-7.65,3591,2011,Alentejo,0,0,0,0,0,0,0,1,1,0,1,0,0
Altilia,ITA,City,Italy,Europe,10.56,km2,EUCovenantofMayors2019;GlobalCovenantofMayors2019;NAZCA,3,39.13333333,16.25,779,,Cosenza,0,0,0,0,0,0,0,1,1,0,1,0,0
Altino,ITA,City,Italy,Europe,15.33,km2,EUCovenantofMayors2019;GlobalCovenantofMayors2019;NAZCA,3,42.1,14.33333333,2823,,Chieti Province,0,0,0,0,0,0,0,1,1,0,1,0,0
Altivole,ITA,City,Italy,Europe,21.95,km2,GlobalCovenantofMayors2019;EUCovenantofMayors2019;NAZCA,3,45.7540029,11.9553621,6828,,Treviso,0,0,0,0,0,0,0,1,1,0,1,0,0
Alto,ITA,City,Italy,Europe,40.0671453,km2,GlobalCovenantofMayors2019;NAZCA,2,46.433666,11.16933,113,2010,Cuneo,0,0,0,0,0,0,0,0,1,0,1,0,0
Alto Agordino,ITA,City,Italy,Europe,,"",GlobalCovenantofMayors2019;EUCovenantofMayors2019;NAZCA,3,46.2683053,12.036373,3869,,Venice,0,0,0,0,0,0,0,1,1,0,1,0,0
Alto Alegre,BRA,City,Brazil,Latin America and Caribbean,25567,km2,GlobalCovenantofMayors2019;NAZCA,2,-21.623976,-50.203844,4164,2015,Roraima,0,0,0,0,0,0,0,0,1,0,1,0,0
Alto e Medio Metauro,ITA,City,Italy,Europe,590.82,km2,GlobalCovenantofMayors2019;EUCovenantofMayors2019,2,43.668333,12.524167,41375,,Marche,0,0,0,0,0,0,0,1,1,0,0,0,0
Altofonte,ITA,City,Italy,Europe,35.44,km2,GlobalCovenantofMayors2019;NAZCA,2,38.044476,13.298103,10438,,Sicily,0,0,0,0,0,0,0,0,1,0,1,0,0
"Alton, IL",USA,City,United States of America,North America,43,km2,Carbonn2019;GlobalCovenantofMayors2019;CDPCities2018;NAZCA,4,38.90055556,-90.15972222,26581,2010,Illinois,0,0,1,1,0,0,0,0,1,0,1,0,0
Alt<c3><b6>tting,DEU,City,Germany,Europe,23.43,km2,GlobalCovenantofMayors2019;EUCovenantofMayors2019;NAZCA,3,48.2268085,12.6757914,13000,,Bavaria,0,0,0,0,0,0,0,1,1,0,1,0,0
Altura,ESP,City,Spain,Europe,7.3037718,km2,GlobalCovenantofMayors2019;NAZCA,2,39.850792,-0.512944,3920,2010,Castellón,0,0,0,0,0,0,0,0,1,0,1,0,0
Alvai<c3><a1>zere,PRT,City,Portugal,Europe,160.48,km2,GlobalCovenantofMayors2019;EUCovenantofMayors2019;NAZCA,3,39.8161333,-8.402046067,8112,2011,Centro,0,0,0,0,0,0,0,1,1,0,1,0,0
Alvarado,MEX,City,Mexico,Latin America and Caribbean,840.63,km2,GlobalCovenantofMayors2019;NAZCA,2,18.76648,-95.7573,56927,2005,Veracruz,0,0,0,0,0,0,0,0,1,0,1,0,0
Alvesta,SWE,City,Sweden,Europe,6.1,km2,GlobalCovenantofMayors2019;EUCovenantofMayors2019;NAZCA,3,56.86382675,14.44793099,18757,2010,Småland,0,0,0,0,0,0,0,1,1,0,1,0,0
Alvignano,ITA,City,Italy,Europe,38.13,km2,EUCovenantofMayors2019;GlobalCovenantofMayors2019;NAZCA,3,41.25,14.33333333,4885,,Caserta,0,0,0,0,0,0,0,1,1,0,1,0,0
<c3><84>lvsbyn,SWE,City,Sweden,Europe,6.35,km2,EUCovenantofMayors2019;GlobalCovenantofMayors2019;NAZCA,3,65.68333333,21.01666667,8274,2010,Norrbotten County,0,0,0,0,0,0,0,1,1,0,1,0,0
Alzano Lombardo,ITA,City,Italy,Europe,13.68,km2,EUCovenantofMayors2019;GlobalCovenantofMayors2019;NAZCA,3,45.73333333,9.733333333,13757,,Bergamo,0,0,0,0,0,0,0,1,1,0,1,0,0
Alzira,ESP,City,Spain,Europe,110.4,km2,GlobalCovenantofMayors2019;NAZCA,2,39.1512424,-0.4346132,44518,2018,Valencia,0,0,0,0,0,0,0,0,1,0,1,0,0
Amacuzac,MEX,City,Mexico,Latin America and Caribbean,125,"",Carbonn2019,1,18,-99,17021,,Morelos,0,0,0,1,0,0,0,0,0,0,0,0,0
Amadora,PRT,City,Portugal,Europe,23.78,km2,GlobalCovenantofMayors2019;NAZCA,2,38.75776,-9.224547,172350,2011,Lisbon,0,0,0,0,0,0,0,0,1,0,1,0,0
Amami,JPN,City,Japan,East Asia and the Pacific,308.15,km2,Carbonn2019,1,28.31666667,129.45,44561,2016,Kagoshima Prefecture,0,0,0,1,0,0,0,0,0,0,0,0,0
Amares,PRT,City,Portugal,Europe,81.95,km2,EUCovenantofMayors2019;GlobalCovenantofMayors2019;NAZCA,3,41.61666667,-8.333333333,19000,2011,Norte,0,0,0,0,0,0,0,1,1,0,1,0,0
Amaroussion,GRC,City,Greece,Europe,12.938,km2,GlobalCovenantofMayors2019;EUCovenantofMayors2019;NAZCA,3,38.0455,23.7689,72480,2011,Attica,0,0,0,0,0,0,0,1,1,0,1,0,0
Amato,ITA,City,Italy,Europe,20.93,km2,EUCovenantofMayors2019;GlobalCovenantofMayors2019;NAZCA,3,38.93333333,16.46666667,861,,Reggio Calabria,0,0,0,0,0,0,0,1,1,0,1,0,0
Amay,BEL,City,Belgium,Europe,27.61,km2,GlobalCovenantofMayors2019;NAZCA,2,50.5497761,5.3240992,14145,,Liège,0,0,0,0,0,0,0,0,1,0,1,0,0
"Amazonas, Brazil",BRA,Region,Brazil,Latin America and Caribbean,1570745.7,km2,Under2Coalition2019;NAZCA,2,-5,-63,4063614,2010,"Amazonas, Brazil",0,0,0,0,0,0,0,0,0,0,1,1,0
"Amazonas, Peru",PER,Region,Peru,Latin America and Caribbean,39249.13,km2,CompactofStatesRegions2018;Under2Coalition2019;NAZCA,3,-6.21666666666667,-77.85,424952,2017,"Amazonas, Peru",0,0,0,0,0,0,1,0,0,0,1,1,0
Ambivere,ITA,City,Italy,Europe,3.28,km2,EUCovenantofMayors2019;GlobalCovenantofMayors2019;NAZCA,3,45.71666667,9.55,2371,,Bergamo,0,0,0,0,0,0,0,1,1,0,1,0,0
"Ambler, PA",USA,City,United States of America,North America,23.2581102,km2,WeAreStillIn2019;ClimateMayors;WeAreStillIn2019,2,67.085,-157.8602778,6506,2010,Alaska,0,0,0,0,0,1,0,0,0,0,0,0,1
Ameglia,ITA,City,Italy,Europe,14.17,km2,EUCovenantofMayors2019;GlobalCovenantofMayors2019;NAZCA,3,44.06666667,9.95,4520,,La Spezia,0,0,0,0,0,0,0,1,1,0,1,0,0
Amel,BEL,City,Belgium,Europe,125.15,km2,GlobalCovenantofMayors2019;NAZCA,2,50.3543055,6.1705559,5500,,Liège,0,0,0,0,0,0,0,0,1,0,1,0,0
Amendolara,ITA,City,Italy,Europe,60.91,km2,GlobalCovenantofMayors2019;EUCovenantofMayors2019;NAZCA,3,39.9524383,16.5822838,3107,,Cosenza,0,0,0,0,0,0,0,1,1,0,1,0,0
Ameno,ITA,City,Italy,Europe,10,km2,GlobalCovenantofMayors2019;EUCovenantofMayors2019;NAZCA,3,45.7886563,8.4413106,878,,Novara,0,0,0,0,0,0,0,1,1,0,1,0,0
Amer,ESP,City,Spain,Europe,,"",EUCovenantofMayors2019;GlobalCovenantofMayors2019;NAZCA,3,42.0092186,2.6030327,2300,,Girona,0,0,0,0,0,0,0,1,1,0,1,0,0
"Amesville, OH",USA,City,United States of America,North America,0.5697978,km2,ClimateMayors,1,39.401389,-81.955,157,2010,Ohio,0,0,0,0,0,1,0,0,0,0,0,0,0
Amezketa,ESP,City,Spain,Europe,,"",EUCovenantofMayors2019;GlobalCovenantofMayors2019;NAZCA,3,43.04916667,-2.088055556,994,2018,Biscay,0,0,0,0,0,0,0,1,1,0,1,0,0
Amiens,FRA,City,France,Europe,,"",GlobalCovenantofMayors2019;NAZCA,2,49.8941708,2.2956951,132727,,Hauts-de-France,0,0,0,0,0,0,0,0,1,0,1,0,0
Amiens M<c3><a9>tropole,FRA,City,France,Europe,,"",GlobalCovenantofMayors2019;NAZCA,2,49.87267,2.313818,177345,,Hauts-de-France,0,0,0,0,0,0,0,0,1,0,1,0,0
Amman,JOR,City,Jordan,Middle East and North Africa,1680,km2,CDPCities2018;Carbonn2019;C40Cities2019;GlobalCovenantofMayors2019;NAZCA,5,31.9454,35.9284,3800000,2017,Amman Governorate,0,1,1,1,0,0,0,0,1,0,1,0,0
Ampelokipi - Menemeni,GRC,City,Greece,Europe,8.82,km2,EUCovenantofMayors2019;GlobalCovenantofMayors2019;NAZCA,3,40.65,22.91666667,52127,2011,Central Macedonia,0,0,0,0,0,0,0,1,1,0,1,0,0
Amposta,ESP,City,Spain,Europe,138.3,km2,EUCovenantofMayors2019;GlobalCovenantofMayors2019;NAZCA,3,40.71055556,0.580833333,21197,2018,Tarragona,0,0,0,0,0,0,0,1,1,0,1,0,0
Ampuero,ESP,City,Spain,Europe,32.34,km2,GlobalCovenantofMayors2019;NAZCA,2,43.3440563,-3.4151481,4228,2018,Cantabria,0,0,0,0,0,0,0,0,1,0,1,0,0
Amsterdam,NLD,City,Netherlands,Europe,219.32,km2,C40Cities2019;EUCovenantofMayors2019;GlobalCovenantofMayors2019;NAZCA,4,52.36666667,4.9,731289,2015,North Holland,0,1,0,0,0,0,0,1,1,0,1,0,0
Amurrio,ESP,City,Spain,Europe,96.36,km2,Carbonn2019;GlobalCovenantofMayors2019;EUCovenantofMayors2019;NAZCA,4,43.05277778,-3.001388889,10260,2018,Alava,0,0,0,1,0,0,0,1,1,0,1,0,0
Amuwo-Odofin,NGA,City,Nigeria,Sub-Saharan Africa,179,"",Carbonn2019,1,6.45,3.266666667,386060,,Lagos State,0,0,0,1,0,0,0,0,0,0,0,0,0
Amynteo,GRC,City,Greece,Europe,589.4,km2,EUCovenantofMayors2019;GlobalCovenantofMayors2019;NAZCA,3,40.683333,21.683333,16973,,West Macedonia,0,0,0,0,0,0,0,1,1,0,1,0,0
Anacapri,ITA,City,Italy,Europe,6.47,km2,EUCovenantofMayors2019;GlobalCovenantofMayors2019;NAZCA,3,40.55,14.21666667,6684,,Naples,0,0,0,0,0,0,0,1,1,0,1,0,0
Anadia,PRT,City,Portugal,Europe,216.63,km2,EUCovenantofMayors2019;GlobalCovenantofMayors2019;NAZCA,3,40,-8,29150,,Centro,0,0,0,0,0,0,0,1,1,0,1,0,0
Ancarano,ITA,City,Italy,Europe,13.92,km2,GlobalCovenantofMayors2019;EUCovenantofMayors2019;NAZCA,3,42.836048,13.739392,1921,,Province of Teramo,0,0,0,0,0,0,0,1,1,0,1,0,0
"Anchorage, AK",USA,City,United States of America,North America,204.091212,km2,GlobalCovenantofMayors2019;ClimateMayors;WeAreStillIn2019;WeAreStillIn2019;CDPCities2018;NAZCA,5,61.2163129,-149.8948522,301010,2010,Alaska,0,0,1,0,0,1,0,0,1,0,1,0,1
Ancona,ITA,City,Italy,Europe,124.84,km2,GlobalCovenantofMayors2019;Carbonn2019;EUCovenantofMayors2019;NAZCA,4,43.6170137,13.5170982,100507,,Ancona,0,0,0,1,0,0,0,1,1,0,1,0,0
Andalo,ITA,City,Italy,Europe,11.38,km2,EUCovenantofMayors2019;GlobalCovenantofMayors2019;NAZCA,3,46.16666667,11.00444444,1042,,Trento,0,0,0,0,0,0,0,1,1,0,1,0,0
Andalusia,ESP,Region,Spain,Europe,,"",Under2Coalition2019;CompactofStatesRegions2018;NAZCA,3,37.38333333,-5.983333333,8394426,2014,Andalusia,0,0,0,0,0,0,1,0,0,0,1,1,0
"Anderson, SC",USA,City,United States of America,North America,37.813854,km2,ClimateMayors;WeAreStillIn2019;WeAreStillIn2019,2,34.514444,-82.648889,27181,,South Carolina,0,0,0,0,0,1,0,0,0,0,0,0,1
Andilla,ESP,City,Spain,Europe,142.8,km2,GlobalCovenantofMayors2019;NAZCA,2,39.8357785,-0.8143659,400,2018,Valencia,0,0,0,0,0,0,0,0,1,0,1,0,0
Andora,ITA,City,Italy,Europe,31.8,km2,GlobalCovenantofMayors2019;EUCovenantofMayors2019;NAZCA,3,43.9519286,8.1456487,6767,,Savona,0,0,0,0,0,0,0,1,1,0,1,0,0
Andrano,ITA,City,Italy,Europe,15.71,km2,EUCovenantofMayors2019;GlobalCovenantofMayors2019;NAZCA,3,39.98333333,18.38333333,30997,2017,Lecce,0,0,0,0,0,0,0,1,1,0,1,0,0
Andratx,ESP,City,Spain,Europe,81.46,km2,EUCovenantofMayors2019;GlobalCovenantofMayors2019;NAZCA,3,39.57083333,2.421388889,12149,2018,Baleares,0,0,0,0,0,0,0,1,1,0,1,0,0
Andravida - Killini,GRC,City,Greece,Europe,355.5,km2,GlobalCovenantofMayors2019;NAZCA,2,37.968307,21.26082,26333,2011,West Greece,0,0,0,0,0,0,0,0,1,0,1,0,0
Andretta,ITA,City,Italy,Europe,43.65,km2,GlobalCovenantofMayors2019;NAZCA,2,40.940363,15.327022,2089,,Avellino,0,0,0,0,0,0,0,0,1,0,1,0,0
Andria,ITA,City,Italy,Europe,402.89,km2,GlobalCovenantofMayors2019;EUCovenantofMayors2019;NAZCA,3,41.227674,16.2947553,100217,,Barletta-Andria-Trani - Andria - Trani,0,0,0,0,0,0,0,1,1,0,1,0,0
Andrieseni,ROU,City,Romania,Europe,,"",GlobalCovenantofMayors2019;NAZCA,2,47.52795,27.285696,4420,2002,Ia<U+0219>i County,0,0,0,0,0,0,0,0,1,0,1,0,0
And<c3><ba>jar,ESP,City,Spain,Europe,9649,km2,EUCovenantofMayors2019;GlobalCovenantofMayors2019;NAZCA,3,38.03333333,-4.05,38769,2018,Jaén,0,0,0,0,0,0,0,1,1,0,1,0,0
Aneby,SWE,City,Sweden,Europe,3.37,km2,GlobalCovenantofMayors2019;NAZCA,2,57.838521,14.817802,6776,2010,Småland,0,0,0,0,0,0,0,0,1,0,1,0,0
An<c3><a9>ho,TGO,City,Togo,Sub-Saharan Africa,,"",GlobalCovenantofMayors2019;NAZCA,2,6.24081,1.63335,25000,,Maritime,0,0,0,0,0,0,0,0,1,0,1,0,0
Anela,ITA,City,Italy,Europe,36.89,km2,GlobalCovenantofMayors2019;EUCovenantofMayors2019;NAZCA,3,40.44176,9.057427,699,,Sassari,0,0,0,0,0,0,0,1,1,0,1,0,0
Anenii Noi,MDA,City,Moldova,Eastern Europe and Central Asia,,"",GlobalCovenantofMayors2019;EUCovenantofMayors2019;NAZCA,3,46.8808554,29.2227797,13856,2014,Anenii Noi District,0,0,0,0,0,0,0,1,1,0,1,0,0
Anento,ESP,City,Spain,Europe,21,km2,EUCovenantofMayors2019;GlobalCovenantofMayors2019;NAZCA,3,41.06666667,-1.333333333,133,2018,Aragon,0,0,0,0,0,0,0,1,1,0,1,0,0
Anfo,ITA,City,Italy,Europe,23.83,km2,EUCovenantofMayors2019;GlobalCovenantofMayors2019;NAZCA,3,45.76527778,10.49444444,434,,Lombardy,0,0,0,0,0,0,0,1,1,0,1,0,0
Angeles City,PHL,City,Philippines,East Asia and the Pacific,60.27,km2,GlobalCovenantofMayors2019;Carbonn2019;NAZCA,3,15.12611,120.59302,470282,,Pampanga,0,0,0,1,0,0,0,0,1,0,1,0,0
<c3><84>ngelholm,SWE,City,Sweden,Europe,12.83,km2,Carbonn2019,1,56.25,12.85,39612,2017,Skåne,0,0,0,1,0,0,0,0,0,0,0,0,0
Angera,ITA,City,Italy,Europe,17.72,km2,GlobalCovenantofMayors2019;EUCovenantofMayors2019;NAZCA,3,45.7721876,8.5751222,5694,,Varese,0,0,0,0,0,0,0,1,1,0,1,0,0
Angers Loire M<c3><a9>tropole,FRA,City,France,Europe,,"",GlobalCovenantofMayors2019;EUCovenantofMayors2019;NAZCA,3,47.4739884,-0.5515587,283000,,Pays de la Loire,0,0,0,0,0,0,0,1,1,0,1,0,0
Angiari,ITA,City,Italy,Europe,13.47,km2,EUCovenantofMayors2019;GlobalCovenantofMayors2019;NAZCA,3,45.21666667,11.28333333,2204,,Verona,0,0,0,0,0,0,0,1,1,0,1,0,0
Angl<c3><a8>s,ESP,City,Spain,Europe,16.3,km2,EUCovenantofMayors2019;GlobalCovenantofMayors2019;NAZCA,3,41.95,2.65,5500,2018,Girona,0,0,0,0,0,0,0,1,1,0,1,0,0
Angolo Terme,ITA,City,Italy,Europe,30.56,km2,GlobalCovenantofMayors2019;NAZCA,2,45.8910363,10.1460986,2459,,Brescia,0,0,0,0,0,0,0,0,1,0,1,0,0
Angossas,CMR,City,Cameroon,Sub-Saharan Africa,,"",GlobalCovenantofMayors2019;NAZCA,2,4.0756573,12.9885553,13605,,East Region,0,0,0,0,0,0,0,0,1,0,1,0,0
Angra dos Reis,BRA,City,Brazil,Latin America and Caribbean,816.3,km2,CDPCities2018,1,-22.9983,-44.2442,169.511,2010,Rio de Janeiro (State),0,0,1,0,0,0,0,0,0,0,0,0,0
Angri,ITA,City,Italy,Europe,13.77,km2,GlobalCovenantofMayors2019;EUCovenantofMayors2019;NAZCA,3,40.74271,14.571439,32675,,Salerno,0,0,0,0,0,0,0,1,1,0,1,0,0
Anguillara Sabazia,ITA,City,Italy,Europe,75.24,km2,GlobalCovenantofMayors2019;EUCovenantofMayors2019;NAZCA,3,42.08752,12.27667,18256,,Rome,0,0,0,0,0,0,0,1,1,0,1,0,0
Anguillara Veneta,ITA,City,Italy,Europe,21.67,km2,GlobalCovenantofMayors2019;EUCovenantofMayors2019;NAZCA,3,45.1393548,11.8877456,4512,,Padua,0,0,0,0,0,0,0,1,1,0,1,0,0
Aniene Green Net,ITA,City,Italy,Europe,,"",EUCovenantofMayors2019;GlobalCovenantofMayors2019,2,41.9589747,12.5660007,12140,,Lazio,0,0,0,0,0,0,0,1,1,0,0,0,0
"Ann Arbor, MI",USA,City,United States of America,North America,74.33,km2,Carbonn2019;GlobalCovenantofMayors2019;CDPCities2018;ClimateMayors;WeAreStillIn2019;WeAreStillIn2019;NAZCA,6,42.28138889,-83.74833333,1177700,2017,Michigan,0,0,1,1,0,1,0,0,1,0,1,0,1
Anna,ESP,City,Spain,Europe,18.6738279,km2,GlobalCovenantofMayors2019;NAZCA,2,39.0204311,-0.646136,2655,2010,Valencia,0,0,0,0,0,0,0,0,1,0,1,0,0
Annecy,FRA,City,France,Europe,,"",GlobalCovenantofMayors2019;EUCovenantofMayors2019;NAZCA,3,45.88975045,6.1354651,51119,,Haute-Savoie,0,0,0,0,0,0,0,1,1,0,1,0,0
Annemasse Les Voirons,FRA,City,France,Europe,73.69,km2,GlobalCovenantofMayors2019;NAZCA,2,46.21444,6.353056,29540,2014,Auvergne-Rhône-Alpes,0,0,0,0,0,0,0,0,1,0,1,0,0
Annicco,ITA,City,Italy,Europe,19.2,km2,GlobalCovenantofMayors2019;EUCovenantofMayors2019;NAZCA,3,45.244572,9.879466,2097,,Cremona,0,0,0,0,0,0,0,1,1,0,1,0,0
Annone di Brianza,ITA,City,Italy,Europe,5.98,km2,EUCovenantofMayors2019;GlobalCovenantofMayors2019;NAZCA,3,45.78333333,9.333333333,2296,,Lecco,0,0,0,0,0,0,0,1,1,0,1,0,0
Annone Veneto,ITA,City,Italy,Europe,25.94,km2,GlobalCovenantofMayors2019;EUCovenantofMayors2019;NAZCA,3,45.79551,12.68422,3984,,Venice,0,0,0,0,0,0,0,1,1,0,1,0,0
Anogia,GRC,City,Greece,Europe,102.6,km2,GlobalCovenantofMayors2019;EUCovenantofMayors2019;NAZCA,3,35.2907782,24.8824614,2507,2011,Crete,0,0,0,0,0,0,0,1,1,0,1,0,0
A<c3><b1>on De Moncayo,ESP,City,Spain,Europe,64.33,km2,GlobalCovenantofMayors2019;EUCovenantofMayors2019;NAZCA,3,41.778589,-1.7210175,208,2018,Aragon,0,0,0,0,0,0,0,1,1,0,1,0,0
Ans,BEL,City,Belgium,Europe,23.35,km2,GlobalCovenantofMayors2019;EUCovenantofMayors2019;NAZCA,3,50.6624326,5.5190612,28131,,Liège,0,0,0,0,0,0,0,1,1,0,1,0,0
Ansan,KOR,City,South Korea,East Asia and the Pacific,149.39,km2,Carbonn2019;GlobalCovenantofMayors2019;NAZCA,3,37.31666667,126.8333333,693546,2018,Gyeonggi-do,0,0,0,1,0,0,0,0,1,0,1,0,0
Antalya,TUR,City,Turkey,Eastern Europe and Central Asia,1417,km2,GlobalCovenantofMayors2019;EUCovenantofMayors2019;NAZCA,3,36.9008783,30.6937117,2043432,2014,Antalya,0,0,0,0,0,0,0,1,1,0,1,0,0
Antas de Almer<c3><ad>a,ESP,City,Spain,Europe,,"",GlobalCovenantofMayors2019;EUCovenantofMayors2019;NAZCA,3,37.245218,-1.918142,3223,,Almería,0,0,0,0,0,0,0,1,1,0,1,0,0
Antella,ESP,City,Spain,Europe,17.6,km2,GlobalCovenantofMayors2019;NAZCA,2,39.080713,-0.5909713,1343,2018,Valencia,0,0,0,0,0,0,0,0,1,0,1,0,0
Antequera,ESP,City,Spain,Europe,749.34,km2,GlobalCovenantofMayors2019;EUCovenantofMayors2019;NAZCA,3,37.0183652,-4.5596648,44032,2018,Málaga,0,0,0,0,0,0,0,1,1,0,1,0,0
Anthisnes,BEL,City,Belgium,Europe,37.08,km2,GlobalCovenantofMayors2019;NAZCA,2,50.481662,5.5225261,4119,,Liège,0,0,0,0,0,0,0,0,1,0,1,0,0
Antillo,ITA,City,Italy,Europe,43.64,km2,GlobalCovenantofMayors2019;EUCovenantofMayors2019;NAZCA,3,37.977262,15.244786,992,,Messina,0,0,0,0,0,0,0,1,1,0,1,0,0
"Antioch, CA",USA,City,United States of America,North America,75.32,km2,Carbonn2019,1,38.005,-121.8058333,108930,2010,California,0,0,0,1,0,0,0,0,0,0,0,0,0
Antoing,BEL,City,Belgium,Europe,31.13,km2,GlobalCovenantofMayors2019;NAZCA,2,50.56727,3.451391,7813,,Hainaut,0,0,0,0,0,0,0,0,1,0,1,0,0
Antonesti,MDA,City,Moldova,Eastern Europe and Central Asia,,"",GlobalCovenantofMayors2019;NAZCA,2,46.335302,28.216647,1042,2014,Cantemir District,0,0,0,0,0,0,0,0,1,0,1,0,0
Antrona Schieranco,ITA,City,Italy,Europe,100.18,km2,EUCovenantofMayors2019;GlobalCovenantofMayors2019;NAZCA,3,46.06666667,8.116666667,465,,Verbano-Cusio-Ossola,0,0,0,0,0,0,0,1,1,0,1,0,0
Antwerp,BEL,City,Belgium,Europe,204.51,km2,Carbonn2019;EUCovenantofMayors2019;GlobalCovenantofMayors2019;NAZCA,4,51.21777778,4.400277778,502604,,Antwerp Province,0,0,0,1,0,0,0,1,1,0,1,0,0
Antwerp Province,BEL,Region,Belgium,Europe,2867,km2,GlobalCovenantofMayors2019,1,51.2211097,4.3997081,1809412,,Antwerp Province,0,0,0,0,0,0,0,0,1,0,0,0,0
Anversa degli Abruzzi,ITA,City,Italy,Europe,32.43,km2,GlobalCovenantofMayors2019;EUCovenantofMayors2019;NAZCA,3,41.9940179,13.8040518,368,,Province of L'Aquila,0,0,0,0,0,0,0,1,1,0,1,0,0
Anyang,KOR,City,South Korea,East Asia and the Pacific,58.46,km2,Carbonn2019,1,37.38333333,126.9333333,614687,2016,Gyeonggi-do,0,0,0,1,0,0,0,0,0,0,0,0,0
Anyk<c5><a1>ciai,LTU,City,Lithuania,Europe,,"",EUCovenantofMayors2019;GlobalCovenantofMayors2019;NAZCA,3,55.53333333,25.1,32137,2011,Utena County,0,0,0,0,0,0,0,1,1,0,1,0,0
Anzi,ITA,City,Italy,Europe,43.65,km2,GlobalCovenantofMayors2019;EUCovenantofMayors2019;NAZCA,3,40.516615,15.924571,1811,,Basilicata,0,0,0,0,0,0,0,1,1,0,1,0,0
Anzola dell'Emilia,ITA,City,Italy,Europe,36.6,km2,GlobalCovenantofMayors2019;EUCovenantofMayors2019;NAZCA,3,44.546367,11.194608,11992,,Bologna,0,0,0,0,0,0,0,1,1,0,1,0,0
Aomori,JPN,City,Japan,East Asia and the Pacific,825,km2,Carbonn2019,1,40.82233333,140.7307222,298866,2017,Aomori Prefecture,0,0,0,1,0,0,0,0,0,0,0,0,0
Aomori Prefecture,JPN,Region,Japan,East Asia and the Pacific,9606.26,km2,Carbonn2019,1,40.82466667,140.7406389,1373164,,Aomori Prefecture,0,0,0,1,0,0,0,0,0,0,0,0,0
"Apalachicola, FL",USA,City,United States of America,North America,4.9986807,km2,WeAreStillIn2019;ClimateMayors;WeAreStillIn2019,2,29.72527778,-84.9925,2276,2010,Florida,0,0,0,0,0,1,0,0,0,0,0,0,1
Aparan,ARM,City,Armenia,Eastern Europe and Central Asia,3.5,km2,EUCovenantofMayors2019;GlobalCovenantofMayors2019;NAZCA,3,40.58911389,44.35721389,6500,,Aragatsotn,0,0,0,0,0,0,0,1,1,0,1,0,0
Aparecida,BRA,City,Brazil,Latin America and Caribbean,121.08,km2,CDPCities2018;GlobalCovenantofMayors2019;NAZCA,3,-20.7,-41.6667,36279,2017,São Paulo State,0,0,1,0,0,0,0,0,1,0,1,0,0
Aparecida de Goi<c3><a2>nia,BRA,City,Brazil,Latin America and Caribbean,290.1,km2,Carbonn2019;GlobalCovenantofMayors2019;CDPCities2018;NAZCA,4,-16.82277778,-49.22555556,521910,2018,Goiás,0,0,1,1,0,0,0,0,1,0,1,0,0
Apaseo el Grande,MEX,City,Mexico,Latin America and Caribbean,415.26,km2,GlobalCovenantofMayors2019;NAZCA,2,20.5455014,-100.6878411,92605,,Guanajuato,0,0,0,0,0,0,0,0,1,0,1,0,0
Apeldoorn,NLD,City,Netherlands,Europe,341.15,km2,GlobalCovenantofMayors2019;NAZCA,2,52.211157,5.969923,155730,,Gelderland,0,0,0,0,0,0,0,0,1,0,1,0,0
Apokoronou,GRC,City,Greece,Europe,315.5,km2,GlobalCovenantofMayors2019;EUCovenantofMayors2019;NAZCA,3,35.383333,24.2,12807,,Crete,0,0,0,0,0,0,0,1,1,0,1,0,0
Apollosa,ITA,City,Italy,Europe,21.12,km2,GlobalCovenantofMayors2019;NAZCA,2,41.092183,14.700951,2725,,Benevento,0,0,0,0,0,0,0,0,1,0,1,0,0
"Apopka, FL",USA,City,United States of America,North America,86.6610654,km2,GlobalCovenantofMayors2019;NAZCA,2,28.7414145,-81.5344293,47084,2010,Florida,0,0,0,0,0,0,0,0,1,0,1,0,0
Appignano,ITA,City,Italy,Europe,22.67,km2,EUCovenantofMayors2019;GlobalCovenantofMayors2019;NAZCA,3,43.4,13.2,4212,,Macerata,0,0,0,0,0,0,0,1,1,0,1,0,0
Aprica,ITA,City,Italy,Europe,20.37,km2,GlobalCovenantofMayors2019;EUCovenantofMayors2019;NAZCA,3,46.152697,10.151656,1576,,Sondrio,0,0,0,0,0,0,0,1,1,0,1,0,0
Apricale,ITA,City,Italy,Europe,19.94,km2,EUCovenantofMayors2019;GlobalCovenantofMayors2019;NAZCA,3,43.88333333,7.666666667,625,,Imperia,0,0,0,0,0,0,0,1,1,0,1,0,0
Aprigliano,ITA,City,Italy,Europe,122.43,km2,EUCovenantofMayors2019;GlobalCovenantofMayors2019;NAZCA,3,39.23333333,16.35,2714,,Cosenza,0,0,0,0,0,0,0,1,1,0,1,0,0
Aprilia,ITA,City,Italy,Europe,178.11,km2,EUCovenantofMayors2019;GlobalCovenantofMayors2019;NAZCA,3,41.58333333,12.65,70349,,Latina,0,0,0,0,0,0,0,1,1,0,1,0,0
Aqaba Special Economic Zone Authority,JOR,City,Jordan,Middle East and North Africa,,"",EUCovenantofMayors2019;NAZCA,2,29,35,118000,2005,Aqaba Qasabah District,0,0,0,0,0,0,0,1,0,0,1,0,0
Aquila,MEX,City,Mexico,Latin America and Caribbean,,"",GlobalCovenantofMayors2019;NAZCA,2,18.79577,-97.30922,1924,,Veracruz,0,0,0,0,0,0,0,0,1,0,1,0,0
Aquitaine,FRA,Region,France,Europe,41308,km2,Under2Coalition2019,1,44.58333333,0,3300000,2009,Aquitaine,0,0,0,0,0,0,0,0,0,0,0,1,0
Aracaju,BRA,City,Brazil,Latin America and Caribbean,1167.4,km2,CDPCities2018;GlobalCovenantofMayors2019;Carbonn2019;NAZCA,4,-10.9472,-37.0731,641523,2016,São Paulo State,0,0,1,1,0,0,0,0,1,0,1,0,0
Ara<c3><a7>atuba,BRA,City,Brazil,Latin America and Caribbean,1167.4,km2,CDPCities2018;NAZCA,2,-21.2089,-50.4328,194.874,2017,São Paulo State,0,0,1,0,0,0,0,0,0,0,1,0,0
Aracena,ESP,City,Spain,Europe,184,km2,EUCovenantofMayors2019;GlobalCovenantofMayors2019;NAZCA,3,37.89111111,-6.561111111,7612,2018,Huelva,0,0,0,0,0,0,0,1,1,0,1,0,0
Arad,ROU,City,Romania,Europe,46.18,km2,EUCovenantofMayors2019;GlobalCovenantofMayors2019;NAZCA,3,46.16666667,21.31666667,172827,,Arad,0,0,0,0,0,0,0,1,1,0,1,0,0
Aradeo,ITA,City,Italy,Europe,8.58,km2,EUCovenantofMayors2019;GlobalCovenantofMayors2019;NAZCA,3,40.13333333,18.13333333,9827,,Lecce,0,0,0,0,0,0,0,1,1,0,1,0,0
Aradippou,CYP,City,Cyprus,Europe,,"",GlobalCovenantofMayors2019;EUCovenantofMayors2019;NAZCA,3,34.9527866,33.5899733,19594,2011,Larnaka District,0,0,0,0,0,0,0,1,1,0,1,0,0
Aragona,ITA,City,Italy,Europe,74.7,km2,GlobalCovenantofMayors2019;NAZCA,2,37.4031776,13.6175534,9493,,Agrigento,0,0,0,0,0,0,0,0,1,0,1,0,0
Arahal,ESP,City,Spain,Europe,201.09,km2,EUCovenantofMayors2019;GlobalCovenantofMayors2019;NAZCA,3,37.25,-5.533333333,19585,2018,Seville,0,0,0,0,0,0,0,1,1,0,1,0,0
Arandas,MEX,City,Mexico,Latin America and Caribbean,,"",GlobalCovenantofMayors2019;NAZCA,2,20.70549,-102.345154,77116,2005,Jalisco,0,0,0,0,0,0,0,0,1,0,1,0,0
Aranjuez,ESP,City,Spain,Europe,201.11,km2,GlobalCovenantofMayors2019;EUCovenantofMayors2019;NAZCA,3,40.0322347,-3.6039678,58000,2018,Madrid,0,0,0,0,0,0,0,1,1,0,1,0,0
Araraquara,BRA,City,Brazil,Latin America and Caribbean,1004,km2,CDPCities2018,1,-21.7946,-48.1766,230.77,2017,São Paulo State,0,0,1,0,0,0,0,0,0,0,0,0,0
Ararat,ARM,City,Armenia,Eastern Europe and Central Asia,,"",Under2Coalition2019,1,40.0333333333333,44.3333333333333,260367,,Ararat,0,0,0,0,0,0,0,0,0,0,0,1,0
Aras De Los Olmos,ESP,City,Spain,Europe,76,km2,GlobalCovenantofMayors2019;NAZCA,2,39.9242294,-1.1332321,386,2018,Valencia,0,0,0,0,0,0,0,0,1,0,1,0,0
Arba Minch,ETH,City,Ethiopia,Sub-Saharan Africa,,"",GlobalCovenantofMayors2019;NAZCA,2,6.020605,37.564109,140000,2017,"Southern Nations, Nationalities, and Peoples",0,0,0,0,0,0,0,0,1,0,1,0,0
Arboleas,ESP,City,Spain,Europe,65,km2,EUCovenantofMayors2019;GlobalCovenantofMayors2019;NAZCA,3,37.35,-2.066666667,3904,2018,Almería,0,0,0,0,0,0,0,1,1,0,1,0,0
Arbol<c3><ad>,ESP,City,Spain,Europe,20.8,km2,GlobalCovenantofMayors2019;EUCovenantofMayors2019;NAZCA,3,41.2425941,0.9487676,110,2018,Tarragona,0,0,0,0,0,0,0,1,1,0,1,0,0
Arb<c3><ba>cies,ESP,City,Spain,Europe,86.2,km2,GlobalCovenantofMayors2019;EUCovenantofMayors2019;NAZCA,3,41.8160485,2.5140573,6713,2018,Girona,0,0,0,0,0,0,0,1,1,0,1,0,0
Arbus,ITA,City,Italy,Europe,269.12,km2,GlobalCovenantofMayors2019;NAZCA,2,39.525839,8.597831,6387,,South Sardinia,0,0,0,0,0,0,0,0,1,0,1,0,0
"Arcata, CA",USA,City,United States of America,North America,24.2682063,km2,WeAreStillIn2019;ClimateMayors;WeAreStillIn2019,2,40.86638889,-124.0827778,17974,2010,California,0,0,0,0,0,1,0,0,0,0,0,0,1
Arcene,ITA,City,Italy,Europe,4.35,km2,EUCovenantofMayors2019;GlobalCovenantofMayors2019;NAZCA,3,45.58333333,9.616666667,4767,,Bergamo,0,0,0,0,0,0,0,1,1,0,1,0,0
Archena,ESP,City,Spain,Europe,16.4,km2,GlobalCovenantofMayors2019;NAZCA,2,38.116774,-1.301143,19500,2018,Murcia,0,0,0,0,0,0,0,0,1,0,1,0,0
<c3><81>rchez,ESP,City,Spain,Europe,4.8,km2,EUCovenantofMayors2019;GlobalCovenantofMayors2019;NAZCA,3,36.83888889,-3.990555556,437,2018,Málaga,0,0,0,0,0,0,0,1,1,0,1,0,0
Archi,ITA,City,Italy,Europe,,"",GlobalCovenantofMayors2019;EUCovenantofMayors2019;NAZCA,3,42.089937,14.381217,2310,,Abruzzo,0,0,0,0,0,0,0,1,1,0,1,0,0
Archidona,ESP,City,Spain,Europe,185.59,km2,GlobalCovenantofMayors2019;EUCovenantofMayors2019;NAZCA,3,37.0949676,-4.3909773,8500,2018,Málaga,0,0,0,0,0,0,0,1,1,0,1,0,0
Archipi<c3><a9>lago de San Andr<c3><a9>s,COL,City,Colombia,Latin America and Caribbean,,"",CDPCities2018,1,12.5794,-81.6976,120000,2017,Archipiélago de San Andrés,0,0,1,0,0,0,0,0,0,0,0,0,0
Arco,ITA,City,Italy,Europe,,"",EUCovenantofMayors2019;GlobalCovenantofMayors2019;NAZCA,3,12.99,79.31388889,17322,2011,Trento,0,0,0,0,0,0,0,1,1,0,1,0,0
Arcola,ITA,City,Italy,Europe,5.17998,km2,GlobalCovenantofMayors2019;EUCovenantofMayors2019;NAZCA,3,44.1143821,9.9059673,9914,2010,La Spezia,0,0,0,0,0,0,0,1,1,0,1,0,0
Arcole,ITA,City,Italy,Europe,18.87,km2,GlobalCovenantofMayors2019;NAZCA,2,45.357317,11.28472,6263,,Verona,0,0,0,0,0,0,0,0,1,0,1,0,0
Arconate,ITA,City,Italy,Europe,8.42,km2,GlobalCovenantofMayors2019;EUCovenantofMayors2019;NAZCA,3,45.54197,8.848538,6679,,Lombardy,0,0,0,0,0,0,0,1,1,0,1,0,0
Arcore,ITA,City,Italy,Europe,9.25,km2,EUCovenantofMayors2019;GlobalCovenantofMayors2019;NAZCA,3,45.63333333,9.316666667,17838,,Monza Brianza,0,0,0,0,0,0,0,1,1,0,1,0,0
Arcos de la Frontera,ESP,City,Spain,Europe,527.54,km2,EUCovenantofMayors2019;GlobalCovenantofMayors2019;NAZCA,3,36.75,-5.8,29905,2018,Cádiz,0,0,0,0,0,0,0,1,1,0,1,0,0
Arcos de Valdevez,PRT,City,Portugal,Europe,447.6,km2,GlobalCovenantofMayors2019;EUCovenantofMayors2019;NAZCA,3,41.8471981,-8.4178819,22586,2011,Norte,0,0,0,0,0,0,0,1,1,0,1,0,0
Arcugnano,ITA,City,Italy,Europe,41.57,km2,GlobalCovenantofMayors2019;NAZCA,2,45.500612,11.535509,7024,,Vicenza,0,0,0,0,0,0,0,0,1,0,1,0,0
Ardales,ESP,City,Spain,Europe,106,km2,GlobalCovenantofMayors2019;EUCovenantofMayors2019;NAZCA,3,36.878757,-4.8464639,2600,2018,Asturias,0,0,0,0,0,0,0,1,1,0,1,0,0
Ardara,ITA,City,Italy,Europe,38.19,km2,EUCovenantofMayors2019;GlobalCovenantofMayors2019;NAZCA,3,40.62277778,8.811388889,810,,Sassari,0,0,0,0,0,0,0,1,1,0,1,0,0
Ardeh,LBN,City,Lebanon,Middle East and North Africa,,"",GlobalCovenantofMayors2019;NAZCA,2,34.4113373,35.919918,5000,,Zgharta District,0,0,0,0,0,0,0,0,1,0,1,0,0
"Arden, DE",USA,City,United States of America,North America,,"",WeAreStillIn2019,1,39.8091666666667,-75.4866666666667,448,,Delaware,0,0,0,0,0,0,0,0,0,0,0,0,1
Ardesio,ITA,City,Italy,Europe,54.44,km2,GlobalCovenantofMayors2019;NAZCA,2,45.9382,9.931005,1225,,Bergamo,0,0,0,0,0,0,0,0,1,0,1,0,0
Ardisa,ESP,City,Spain,Europe,27,km2,EUCovenantofMayors2019;GlobalCovenantofMayors2019;NAZCA,3,42.33305556,-1.266944444,85,2018,Aragon,0,0,0,0,0,0,0,1,1,0,1,0,0
"Ardsley, NY",USA,City,United States of America,North America,3.366987,km2,ClimateMayors,1,41.011389,-73.841389,4634,2010,New York,0,0,0,0,0,1,0,0,0,0,0,0,0
Area Adige Delta Po,ITA,City,Italy,Europe,,"",GlobalCovenantofMayors2019;EUCovenantofMayors2019,2,45.4708684,11.4963819,33013,,Venice,0,0,0,0,0,0,0,1,1,0,0,0,0
Area Alto Polesine,ITA,City,Italy,Europe,1789,km2,GlobalCovenantofMayors2019;EUCovenantofMayors2019,2,45.0827517,11.5689043,247164,,Venice,0,0,0,0,0,0,0,1,1,0,0,0,0
Area Rovigo Centrale,ITA,City,Italy,Europe,,"",EUCovenantofMayors2019;GlobalCovenantofMayors2019,2,45.067567,11.78711,59383,,Venice,0,0,0,0,0,0,0,1,1,0,0,0,0
Area San Pietro Di Feletto - Pieve Di Soligo - Refrontolo,ITA,City,Italy,Europe,,"",EUCovenantofMayors2019;GlobalCovenantofMayors2019,2,45.9041427,12.1185964,19257,,Venice,0,0,0,0,0,0,0,1,1,0,0,0,0
Areatza,ESP,City,Spain,Europe,9.1,km2,EUCovenantofMayors2019;Carbonn2019;GlobalCovenantofMayors2019;NAZCA,4,43.12083333,-2.769444444,1036,2018,Biscay,0,0,0,1,0,0,0,1,1,0,1,0,0
Arenales De San Gregorio,ESP,City,Spain,Europe,31.19,km2,EUCovenantofMayors2019;GlobalCovenantofMayors2019;NAZCA,3,39.30972222,-3.025555556,703,2018,Ciudad Real,0,0,0,0,0,0,0,1,1,0,1,0,0
Arenas,ESP,City,Spain,Europe,26.3,km2,EUCovenantofMayors2019;GlobalCovenantofMayors2019;NAZCA,3,36.81583333,-4.044722222,1411,2018,Cantabria,0,0,0,0,0,0,0,1,1,0,1,0,0
Arenas del Rey,ESP,City,Spain,Europe,116,km2,EUCovenantofMayors2019;GlobalCovenantofMayors2019;NAZCA,3,36.95777778,-3.899722222,2202,2018,Granada,0,0,0,0,0,0,0,1,1,0,1,0,0
Arendal,NOR,City,Norway,Europe,30.86,km2,CDPCities2018;Carbonn2019;GlobalCovenantofMayors2019;NAZCA,4,58.4618,8.77245,44630,2017,Aust-Agder,0,0,1,1,0,0,0,0,1,0,1,0,0
Arendonk,BEL,City,Belgium,Europe,55.38,km2,GlobalCovenantofMayors2019;EUCovenantofMayors2019;NAZCA,3,51.3202315,5.0864557,12894,,Antwerp Province,0,0,0,0,0,0,0,1,1,0,1,0,0
Arenys de Mar,ESP,City,Spain,Europe,6.8,km2,GlobalCovenantofMayors2019;EUCovenantofMayors2019;NAZCA,3,41.5797031,2.5491562,14685,2018,Barcelona Province,0,0,0,0,0,0,0,1,1,0,1,0,0
Arenys de Munt,ESP,City,Spain,Europe,21.3,km2,GlobalCovenantofMayors2019;EUCovenantofMayors2019;NAZCA,3,41.6095429,2.5400513,8192,2018,Barcelona Province,0,0,0,0,0,0,0,1,1,0,1,0,0
Arenzano,ITA,City,Italy,Europe,24.3,km2,GlobalCovenantofMayors2019;EUCovenantofMayors2019;NAZCA,3,44.4025183,8.6831317,11431,,Genoa,0,0,0,0,0,0,0,1,1,0,1,0,0
Arequipa,PER,City,Peru,Latin America and Caribbean,2923.53,km2,Carbonn2019;CDPCities2018,2,-16.38333333,-71.53333333,784651,2015,Arequipa,0,0,1,1,0,0,0,0,0,0,0,0,0
Arese,ITA,City,Italy,Europe,6.56,km2,EUCovenantofMayors2019;GlobalCovenantofMayors2019;NAZCA,3,45.55,9.066666667,19056,,Lombardy,0,0,0,0,0,0,0,1,1,0,1,0,0
Arezzo,ITA,City,Italy,Europe,384.7,km2,GlobalCovenantofMayors2019;EUCovenantofMayors2019;NAZCA,3,43.4640246,11.86046188,99434,,Arezzo,0,0,0,0,0,0,0,1,1,0,1,0,0
Arganda Del Rey,ESP,City,Spain,Europe,79.65,km2,GlobalCovenantofMayors2019;NAZCA,2,40.3007708,-3.4380687,56000,2018,Madrid,0,0,0,0,0,0,0,0,1,0,1,0,0
Argelaguer,ESP,City,Spain,Europe,12.56,ha,GlobalCovenantofMayors2019;EUCovenantofMayors2019;NAZCA,3,42.2161,2.641572,430,2018,Girona,0,0,0,0,0,0,0,1,1,0,1,0,0
Argen<c3><a7>ola,ESP,City,Spain,Europe,47.1,km2,EUCovenantofMayors2019;GlobalCovenantofMayors2019;NAZCA,3,41.59833333,1.443611111,250,2018,Barcelona Province,0,0,0,0,0,0,0,1,1,0,1,0,0
Argentona,ESP,City,Spain,Europe,25.4,km2,GlobalCovenantofMayors2019;EUCovenantofMayors2019;NAZCA,3,41.5554326,2.4002787,11944,2018,Barcelona Province,0,0,0,0,0,0,0,1,1,0,1,0,0
Argithea,GRC,City,Greece,Europe,372.9,km2,GlobalCovenantofMayors2019;NAZCA,2,39.355207,21.538589,6084,2011,Thessaly,0,0,0,0,0,0,0,0,1,0,1,0,0
Argos-Mykines,GRC,City,Greece,Europe,1002.5,km2,EUCovenantofMayors2019;GlobalCovenantofMayors2019;NAZCA,3,37.61666667,22.71666667,42022,2011,Peloponnese,0,0,0,0,0,0,0,1,1,0,1,0,0
Argos Orestiko,GRC,City,Greece,Europe,,"",GlobalCovenantofMayors2019;NAZCA,2,40.4531538,21.2598868,11802,2011,West Macedonia,0,0,0,0,0,0,0,0,1,0,1,0,0
Ari,ITA,City,Italy,Europe,,"",GlobalCovenantofMayors2019;EUCovenantofMayors2019;NAZCA,3,42.29234,14.263011,1319,,Chieti Province,0,0,0,0,0,0,0,1,1,0,1,0,0
Ariano Irpino,ITA,City,Italy,Europe,186.74,km2,GlobalCovenantofMayors2019;NAZCA,2,41.154893,15.092276,22517,,Avellino,0,0,0,0,0,0,0,0,1,0,1,0,0
Ariany,ESP,City,Spain,Europe,23.1286107,km2,GlobalCovenantofMayors2019;NAZCA,2,39.650895,3.112115,872,2018,Baleares,0,0,0,0,0,0,0,0,1,0,1,0,0
Arias,ARG,City,Argentina,Latin America and Caribbean,,"",GlobalCovenantofMayors2019;Carbonn2019;NAZCA,3,-33.6422087,-62.4038412,7075,,Córdoba,0,0,0,1,0,0,0,0,1,0,1,0,0
Ariccia,ITA,City,Italy,Europe,18.59,km2,GlobalCovenantofMayors2019;EUCovenantofMayors2019;NAZCA,3,41.720709,12.6713481,18381,,Rome,0,0,0,0,0,0,0,1,1,0,1,0,0
Arielli,ITA,City,Italy,Europe,11.72,km2,EUCovenantofMayors2019;GlobalCovenantofMayors2019;NAZCA,3,42.26666667,14.3,1250,,Chieti Province,0,0,0,0,0,0,0,1,1,0,1,0,0
Aristotle,GRC,City,Greece,Europe,,"",GlobalCovenantofMayors2019;NAZCA,2,40.470394,23.715681,18861,,Central Macedonia,0,0,0,0,0,0,0,0,1,0,1,0,0
Aritzo,ITA,City,Italy,Europe,75.58,km2,EUCovenantofMayors2019;GlobalCovenantofMayors2019;NAZCA,3,39.95,9.2,1331,,Nuoro,0,0,0,0,0,0,0,1,1,0,1,0,0
Arizona,USA,Region,United States of America,North America,,"",ClimateAlliance2019,1,34,-112,7016270,2017,Arizona,0,0,0,0,1,0,0,0,0,0,0,0,0
Arizzano,ITA,City,Italy,Europe,1.6,km2,EUCovenantofMayors2019;GlobalCovenantofMayors2019;NAZCA,3,45.96666667,8.583333333,2080,,Verbano-Cusio-Ossola,0,0,0,0,0,0,0,1,1,0,1,0,0
Arjeplogs,SWE,City,Sweden,Europe,2.29,km2,EUCovenantofMayors2019;GlobalCovenantofMayors2019;NAZCA,3,66.05,17.88333333,3069,2010,Norrbotten County,0,0,0,0,0,0,0,1,1,0,1,0,0
Arjona,ESP,City,Spain,Europe,154.45,km2,EUCovenantofMayors2019;GlobalCovenantofMayors2019;NAZCA,3,37.935,-4.056944444,5826,2018,Jaén,0,0,0,0,0,0,0,1,1,0,1,0,0
Arjonilla,ESP,City,Spain,Europe,42,km2,EUCovenantofMayors2019;GlobalCovenantofMayors2019;NAZCA,3,37.96666667,-4.1,3837,2018,Jaén,0,0,0,0,0,0,0,1,1,0,1,0,0
"Arlington County, VA",USA,City,United States of America,North America,70,km2,WeAreStillIn2019,1,38.880278,-77.108333,234965,,Virginia,0,0,0,0,0,0,0,0,0,0,0,0,1
"Arlington, MA",USA,City,United States of America,North America,25.1747028,km2,WeAreStillIn2019,1,48.18111111,-122.1388889,17926,,Massachusetts,0,0,0,0,0,0,0,0,0,0,0,0,1
"Arlington, VA",USA,City,United States of America,North America,2.7194895,km2,GlobalCovenantofMayors2019;CDPCities2018;NAZCA,3,38.8903961,-77.0841584,220400,2010,Iowa,0,0,1,0,0,0,0,0,1,0,1,0,0
Arlon,BEL,City,Belgium,Europe,118.64,km2,GlobalCovenantofMayors2019;NAZCA,2,49.68514,5.81048,28259,,Luxembourg,0,0,0,0,0,0,0,0,1,0,1,0,0
Arluno,ITA,City,Italy,Europe,12.36,km2,GlobalCovenantofMayors2019;EUCovenantofMayors2019;NAZCA,3,45.50507,8.941541,9815,,Lombardy,0,0,0,0,0,0,0,1,1,0,1,0,0
Armamar,PRT,City,Portugal,Europe,117.24,km2,EUCovenantofMayors2019;GlobalCovenantofMayors2019;NAZCA,3,41.10944444,-7.692222222,6258,2011,Norte,0,0,0,0,0,0,0,1,1,0,1,0,0
Armenia,COL,City,Colombia,Latin America and Caribbean,140,km2,Carbonn2019,1,40.18333333,44.51666667,296683,2016,Quindío,0,0,0,1,0,0,0,0,0,0,0,0,0
Armeno,ITA,City,Italy,Europe,31.52,km2,EUCovenantofMayors2019;GlobalCovenantofMayors2019;NAZCA,3,45.81666667,8.45,2226,,Novara,0,0,0,0,0,0,0,1,1,0,1,0,0
Armilla,ESP,City,Spain,Europe,,"",EUCovenantofMayors2019;GlobalCovenantofMayors2019;NAZCA,3,37,-3,15404,,Granada,0,0,0,0,0,0,0,1,1,0,1,0,0
Armstrong,ARG,City,Argentina,Latin America and Caribbean,,"",GlobalCovenantofMayors2019;Carbonn2019;NAZCA,3,-32.7862663,-61.6035038,11484,,Santa Fe,0,0,0,1,0,0,0,0,1,0,1,0,0
Armu<c3><b1>a de Almanzora,ESP,City,Spain,Europe,8,km2,GlobalCovenantofMayors2019;EUCovenantofMayors2019;NAZCA,3,37.3501535,-2.4151255,333,2018,Almería,0,0,0,0,0,0,0,1,1,0,1,0,0
Arnesano,ITA,City,Italy,Europe,13.56,km2,EUCovenantofMayors2019;GlobalCovenantofMayors2019;NAZCA,3,40.33333333,18.1,3981,,Lecce,0,0,0,0,0,0,0,1,1,0,1,0,0
Arnhem,NLD,City,Netherlands,Europe,101.54,km2,GlobalCovenantofMayors2019;NAZCA,2,52.0056642,5.876234508,149271,,Gelderland,0,0,0,0,0,0,0,0,1,0,1,0,0
Arnsberg,DEU,City,Germany,Europe,8002.34,km2,GlobalCovenantofMayors2019;NAZCA,2,51.4002384,8.0605908,73501,2017,North Rhine-Westphalia,0,0,0,0,0,0,0,0,1,0,1,0,0
