name,iso,entity_type,country,area,num_commit,lat,lng,population,population_year,state,admin_1,region,initiatives_committed
!Kheis,ZAF,City,South Africa,11107,2,-30.4620482,17.9929881,16637,2011,Northern Cape,,Sub-Saharan Africa,GlobalCovenantofMayors2019;NAZCA
25 De Mayo,ARG,City,Argentina,NA,2,-35.416667,-60.166667,23408,2010,Buenos Aires,Veinticinco de Mayo,Latin America and Caribbean,NAZCA2020;DDLNetZeroDB2020;RacetoZero2020ZCA2020
A BAÑA,ESP,City,Spain,98.63,NA,42.967,-8.767000000000001,3967,2018,A Coruña,A Coruña,Europe,EUCovenantofMayors2021
A Bola,ESP,City,Spain,34.9,3,42.15194444,-7.913888889,1339,2018,Cáceres,Terra de Celanova,Europe,EUCovenantofMayors2021;GCoM2021;GCoMHarmonized2021;GCoM2021
A Cañiza,ESP,City,Spain,108.1,NA,42.21278,-8.27444,5173,2018,Pontevedra,Pontevedra,Europe,EUCovenantofMayors2021
A Coruña,ESP,City,Spain,37.83,4,43.3712091,-8.3958767,247482,2018,NA,,Europe,EUCovenantofMayors2021;GCoM2021;GCoMHarmonized2021;GCoM2021
Å empeter-Vrtojba,SVN,City,Slovenia,15,3,45.916667,13.65,6269,NA,Šempeter–Vrtojba,,Europe,EUCovenantofMayors2021;GCoM2021;GCoMHarmonized2021;GCoM2021
A Estrada,ESP,City,Spain,NA,NA,42.7,-8.482999999999999,20661,2018,Pontevedra,Pontevedra,Europe,EUCovenantofMayors2021
A GUARDA,ESP,City,Spain,20.5,NA,41.90167,-8.87528,10013,2018,Pontevedra,Pontevedra,Europe,EUCovenantofMayors2021
A ILLA DE AROUSA,ESP,City,Spain,7,NA,42.55444,-8.86389,4958,2018,Pontevedra,Pontevedra,Europe,EUCovenantofMayors2021
A LARACHA,ESP,City,Spain,125.95,NA,43.24861,-8.58333,11302,2018,A Coruña,Carballo,Europe,EUCovenantofMayors2021
A MERCA,ESP,City,Spain,51,NA,42.22306,-7.90528,1911,2018,Ourense,Ourense,Europe,EUCovenantofMayors2021
A Mezquita,ESP,City,Spain,104.3,NA,42.011390000000006,-7.04528,1039,2018,Ourense,Ourense,Europe,EUCovenantofMayors2021
A Peroxa,ESP,City,Spain,54.5,NA,42.43889,-7.79333,1871,2018,Ourense,Ourense,Europe,EUCovenantofMayors2021
A Pobra de Trives,ESP,City,Spain,84.2,NA,42.33944,-7.2530600000000005,2118,2018,Ourense,Ourense,Europe,EUCovenantofMayors2021
A POBRA DO BROLLÓN,ESP,City,Spain,NA,NA,42.733000000000004,-7.3,1685,NA,NA,NA,Europe,EUCovenantofMayors2021
A POBRA DO CARAMIÑAL,ESP,City,Spain,NA,NA,42.6,-8.933,9390,NA,NA,NA,Europe,EUCovenantofMayors2021
A PONTENOVA,ESP,City,Spain,82.16,NA,43.3617,-7.1083,2283,2018,Asturias,Asturias,Europe,EUCovenantofMayors2021
A RÚA,ESP,City,Spain,35.9,NA,42.4,-7.1,4359,2018,Ourense,Ourense,Europe,EUCovenantofMayors2021
A TEIXEIRA,ESP,City,Spain,27.6,NA,42.39167,-7.47417,332,2018,Ourense,Ourense,Europe,EUCovenantofMayors2021
Aabenraa,DNK,City,Denmark,9.69,NA,55.033,9.433,16425,2020,South Denmark Region,NA,Europe,c40_s_deadline_2020;DDLNetZeroDB2020;RacetoZero
Aachen,DEU,City,Germany,160.85,3,50.776351,6.083862,244509,NA,North Rhine-Westphalia,NA,Europe,EUCovenantofMayors2021;GCoM2021;GCoMHarmonized2021;GCoM2021
Aalborg,DNK,City,Denmark,139,3,57.05,9.916666667,140897,2019,North Denmark Region,NA,Europe,EUCovenantofMayors2021;GCoM2021;GCoMHarmonized2021;GCoM2021
Aalst,BEL,City,Belgium,78.12,3,50.93333333,4.033333333,83267,NA,East Flanders,NA,Europe,EUCovenantofMayors2021;GCoM2021
Aalter,BEL,City,Belgium,81.92,NA,51.083,3.45,28906,NA,East Flanders,Ghent,Europe,EUCovenantofMayors2021
Aarhus,DNK,City,Denmark,468,2,56.1496278,10.2134046,305000,2018,Central Denmark Region,NA,Europe,EUCovenantofMayors2021;GCoM2021;RacetoZero2020;GCoMHarmonized2021;GCoM2021;RacetoZero2020
Aarschot,BEL,City,Belgium,62.52,3,50.9855815,4.834949915,28760,NA,Flemish Brabant,Leuven,Europe,EUCovenantofMayors2021;GCoM2021;GCoMHarmonized2021;GCoM2021
Abaetetuba,BRA,City,Brazil,430.9,2,-1.72509,-48.889938,153553,NA,Pará,,Latin America and Caribbean,GlobalCovenantofMayors2019;NAZCA
Abaigar,ESP,City,Spain,4.86,NA,42.65,-2.18306,87,2018,NA,Navarra,Europe,EUCovenantofMayors2021
Abanilla,ESP,City,Spain,236.6,2,38.205181,-1.04066,6500,2018,Murcia,Comarca Oriental,Europe,GlobalCovenantofMayors2019;NAZCA
Abano Terme,ITA,City,Italy,21.41,3,45.36027778,11.79,18206,NA,Padua,,Europe,EUCovenantofMayors2021;GCoM2021;GCoMHarmonized2021;GCoM2021
Abanto-Zierbena,ESP,City,Spain,18.03,3,43.31184035,-3.089286215,9724,2018,Biscay,Greater Bilbao,Europe,EUCovenantofMayors2021;GCoM2021;GCoMHarmonized2021;GCoM2021
Abarán,ESP,City,Spain,115,3,38.2,-1.4,13110,2018,Murcia,Santiago,Europe,EUCovenantofMayors2021;GCoM2021;GCoMHarmonized2021;GCoM2021
Abarzuza,ESP,City,Spain,23.02,NA,42.72639,-2.0225,550,2018,NA,Navarra,Europe,EUCovenantofMayors2021
Abasan Al-Kabira,PSE,City,Palestine,NA,5,31.3238491,34.3497101,32000,2017,State of Palestine,Khan Yunis,Middle East and North Africa,CDPCities2020;GCoM2021;EUCovenantofMayors2021;GCoM2021;GCoMHarmonized2021;GCoM2021
Abbadia Lariana,ITA,City,Italy,16.67,3,45.9,9.333333333,3249,NA,Lecco,,Europe,EUCovenantofMayors2021;GCoM2021;GCoMHarmonized2021;GCoM2021
Abbasanta,ITA,City,Italy,39.85,NA,40.117,8.817,2872,NA,Oristano,Oristano,Europe,EUCovenantofMayors2021;GCoM2021
Abbateggio,ITA,City,Italy,15.4,3,42.23333333,14.01666667,443,NA,Pescara,,Europe,EUCovenantofMayors2021;GCoM2021;GCoMHarmonized2021;GCoM2021
Abbiategrasso,ITA,City,Italy,47.78,3,45.400767,8.918542,30000,NA,Lombardy,Milan,Europe,EUCovenantofMayors2021;GCoM2021;GCoMHarmonized2021;GCoM2021
Abéché,TCD,City,Chad,NA,2,13.835912,20.843371,200000,2012,Ouaddaï Region,NA,Sub-Saharan Africa,GlobalCovenantofMayors2019;NAZCA
Abegondo,ESP,City,Spain,83.81,2,43.21912,-8.297905,7509,2018,A Coruña,,Europe,EUCovenantofMayors2021;GCoM2021
Abegondo,ESP,Region,Spain,83.81,NA,43.20667,-8.31,5454,2018,A Coruña,A Coruña,Europe,EUCovenantofMayors2021;GCoM2021
Aberdeen,GBR,City,United Kingdom,NA,3,57.1452452,-2.0913744,213810,NA,Scotland,United Kingdom,Europe,EUCovenantofMayors2021;GCoM2021;GCoMHarmonized2021;GCoM2021
Aberdeenshire,GBR,Region,United Kingdom,6313,1,57.16666667,-2.666666667,243510,NA,NA,,Europe,EUCovenantofMayors2021;GCoM2021
Aberin,ESP,City,Spain,21.25,NA,42.617,-2,356,2018,NA,Navarre,Europe,EUCovenantofMayors2021
Abertura,ESP,City,Spain,NA,2,39.24395,-5.8147,456,NA,Cáceres,,Europe,EUCovenantofMayors2021;GCoM2021
Abidjan,CIV,City,Cote d'Ivoire,422,3,5.316666667,-4.033333333,3677115,NA,NA,,Sub-Saharan Africa,CDPCities2020;GCoM2021;C40Cities2021;RacetoZero2020
Abiko,JPN,City,Japan,43.19,1,35.866667,140.033333,132999,2012,Kantō,Chiba Prefecture,East Asia and the Pacific,JapanMOEZeroCarbonCities;DDLNetZeroDB2020;JapanMOEZeroCarbonCities
"Abington, MA",USA,City,United States of America,9.9,NA,42.10472,-70.94583,15985,2010,Massachusetts,Plymouth,North America,CDPCities2020
"Abington, PA",USA,City,United States of America,25.122903,1,40.1241,-75.1195,55310,2010,Pennsylvania,"Montgomery County, PA",North America,CDPCities2018
Abla,ESP,City,Spain,45.24,3,37.1416926,-2.7792317,1505,2018,Almería,,Europe,EUCovenantofMayors2021;GCoM2021;GCoMHarmonized2021;GCoM2021
Ablitas,ESP,City,Spain,7748,NA,41.967,-1.633,2483,2018,NA,Navarre,Europe,EUCovenantofMayors2021
Aboisso,CIV,City,Cote d'Ivoire,NA,2,5.474511,-3.203076,63332,2014,Comoé,Sud-Comoe,Sub-Saharan Africa,GlobalCovenantofMayors2019;NAZCA
Abovyan,ARM,City,Armenia,11,NA,40.27389,44.62556,43495,2011,NA,Kotayk,Eastern Europe and Central Asia,EUCovenantofMayors2021
Abrantes,PRT,City,Portugal,714.69,3,39.440102950000004,-8.128236307,19132,2011,Centro,Santarém,Europe,EUCovenantofMayors2021;GCoM2021;GCoMHarmonized2021;GCoM2021
Abrera,ESP,City,Spain,19.9,3,41.51666667,1.9,11521,2018,Barcelona Province,Baix Llobregat,Europe,EUCovenantofMayors2021;GCoM2021;GCoMHarmonized2021;GCoM2021
Abriola,ITA,City,Italy,97.19,3,40.5078822,15.8137603,1617,NA,Potenza,,Europe,EUCovenantofMayors2021;GCoM2021;GCoMHarmonized2021;GCoM2021
Abrucena,ESP,City,Spain,83,3,37.1332098,-2.7974819,1358,2018,Almería,,Europe,EUCovenantofMayors2021;GCoM2021;GCoMHarmonized2021;GCoM2021
Abruzzo,ITA,Region,Italy,10763,2,42.36611111,12.39444444,1326513,2016,NA,,Europe,CDPStates&Regions2020;Under2Coalition2021;Under2Coalition2020
Abuja,NGA,City,Nigeria,1769,1,9.07647,7.39857,2440000,2017,Federal Capital Territory,,Sub-Saharan Africa,CDPCities2020
Aburrá Valley,COL,City,Colombia,1152,2,6,-75,3591963,NA,Antioquia,,Latin America and Caribbean,Carbonn2019;NAZCA
Acate,ITA,City,Italy,102.47,3,37.03388889,14.49416667,10432,NA,Ragusa,,Europe,EUCovenantofMayors2021;GCoM2021;GCoMHarmonized2021;GCoM2021
Accadia,ITA,City,Italy,30.74,3,41.16666667,15.33333333,2470,NA,Foggia,,Europe,EUCovenantofMayors2021;GCoM2021;GCoMHarmonized2021;GCoM2021
Accettura,ITA,City,Italy,90.37,3,40.48333333,16.15,2020,NA,Matera,,Europe,EUCovenantofMayors2021;GCoM2021;GCoMHarmonized2021;GCoM2021
Acciano,ITA,City,Italy,32.22,3,42.18333333,13.73333333,339,NA,Province of L'Aquila,,Europe,EUCovenantofMayors2021;GCoM2021;GCoMHarmonized2021;GCoM2021
Accra,GHA,City,Ghana,225.67,4,5.5600141,-0.2057436,1986580,2017,Greater Accra Region,,Sub-Saharan Africa,CDPCities2020;C40Cities2020;GCoM2021;C40Cities2021;RacetoZero2020
Acered,ESP,City,Spain,30,3,41.1704796,-1.6042984,243,2018,Zaragoza,NA,Europe,EUCovenantofMayors2021;GCoM2021;GCoMHarmonized2021;GCoM2021
Acerenza,ITA,City,Italy,77.64,3,40.79690278,15.94068056,2623,NA,Potenza,,Europe,EUCovenantofMayors2021;GCoM2021;GCoMHarmonized2021;GCoM2021
Acharnes,GRC,City,Greece,149.96,2,38.08522,23.738064,80121,2011,Attica,East Attica,Europe,EUCovenantofMayors2021;GCoM2021
Aci Bonaccorsi,ITA,City,Italy,1.72,2,37.595517,15.109543,3272,NA,Sicily,Catania,Europe,EUCovenantofMayors2021;GCoM2021;GCoMHarmonized2021;GCoM2021
Aci Castello,ITA,City,Italy,8.71,3,37.5542111,15.14856,18080,NA,Catania,,Europe,EUCovenantofMayors2021;GCoM2021;GCoMHarmonized2021;GCoM2021
Aci Catena,ITA,City,Italy,8.53,2,37.606435,15.141924,29662,NA,Sicily,Catania,Europe,EUCovenantofMayors2021;GCoM2021;GCoMHarmonized2021;GCoM2021
Aci Sant'Antonio,ITA,City,Italy,14.3,NA,37.6,15.117,18054,NA,NA,Catania,Europe,EUCovenantofMayors2021;GCoM2021;GCoMHarmonized2021;GCoM2021
Acigné,FRA,City,France,NA,2,48.13368,-1.53385,5246,2016,Brittany,Liffré,Europe,GlobalCovenantofMayors2019;NAZCA
Acireale,ITA,City,Italy,40.43,3,37.6127773,15.1658804,53122,NA,Catania,,Europe,EUCovenantofMayors2021;GCoM2021;GCoMHarmonized2021;GCoM2021
Acquanegra sul Chiese,ITA,City,Italy,28.01,3,45.16666667,10.43333333,3016,2017,Mantua,,Europe,EUCovenantofMayors2021;GCoM2021;GCoMHarmonized2021;GCoM2021
Acquapendente,ITA,City,Italy,131.61,2,42.747723,11.86302,5619,NA,Viterbo,,Europe,EUCovenantofMayors2021;GCoM2021
Acquappesa,ITA,City,Italy,14.45,3,39.5,15.95,1882,NA,Cosenza,,Europe,EUCovenantofMayors2021;GCoM2021;GCoMHarmonized2021;GCoM2021
Acquarica del capo,ITA,City,Italy,18.7,2,39.907845,18.231821,4951,NA,Lecce,,Europe,GlobalCovenantofMayors2019;NAZCA
Acquaviva Collecroce,ITA,City,Italy,28.6,3,41.86666667,14.75,674,NA,Campobasso,,Europe,EUCovenantofMayors2021;GCoM2021;GCoMHarmonized2021;GCoM2021
Acquaviva delle Fonti,ITA,City,Italy,132.03,3,40.9,16.85,21000,NA,Bari,,Europe,EUCovenantofMayors2021;GCoM2021;GCoMHarmonized2021;GCoM2021
Acquaviva Platani,ITA,City,Italy,14.63,3,37.56666667,13.7,1033,NA,Caltanissetta,,Europe,EUCovenantofMayors2021;GCoM2021;GCoMHarmonized2021;GCoM2021
Acquedolci,ITA,City,Italy,12.93,2,38.05,14.58333333,5500,2015,Messina,,Europe,EUCovenantofMayors2021;GCoM2021;GCoMHarmonized2021;GCoM2021
Acqui Terme,ITA,City,Italy,33.42,NA,44.683,8.467,19961,2017,Piedmont,Alessandria,Europe,Race to Zero
Acre,BRA,Region,Brazil,152581,2,-9.116666667,-70.51666667,790101,2014,NA,,Latin America and Caribbean,CDPStates&Regions2020;Under2Coalition2021;Under2Coalition2020
Acri,ITA,City,Italy,200.63,2,39.488691,16.382857,21195,NA,Cosenza,,Europe,GlobalCovenantofMayors2019;NAZCA
Ács,HUN,City,Hungary,103.83,NA,47.71,18.016,7260,2004,Komárom-Esztergom,Komárom,Europe,EUCovenantofMayors2021;GCoM2021
Ácsteszér,HUN,City,Hungary,17.73,NA,47.40891,18.00604,767,2004,Komárom-Esztergom,Komárom-Esztergom,Europe,EUCovenantofMayors2021;GCoM2021
"Acton, MA",USA,City,United States of America,NA,1,42.485,-71.43333333,219292,NA,Massachusetts,"Middlesex County, MA",North America,WeAreStillIn2019
Adachi,JPN,City,Japan,53,1,35.78333333,139.8,669143,2015,Tokyo Metropolis,Tokyo,East Asia and the Pacific,Carbonn2019;Carbonn2019;Carbonn2019
"Adams County, CO",USA,City,United States of America,NA,1,38.79388889,-83.54361111,45913,2017,Colorado,,North America,Carbonn2019
"Adams, MA",USA,City,United States of America,59.310771,2,39.839827,-104.193092,498187,2010,Massachusetts,"Berkshire County, MA",North America,GlobalCovenantofMayors2019;NAZCA
Adamuz,ESP,City,Spain,334,3,38.01666667,-4.516666667,4476,2018,Córdoba,Alto Guadalquivir,Europe,EUCovenantofMayors2021;GCoM2021;GCoMHarmonized2021;GCoM2021
Adana,TUR,City,Turkey,1945,NA,37,35.321329999999996,1768860,2019,Adana,Adana,Eastern Europe and Central Asia,CDPCities2020
Addis Ababa,ETH,City,Ethiopia,527,4,9.03,38.74,3103374,2013,NA,Ethiopia,Sub-Saharan Africa,CDPCities2020;C40Cities2020;GCoM2021;C40Cities2021;RacetoZero2020
Adeje,ESP,City,Spain,105.95,2,28.1219416,-16.7241892,46667,2018,Santa Cruz de Tenerife,Tenerife,Europe,EUCovenantofMayors2021;GCoM2021
Adelaide,AUS,City,Australia,3257.7,4,-34.92888889,138.6011111,23916,2017,South Australia,,East Asia and the Pacific,CDPCities2020;GCoM2021
Ademuz,ESP,City,Spain,100.42,2,40.0632676,-1.2862303,1092,2018,Valencia,Rincón de Ademuz,Europe,EUCovenantofMayors2021;GCoM2021
Adjud,ROU,City,Romania,59.1,2,46.096196,27.18219,17585,2011,Vrancea County,Vrancea,Europe,GlobalCovenantofMayors2019;NAZCA
Administration commmunale de Seneffe,BEL,City,Belgium,NA,2,50.52964,4.256984,11161,NA,Wallonia,Charleroi,Europe,EUCovenantofMayors2021;GCoM2021
Administration communale d'Estinnes,BEL,City,Belgium,NA,2,50.516667,4.25,2475,2018,Wallonia,Thuin,Europe,EUCovenantofMayors2021;GCoM2021
Administration Communale de Tellin,BEL,City,Belgium,56.64,3,50.081667,5.218333,2468,NA,Luxembourg,Neufchâteau,Europe,EUCovenantofMayors2021;GCoM2021
Ador,ESP,City,Spain,13.8,2,38.9177071,-0.2249926,1374,2018,Valencia,Safor,Europe,EUCovenantofMayors2021;GCoM2021
Adra,ESP,City,Spain,83.22,3,37.66666667,14.83333333,23195,NA,Almería,,Europe,EUCovenantofMayors2021;GCoM2021;GCoMHarmonized2021;GCoM2021
Adrano,ITA,City,Italy,83.22,3,37.661966,14.8333672,35519,NA,Catania,,Europe,EUCovenantofMayors2021;GCoM2021;GCoMHarmonized2021;GCoM2021
Ærø,DNK,City,Denmark,NA,4,54.8914,10.4047,5956,2020,South Denmark Region,Southern Denmark,Europe,CDPCities2020;GCoM2021;EUCovenantofMayors2021;GCoM2021;GCoMHarmonized2021;GCoM2021
Affi,ITA,City,Italy,9.88,3,45.5540914,10.7764241,1942,NA,Verona,,Europe,EUCovenantofMayors2021;GCoM2021;GCoMHarmonized2021;GCoM2021
Affligem,BEL,City,Belgium,17.7,NA,50.9,4.1,13351,NA,Flemish Brabant,Halle-Vilvoorde,Europe,EUCovenantofMayors2021
Afragola,ITA,City,Italy,17.91,2,40.923039,14.309304,63674,NA,Naples,,Europe,EUCovenantofMayors2021;GCoM2021
Agadir,MAR,City,Morocco,NA,3,30.43333333,-9.6,450000,2014,Agadir-Ida Ou Tanane,,Middle East and North Africa,EUCovenantofMayors2021;GCoM2021;GCoMHarmonized2021;GCoM2021
Agaete,ESP,City,Spain,45.5,2,28.100259,-15.699674,5558,2018,Las Palmas,Gran Canaria,Europe,EUCovenantofMayors2021;GCoM2021
Agência de energia MédioTejo21,PRT,City,Portugal,NA,2,39.53604175,-8.332223294,219465,NA,Santarém,,Europe,EUCovenantofMayors2021;GCoMHarmonized2021
Àger,ESP,City,Spain,160.6,3,42.0000879,0.7632247,590,2018,Lleida,Noguera,Europe,EUCovenantofMayors2021;GCoM2021;GCoMHarmonized2021;GCoM2021
Agerola,ITA,City,Italy,19.83,3,40.637707,14.538839,7500,NA,Naples,,Europe,EUCovenantofMayors2021;GCoM2021;GCoMHarmonized2021;GCoM2021
Aggregazione BERNEZZO,ITA,City,Italy,25.9,2,44.3886068,7.4332093,5631,2017,Cuneo,,Europe,EUCovenantofMayors2021;GCoMHarmonized2021
Aggregazione Castelletto Stura,ITA,City,Italy,NA,2,44.4417886,7.638649,9322,NA,Cuneo,,Europe,EUCovenantofMayors2021;GCoMHarmonized2021
Aggregazione Ceva,ITA,City,Italy,NA,2,44.386254,8.029079,6678,NA,Cuneo,,Europe,EUCovenantofMayors2021;GCoMHarmonized2021
Aggregazione Diano D'alba,ITA,City,Italy,NA,2,44.6515358,8.0252513,5643,NA,Cuneo,,Europe,EUCovenantofMayors2021;GCoMHarmonized2021
Aggregazione Dro-Roc-Vil,ITA,City,Italy,27,2,45.961111,10.911111,4030,NA,Trento,,Europe,EUCovenantofMayors2021;GCoMHarmonized2021
Aggregazione Garessio,ITA,City,Italy,NA,2,44.202931,8.0192528,5155,NA,Cuneo,,Europe,EUCovenantofMayors2021;GCoMHarmonized2021
Aggregazione Genola,ITA,City,Italy,NA,2,44.588936,7.66453,2661,NA,Cuneo,,Europe,EUCovenantofMayors2021;GCoMHarmonized2021
Aggregazione MARENE,ITA,City,Italy,29,2,44.6615577,7.7270091,5359,NA,Cuneo,,Europe,EUCovenantofMayors2021;GCoMHarmonized2021
Aggregazione Monta' - Corneliano d'Alba,ITA,City,Italy,10.3,NA,44.733000000000004,7.95,6776,2004,Province of Cuneo,Province of Cuneo,Europe,EUCovenantofMayors2021
Aggregazione Niella Belbo,ITA,City,Italy,NA,2,44.51376,8.08048,7835,NA,Cuneo,,Europe,EUCovenantofMayors2021;GCoMHarmonized2021
Aggregazione Robilante-Roccavione,ITA,City,Italy,NA,2,44.2945397,7.509191,5203,NA,Cuneo,,Europe,EUCovenantofMayors2021;GCoMHarmonized2021
Aggregazione Saliceto,ITA,City,Italy,NA,2,44.41439,8.16987,5018,NA,Cuneo,,Europe,EUCovenantofMayors2021;GCoMHarmonized2021
Aggregazione Sommariva del Bosco,ITA,City,Italy,35.6,2,44.768741,7.78533,21367,NA,Cuneo,,Europe,EUCovenantofMayors2021
Aggregazione Vicoforte,ITA,City,Italy,NA,2,44.3744419,7.8725517,8567,NA,Cuneo,,Europe,EUCovenantofMayors2021;GCoMHarmonized2021
Aggregazione Villanova Mondovì,ITA,City,Italy,NA,1,44.348514,7.767477,10206,NA,Cuneo,,Europe,EUCovenantofMayors2021;GCoMHarmonized2021
Aghios Nikolaos,GRC,City,Greece,NA,3,36.8243276,22.2811442,27074,2011,Crete,,Europe,EUCovenantofMayors2021;GCoM2021;GCoMHarmonized2021;GCoM2021
Agia,GRC,City,Greece,NA,3,39.03333333,26.41666667,14121,NA,Nomos Larisis,,Europe,EUCovenantofMayors2021;GCoM2021;GCoMHarmonized2021;GCoM2021
Agia Paraskevi,GRC,City,Greece,7.935,3,39.2475388,26.2711986,59704,2011,Attica,,Europe,EUCovenantofMayors2021;GCoM2021;GCoMHarmonized2021;GCoM2021
Agia Varvara,GRC,City,Greece,2.425,3,38,23.65,26490,2011,Attica,West Athens,Europe,EUCovenantofMayors2021;GCoM2021;GCoMHarmonized2021;GCoM2021
Agioi Anargyroi-Kamatero,GRC,City,Greece,9.15,3,38.03333333,23.71666667,55191,2011,Attica,West Athens,Europe,EUCovenantofMayors2021;GCoM2021;GCoMHarmonized2021;GCoM2021
Agios Athanasios,CYP,City,Cyprus,NA,3,34.7093395,33.0504749,15500,2011,Limassol District,Limassol,Europe,EUCovenantofMayors2021;GCoM2021;GCoMHarmonized2021;GCoM2021
Agios Dimitrios,GRC,City,Greece,4.949,4,37.93333333,23.73333333,70000,2011,Attica,South Athens,Europe,EUCovenantofMayors2021;GCoM2021;GCoMHarmonized2021;GCoM2021
Agios Ioannis Rentis,GRC,City,Greece,NA,NA,37.967,23.666999999999998,20000,2011,NA,Nikaia-Agios Ioannis Rentis,Europe,EUCovenantofMayors2021;GCoM2021
Agira,ITA,City,Italy,164.08,2,37.661603,14.51201,8500,NA,Enna,,Europe,EUCovenantofMayors2021;GCoM2021
Aglandjia,CYP,City,Cyprus,NA,2,35.1523806,33.3977301,22000,2011,Nicosia District,Nicosia,Europe,GlobalCovenantofMayors2019;NAZCA
Agna,ITA,City,Italy,18.8,3,45.1702381,11.9603017,3405,NA,Parma,Padua,Europe,EUCovenantofMayors2021;GCoM2021;GCoMHarmonized2021;GCoM2021
Agnone,ITA,City,Italy,96.85,3,41.8095612,14.3770463,5253,NA,Isernia,,Europe,EUCovenantofMayors2021;GCoM2021;GCoMHarmonized2021;GCoM2021
Agnosine,ITA,City,Italy,13.55,3,45.65,10.35,1875,NA,Brescia,,Europe,EUCovenantofMayors2021;GCoM2021;GCoMHarmonized2021;GCoM2021
AGOLADA,ESP,City,Spain,147.8,NA,42.76222,-8.01972,2370,2018,Pontevedra,Pontevedra,Europe,EUCovenantofMayors2021
Agona East,GHA,City,Ghana,NA,2,5.603215,-0.791323,101522,NA,Central Region,,Sub-Saharan Africa,GlobalCovenantofMayors2019;NAZCA
Agost,ESP,City,Spain,66.64,3,38.436906,-0.6396686,4752,2018,Alicante,Campo de Alicante,Europe,EUCovenantofMayors2021;GCoM2021;GCoMHarmonized2021;GCoM2021
Agrafa,GRC,City,Greece,920.3,2,39.1359953,21.6494392,14365,2011,Central Greece,Evrytania,Europe,EUCovenantofMayors2021;GCoM2021;GCoMHarmonized2021;GCoM2021
Agramunt,ESP,City,Spain,79.6,3,41.7876693,1.0986828,5735,2018,Lleida,Urgell,Europe,EUCovenantofMayors2021;GCoM2021;GCoMHarmonized2021;GCoM2021
Agrate Brianza,ITA,City,Italy,11.22,3,45.58333333,9.35,15035,NA,Monza Brianza,Monza and Brianza,Europe,EUCovenantofMayors2021;GCoM2021;GCoMHarmonized2021;GCoM2021
Agres,ESP,City,Spain,25.8,3,38.7799007,-0.5157277,583,2018,Alicante,Comtat,Europe,EUCovenantofMayors2021;GCoM2021;GCoMHarmonized2021;GCoM2021
Agrigento,ITA,City,Italy,245.32,2,37.309407,13.585982,57000,NA,NA,,Europe,EUCovenantofMayors2021;GCoM2021
Agrinio,GRC,City,Greece,1229.33,2,38.6247709,21.4095037,92608,2011,West Greece,Aetolia-Acarnania,Europe,EUCovenantofMayors2021;GCoM2021;GCoMHarmonized2021;GCoM2021
Agrón,ESP,City,Spain,27,3,37.03,-3.829166667,342,2018,Granada,Comarca de Alhama,Europe,EUCovenantofMayors2021;GCoM2021;GCoMHarmonized2021;GCoM2021
Agropoli,ITA,City,Italy,32.77,2,40.346905,14.996553,35823,NA,Salerno,,Europe,EUCovenantofMayors2021;GCoMHarmonized2021
Agros,CYP,City,Cyprus,NA,3,34.916667,33.016667,804,2011,Limassol District,,Europe,EUCovenantofMayors2021;GCoM2021;GCoMHarmonized2021;GCoM2021
Aguadulce,ESP,City,Spain,50.4,3,37.25222,-4.9925,2169,2010,Almería,,Europe,EUCovenantofMayors2021;GCoM2021;GCoMHarmonized2021;GCoM2021
Águas da Prata,BRA,City,Brazil,143,NA,-21.94139,-46.71667,8221,2020,São Paulo,São Paulo,Latin America and Caribbean,CDPCities2020
Aguascalientes,MEX,City,Mexico,385,2,21.876,-102.296,934424,NA,NA,,Latin America and Caribbean,Carbonn2019;Under2Coalition2019
Águeda,PRT,City,Portugal,335.27,4,40.5753,-8.44582,47729,2011,Centro,Aveiro,Europe,CDPCities2020;CDPJRC2020;GCoM2021;CDPCities2020;GCoM2021;EUCovenantofMayors2021;GCoM2021;GCoMHarmonized2021;GCoM2021
Aguilar de Segarra,ESP,City,Spain,43.3,NA,41.74100000000001,1.632,277,2018,Barcelona,Barcelona,Europe,EUCovenantofMayors2021;GCoM2021
Águilas,ESP,City,Spain,251.77,3,37.4099628,-1.5804921,34828,2018,Murcia,Alto Guadalentín,Europe,EUCovenantofMayors2021;GCoM2021;GCoMHarmonized2021;GCoM2021
Agüimes,ESP,City,Spain,79.28,NA,27.9,-15.45,31242,2018,Las Palmas,Gran Canaria,Europe,EUCovenantofMayors2021
Agullana,ESP,City,Spain,27.7,3,42.4,2.85,900,2018,Girona,Alt Empordà,Europe,EUCovenantofMayors2021;GCoM2021;GCoMHarmonized2021;GCoM2021
Agullent,ESP,City,Spain,16.2,2,38.8233412,-0.5473744,2395,2018,Valencia,Vall d'Albaida,Europe,EUCovenantofMayors2021;GCoM2021
Ahillones,ESP,City,Spain,21.5,2,38.259139,-5.865061,1001,2018,Badajoz,Campiña Sur,Europe,EUCovenantofMayors2021;GCoM2021
Ahmedabad,IND,City,India,464,1,23.03333333,72.58333333,5570585,2011,Gujarat,NA,South Asia,CDPCities2020
Aibar / Oibar,ESP,City,Spain,NA,NA,42.6,-1.35,805,NA,NA,NA,Europe,EUCovenantofMayors2021
Aichi Prefecture,JPN,Region,Japan,5165,1,35.18018889,136.9135083,7507553,2016,NA,,East Asia and the Pacific,JapanPrefectureSites2021
Aicurzio,ITA,City,Italy,2.47,3,45.63333333,9.416666667,2087,NA,Monza Brianza,Monza and Brianza,Europe,EUCovenantofMayors2021;GCoM2021;GCoMHarmonized2021;GCoM2021
Aidomaggiore,ITA,City,Italy,41.21,NA,40.167,8.85,480,NA,Oristano,Oristano,Europe,EUCovenantofMayors2021;GCoM2021
Aidone,ITA,City,Italy,210.78,2,37.415915,14.445496,5023,NA,Enna,,Europe,EUCovenantofMayors2021;GCoM2021
Aielli,ITA,City,Italy,37.52,3,42.08083,13.590599,1448,NA,Province of L'Aquila,L'Aquila,Europe,EUCovenantofMayors2021;GCoM2021;GCoMHarmonized2021;GCoM2021
Aiello Calabro,ITA,City,Italy,38.51,3,39.1174689,16.1666633,2017,NA,Cosenza,,Europe,EUCovenantofMayors2021;GCoM2021;GCoMHarmonized2021;GCoM2021
Aiello del Sabato,ITA,City,Italy,10.87,2,40.884294,14.816278,4050,2017,Avellino,,Europe,EUCovenantofMayors2021;GCoM2021
AIELO DE MALFERIT,ESP,City,Spain,27,NA,38.87778,-0.5919399999999999,4646,2018,Valencia,Ontinyent,Europe,EUCovenantofMayors2021
Aielo De Rugat,ESP,City,Spain,7.66,2,38.8820867,-0.3442155,200,2018,Valencia,Vall d'Albaida,Europe,EUCovenantofMayors2021;GCoM2021
Aigaleo,GRC,City,Greece,6.45,3,37.9928313,23.68159021,120000,2011,Attica,West Athens,Europe,EUCovenantofMayors2021;GCoM2021;GCoMHarmonized2021;GCoM2021
Aigialeia,GRC,City,Greece,723.1,3,38.140844,22.25179945,49872,2011,West Greece,Achaea,Europe,EUCovenantofMayors2021;GCoM2021;GCoMHarmonized2021;GCoM2021
Aiguafreda,ESP,City,Spain,7.9,3,41.7692525,2.2517162,2505,2018,Barcelona Province,Vallès Oriental,Europe,EUCovenantofMayors2021;GCoM2021;GCoMHarmonized2021;GCoM2021
Aiguamúrcia,ESP,City,Spain,73.2,3,41.32888889,1.358888889,909,2018,Tarragona,Alt Camp,Europe,EUCovenantofMayors2021;GCoM2021;GCoMHarmonized2021;GCoM2021
Aiguaviva,ESP,City,Spain,13.9,3,41.9381188,2.7626201,765,2018,Girona,Gironès,Europe,EUCovenantofMayors2021;GCoM2021
Aigües,ESP,City,Spain,18.47,3,38.500265,-0.3634257,984,2018,Valencia,Alacantí,Europe,EUCovenantofMayors2021;GCoM2021;GCoMHarmonized2021;GCoM2021
Ailano,ITA,City,Italy,16.06,2,41.391372,14.207422,1384,NA,Caserta,,Europe,EUCovenantofMayors2021;GCoM2021
Ainzón,ESP,City,Spain,40,3,41.8160689,-1.5196969,1214,2018,Zaragoza,NA,Europe,EUCovenantofMayors2021;GCoM2021;GCoMHarmonized2021;GCoM2021
Aipromades Lago de Chapala,MEX,City,Mexico,385.58,2,20.305278,-103.184722,50738,NA,Jalisco,,Latin America and Caribbean,CDPCities2020;GCoM2021
Airasca,ITA,City,Italy,15.74,2,44.917111,7.489349,3808,NA,Cuneo,Turin,Europe,EUCovenantofMayors2021;GCoM2021
Airola,ITA,City,Italy,14.9,2,41.0610225,14.5584304,8140,NA,Benevento,,Europe,EUCovenantofMayors2021;GCoM2021
Airuno,ITA,City,Italy,4.29,3,45.75388,9.424247,2994,NA,Lecco,,Europe,EUCovenantofMayors2021;GCoM2021;GCoMHarmonized2021;GCoM2021
Aitona,ESP,City,Spain,66.9,2,41.4939531,0.4591083,2456,2018,Lleida,Segrià,Europe,EUCovenantofMayors2021;GCoM2021
Aiud,ROU,City,Romania,142.52,3,46.3108411,23.7188503,28934,2011,Alba County,Alba,Europe,EUCovenantofMayors2021;GCoM2021;GCoMHarmonized2021;GCoM2021
"Ajax, ON",CAN,City,Canada,67.07,2,43.8509,-79.0204,119677,2016,Ontario,"Durham, ON",North America,CDPCities2018
Ajuntament D'Argelaguer,ESP,City,Spain,NA,1,42,2.641429901,430,2015,Girona,Garrotxa,Europe,EUCovenantofMayors2019
Ajuntament d'Espinelves,ESP,City,Spain,17.4,NA,41.871109999999994,2.4180599999999997,206,2018,Girona,Girona,Europe,EUCovenantofMayors2021;GCoM2021
AJUNTAMENT DE PORTBOU,ESP,City,Spain,9.2,NA,42.42694,3.16111,1100,2018,Girona,Girona,Europe,EUCovenantofMayors2021;GCoMHarmonized2021
Ajuntament de Sant Agustí de Lluçanès,ESP,City,Spain,13.2,NA,42.086940000000006,2.12833,87,2018,Barcelona,Barcelona,Europe,NA
Ajuntament de Santa Maria d'Oló,ESP,City,Spain,66.2,NA,41.875,2.03611,1024,2018,Barcelona,Barcelona,Europe,NA
Ajuntament de Torrelavit,ESP,City,Spain,23.6,NA,41.44944,1.73,1430,2018,Barcelona,Barcelona,Europe,NA
Ajuntament de Vilobí del Penedès,ESP,City,Spain,9.3,NA,41.39056,1.6625,1106,2018,Barcelona,Barcelona,Europe,NA
AJUNTAMENT DES CASTELL,ESP,City,Spain,11.6,NA,39.88028,4.290830000000001,7348,2018,Balearic Islands,Menorca,Europe,EUCovenantofMayors2021
Aka,HUN,City,Hungary,18.1,NA,47.40207,18.07163,252,2015,Komárom-Esztergom,Komárom-Esztergom,Europe,EUCovenantofMayors2021;GCoM2021
Akashi,JPN,City,Japan,49,1,34.65,135,290776,2017,Hyogo Prefecture,,East Asia and the Pacific,NAZCA2020;DDLNetZeroDB2020;Carbonn2019;RacetoZero2020;JapanMOEZeroCarbonCities;DDLNetZeroDB2020;Carbonn2019;RacetoZero2020;Carbonn2019;Carbonn2019
Akatsi North,GHA,City,Ghana,NA,2,6.36419,0.85461,40738,NA,Volta,Akatsi South,Sub-Saharan Africa,GlobalCovenantofMayors2019;NAZCA
Akershus,NOR,City,Norway,4579,1,60,11,615000,2017,NA,Ås,Europe,CDPStates&Regions2018-19;DDLNetZeroDB2020;CDPStates&Regions2018-19
Akhaltsikhe,GEO,City,Georgia,NA,3,41.63888889,42.98611111,19200,2014,Samtskhe-Javakheti,,Eastern Europe and Central Asia,EUCovenantofMayors2021;GCoM2021;GCoMHarmonized2021;GCoM2021
Akhmeta,GEO,City,Georgia,NA,2,42.03852,45.206841,34154,NA,Kakheti,Georgia,Eastern Europe and Central Asia,EUCovenantofMayors2021;GCoM2021
Akhtala,ARM,City,Armenia,4.3,2,41.150494,44.763959,2753,NA,Lori,,Eastern Europe and Central Asia,EUCovenantofMayors2021;GCoM2021
Akita City,JPN,City,Japan,906,1,39.72002778,140.1025833,320909,2016,Akita Prefecture,,East Asia and the Pacific,Carbonn2019
Akita Prefecture,JPN,Region,Japan,11636,1,39.71861111,140.1025,1026983,NA,NA,,East Asia and the Pacific,JapanPrefectureSites2021
Akmene,LTU,City,Lithuania,NA,3,56.31666667,22.9,25729,2011,Šiauliai County,NA,Europe,EUCovenantofMayors2021;GCoM2021;GCoMHarmonized2021;GCoM2021
Aksakovo,BGR,City,Bulgaria,NA,3,43.2586259,27.8173611,8600,2009,Varna,,Europe,EUCovenantofMayors2021;GCoM2021;GCoMHarmonized2021;GCoM2021
Aksu,KAZ,City,Kazakhstan,NA,2,52.04072,76.93376,69354,NA,Tarbagatay District,Pavlodar Region,Eastern Europe and Central Asia,EUCovenantofMayors2021;GCoM2021
Akureyri,ISL,City,Iceland,138,3,65.6825696,-18.0913026,18340,2019,Northeastern Region,,Europe,CDPCities2020;GCoM2021;CDPCities2020;CDPJRC2020;GCoM2021
Al-Mafraq,JOR,City,Jordan,14,NA,32.339939,36.205166,580000,2017,NA,Mafraq Governorate,Middle East and North Africa,EUCovenantofMayors2021;GCoM2021
Al-Ram,PSE,City,Palestine,3289,NA,31.853609999999996,35.23333,55000,2006,Jerusalem,Jerusalem,Middle East and North Africa,EUCovenantofMayors2021;GCoM2021
Ala,ITA,City,Italy,119,NA,45.75833,11.005560000000001,8897,2017,Trentino,Trentino,Europe,EUCovenantofMayors2021
Aladren,ESP,City,Spain,21,3,41.249166,-1.1560465,67,2018,Zaragoza,Aladrén,Europe,EUCovenantofMayors2021;GCoM2021;GCoMHarmonized2021;GCoM2021
Alájar,ESP,City,Spain,41,3,37.8746137,-6.66506,802,2018,Huelva,Alajar,Europe,EUCovenantofMayors2021;GCoM2021;GCoMHarmonized2021;GCoM2021
Alajeró,ESP,City,Spain,49.43,NA,28.05,-17.21667,2264,2018,Santa Cruz de Tenerife,La Gomera,Europe,EUCovenantofMayors2021
Alajuela,CRI,City,Costa Rica,44.62,NA,9.933,-84.083,342188,2018,San José,San José,Latin America and Caribbean,CDPCities2020;GCoM2021
"Alameda County, CA",USA,City,United States of America,NA,1,37.65,-121.9166667,1666753,NA,California,,North America,WeAreStillIn2019
"Alameda, CA",USA,City,United States of America,27.0394956,5,37.75611111,-122.2744444,78906,2010,California,"Alameda County, CA",North America,CDPCities2020;GCoM2021;ClimateMayors2019;WeAreStillIn2019;GCoM2021
"Alameda, Spain",ESP,City,Spain,64.74975,3,37.2,-4.65,5426,2018,Málaga,Antequera,Europe,EUCovenantofMayors2021;GCoM2021;GCoMHarmonized2021;GCoM2021
Aland,FIN,Region,Finland,1580,2,60,20,29489,2017,NA,,Europe,CompactofStatesRegions2018
Alange,ESP,City,Spain,160,2,38.78588,-6.244232,1971,2018,Badajoz,Tierra de Mérida Vegas Bajas,Europe,EUCovenantofMayors2021;GCoM2021
Alanis de la Sierra,ESP,City,Spain,NA,3,37.3601614,-5.9788488,1900,NA,Seville,,Europe,EUCovenantofMayors2021;GCoM2021;GCoMHarmonized2021;GCoM2021
Alanno,ITA,City,Italy,32.53,3,42.3,13.96666667,3679,NA,Pescara,,Europe,EUCovenantofMayors2021;GCoM2021;GCoMHarmonized2021;GCoM2021
Alano di Piave,ITA,City,Italy,36.4,NA,45.9,11.917,2886,2004,Province of Belluno,Province of Belluno,Europe,EUCovenantofMayors2021;GCoM2021;GCoMHarmonized2021;GCoM2021
Alaquàs,ESP,City,Spain,3.9,2,39.4572928,-0.4609799,29965,2018,Valencia,Horta Oest,Europe,EUCovenantofMayors2021;GCoM2021
Alaró,ESP,City,Spain,45.72,NA,39.70667,2.79083,5494,2018,Balearic Islands,Inca,Europe,EUCovenantofMayors2021;GCoM2021
Alàs i Cerc,ESP,City,Spain,57.7,2,42.324487,1.540233,400,2018,Lleida,Alt Urgell,Europe,EUCovenantofMayors2021;GCoM2021
Alassio,ITA,City,Italy,17.25,3,44,8.166666667,12000,NA,Savona,,Europe,EUCovenantofMayors2021;GCoM2021;GCoMHarmonized2021;GCoM2021
Alaverdi,ARM,City,Armenia,18,2,41.0958608,44.6459522,16400,2017,Lori,,Eastern Europe and Central Asia,EUCovenantofMayors2021;GCoM2021
Alba,ITA,City,Italy,28748,3,44.691542,8.025636,31531,2017,Cuneo,,Europe,EUCovenantofMayors2021;GCoM2021;GCoMHarmonized2021;GCoM2021
Alba Adriatica,ITA,City,Italy,9.6,3,42.8343422,13.927816,12522,NA,Abruzzo,Teramo,Europe,EUCovenantofMayors2021;GCoM2021;GCoMHarmonized2021;GCoM2021
Alba Iulia,ROU,City,Romania,103.65,4,46.06694444,23.57,63536,2011,Alba County,Alba,Europe,CDPCities2020;GCoM2021;EUCovenantofMayors2021;GCoM2021;GCoMHarmonized2021;GCoM2021
Alba Posse,ARG,City,Argentina,405,2,-27.55,-54.7,481,NA,Misiones Province,25 De Mayo,Latin America and Caribbean,NAZCA2020;DDLNetZeroDB2020;RacetoZero2020ZCA2020
Albagés,ESP,City,Spain,25.7,3,41.7317684,1.8151935,425,2018,Lleida,,Europe,EUCovenantofMayors2021;GCoM2021
Albagiara,ITA,City,Italy,8.87,2,39.786857,8.861913,278,NA,Oristano,,Europe,EUCovenantofMayors2021;GCoM2021
Albaida,ESP,City,Spain,89.78,2,38.838669,-0.5181894,5987,2018,Baleares,Vall d'Albaida,Europe,EUCovenantofMayors2021;GCoM2021
Albairate,ITA,City,Italy,14.98,3,45.41666667,8.933333333,4148,NA,Lombardy,Milan,Europe,EUCovenantofMayors2021;GCoM2021;GCoMHarmonized2021;GCoM2021
Albal,ESP,City,Spain,38,2,39.3956438,-0.415082,16029,2018,Cáceres,Horta Sud,Europe,EUCovenantofMayors2021;GCoM2021
Albala,ESP,City,Spain,38,2,39.255502,-6.190489,744,2018,Cáceres,Albalá,Europe,EUCovenantofMayors2021;GCoM2021
Albalat de la Ribera,ESP,City,Spain,14.29,2,39.2012627,-0.3866467,3485,2018,Valencia,Ribera Baixa,Europe,EUCovenantofMayors2021;GCoM2021
Albalat Dels Sorells,ESP,City,Spain,4.62,2,39.5436955,-0.3461911,3937,2018,Valencia,Horta Nord,Europe,EUCovenantofMayors2021;GCoM2021
Albánchez de Mágina,ESP,City,Spain,39,3,37.79166667,-3.45,1326,2018,Jaén,Albanchez de Mágina,Europe,EUCovenantofMayors2021;GCoM2021;GCoMHarmonized2021;GCoM2021
Albanella,ITA,City,Italy,40.23,2,40.478163,15.114332,6519,NA,Salerno,,Europe,EUCovenantofMayors2021;GCoM2021
Albano di Lucania,ITA,City,Italy,55.87,3,40.587058,16.037129,1502,2017,Potenza,,Europe,EUCovenantofMayors2021;GCoM2021;GCoMHarmonized2021;GCoM2021
Albano Laziale,ITA,City,Italy,23.8,3,41.7288894,12.6582689,38997,NA,Rome,,Europe,EUCovenantofMayors2021;GCoM2021;GCoMHarmonized2021;GCoM2021
Albano Sant'Alessandro,ITA,City,Italy,5.28,NA,45.683,9.75,8100,2011,Province of Bergamo,Province of Bergamo,Europe,EUCovenantofMayors2021;GCoM2021;GCoMHarmonized2021;GCoM2021
"Albany, CA",USA,City,United States of America,4.6360821,2,37.886944,-122.297778,18969,2010,California,"Alameda County, CA",North America,ClimateMayors2019
"Albany, NY",USA,City,United States of America,55.3998861,5,42.6511674,-73.7549679,98566,2016,New York State,"Albany County, NY",North America,CDPCities2020;GCoM2021;ClimateMayors2019;WeAreStillIn2019;GCoM2021;ClimateMayors2020;GCoM2021
"Albany, OR",USA,City,United States of America,3.2374875,1,44.630278,-123.096111,53211,2010,Oregon,"Linn County, OR",North America,ClimateMayors2019
Albanyà,ESP,City,Spain,94.4,3,42.30694444,2.723055556,150,2018,Girona,Alt Empordà,Europe,EUCovenantofMayors2021;GCoM2021;GCoMHarmonized2021;GCoM2021
Albaredo d'Adige,ITA,City,Italy,28.25,2,45.316997,11.276161,5179,2004,Verona,,Europe,EUCovenantofMayors2021;GCoM2021;GCoMHarmonized2021;GCoM2021
Albaretto Della Torre,ITA,City,Italy,4.59,2,44.59681,8.06451,5952,NA,Cuneo,,Europe,EUCovenantofMayors2021;GCoM2021
Albatàrrec,ESP,City,Spain,10.5,3,41.575,0.606388889,2090,2018,Lleida,Segrià,Europe,EUCovenantofMayors2021;GCoM2021;GCoMHarmonized2021;GCoM2021
Albatera,ESP,City,Spain,66327,3,38.1794357,-0.8700719,11767,2018,Teruel,Vega Baja del Segura,Europe,EUCovenantofMayors2021;GCoM2021;GCoMHarmonized2021;GCoM2021
"Albemarle County, VA",USA,City,United States of America,1880,1,38.03333333,-78.56666667,98970,NA,Virginia,,North America,WeAreStillIn2019
Albenga,ITA,City,Italy,36.58,3,44.05,8.216666667,25000,NA,Savona,,Europe,EUCovenantofMayors2021;GCoM2021;GCoMHarmonized2021;GCoM2021
Albergaria-a-Velha,PRT,City,Portugal,158.83,3,40.69333333,-8.481111111,25252,2011,Centro,Aveiro,Europe,EUCovenantofMayors2021;GCoM2021;GCoMHarmonized2021;GCoM2021
Alberic,ESP,City,Spain,NA,2,39.1164369,-0.5201837,10826,NA,Valencia,Ribera Alta,Europe,EUCovenantofMayors2021;GCoM2021
Alberite De San Juan,ESP,City,Spain,11.23,3,41.81666667,-1.466666667,99,2018,Zaragoza,Alberite de San Juan,Europe,EUCovenantofMayors2021;GCoM2021;GCoMHarmonized2021;GCoM2021
Alberobello,ITA,City,Italy,0.1052,2,40.786413,17.240936,11300,NA,Bari,,Europe,EUCovenantofMayors2021;GCoM2021
Alberona,ITA,City,Italy,49.75,3,41.43333333,15.11666667,1010,NA,Foggia,,Europe,EUCovenantofMayors2021;GCoM2021;GCoMHarmonized2021;GCoM2021
Alberta,CAN,Region,Canada,640081,2,54.4,-115,4318772,2018,NA,,North America,CDPStates&Regions2020
Alberti,ARG,City,Argentina,1130,NA,-35.033,-60.25,10322,NA,Buenos Aires,Alberti,Latin America and Caribbean,Race to Zero
Albertslund,DNK,City,Denmark,NA,3,55.6586018,12.3562849,27880,NA,Capital Region,Copenhagen,Europe,EUCovenantofMayors2021;GCoM2021;RacetoZero2020;GCoMHarmonized2021;GCoM2021;RacetoZero2020
Albesa,ESP,City,Spain,37.6,3,41.75388889,0.661666667,1652,2018,Lleida,Noguera,Europe,EUCovenantofMayors2021;GCoM2021;GCoMHarmonized2021;GCoM2021
Albeta,ESP,City,Spain,2.65,3,41.8272224,-1.4926769,149,2018,Zaragoza,NA,Europe,EUCovenantofMayors2021;GCoM2021;GCoMHarmonized2021;GCoM2021
Albiano,ITA,City,Italy,9,NA,46.15,11.2,1508,2001,Trentino,Trentino,Europe,EUCovenantofMayors2021;GCoM2021
Albiate,ITA,City,Italy,2.86,3,45.66666667,9.25,5216,NA,Monza Brianza,Monza and Brianza,Europe,EUCovenantofMayors2021;GCoM2021;GCoMHarmonized2021;GCoM2021
Albignasego,ITA,City,Italy,21.16,3,45.35,11.86666667,25000,NA,Padua,,Europe,EUCovenantofMayors2021;GCoM2021;GCoMHarmonized2021;GCoM2021
Albinea,ITA,City,Italy,43.89,3,44.6201821,10.6019259,8755,NA,Reggio Emilia,,Europe,EUCovenantofMayors2021;GCoM2021;GCoMHarmonized2021;GCoM2021
Albino,ITA,City,Italy,31.81,3,45.7608142,9.7968303,17807,NA,Bergamo,,Europe,EUCovenantofMayors2021;GCoM2021;GCoMHarmonized2021;GCoM2021
Albinyana,ESP,City,Spain,19.4,3,41.2454739,1.486748,2354,2018,Tarragona,Baix Penedès,Europe,EUCovenantofMayors2021;GCoM2021;GCoMHarmonized2021;GCoM2021
Albiolo,ITA,City,Italy,2.84,3,45.805577,8.939235,2739,NA,Como,,Europe,EUCovenantofMayors2021;GCoM2021;GCoMHarmonized2021;GCoM2021
Albisola Superiore,ITA,City,Italy,28.68,3,44.33944444,8.526944444,10485,NA,Savona,,Europe,EUCovenantofMayors2021;GCoM2021;GCoMHarmonized2021;GCoM2021
Alboloduy,ESP,City,Spain,70,3,37.0327593,-2.6209782,745,2018,Almería,,Europe,EUCovenantofMayors2021;GCoM2021;GCoMHarmonized2021;GCoM2021
Albolote,ESP,City,Spain,79,3,37.23055556,-3.656944444,18088,2018,Granada,NA,Europe,EUCovenantofMayors2021;GCoM2021;GCoMHarmonized2021;GCoM2021
Albonese,ITA,City,Italy,4.33,3,45.2944385,8.706322,559,NA,Pavia,,Europe,EUCovenantofMayors2021;GCoM2021;GCoMHarmonized2021;GCoM2021
Albons,ESP,City,Spain,11.1,3,42.1043559,3.0852797,740,2018,Girona,Baix Empordà,Europe,EUCovenantofMayors2021;GCoM2021;GCoMHarmonized2021;GCoM2021
Alborache,ESP,City,Spain,27.33,2,39.3929025,-0.774052,1136,2018,Valencia,Hoya de Buñol,Europe,EUCovenantofMayors2021;GCoM2021
Alboraya,ESP,City,Spain,8.3,2,39.5009954,-0.3494799,23572,2018,Valencia,Horta Nord,Europe,EUCovenantofMayors2021;GCoM2021
Albosaggia,ITA,City,Italy,34.35,3,46.1472316,9.8531698,3188,NA,Sondrio,,Europe,EUCovenantofMayors2021;GCoM2021;GCoMHarmonized2021;GCoM2021
Albota de Sus,MDA,City,Moldova,NA,NA,45.9666666667,28.4666666667,1944,2014,Taraclia District,Taraclia District,Eastern Europe and Central Asia,EUCovenantofMayors2021
Albox,ESP,City,Spain,168,3,37.38333333,-2.133333333,11271,2018,Almería,,Europe,EUCovenantofMayors2021;GCoM2021;GCoMHarmonized2021;GCoM2021
Albudeite,ESP,City,Spain,17.02,2,38.026663,-1.3866538,1423,2018,Murcia,Río Mula,Europe,EUCovenantofMayors2021;GCoM2021
Albuixech,ESP,City,Spain,4.4,2,39.5449181,-0.3241613,3920,2018,Valencia,Horta Nord,Europe,EUCovenantofMayors2021;GCoM2021
Albuñol,ESP,City,Spain,63,3,36.7912927,-3.2016737,6270,2018,Granada,Costa Tropical,Europe,EUCovenantofMayors2021;GCoM2021;GCoMHarmonized2021;GCoM2021
"Albuquerque, NM",USA,City,United States of America,NA,1,35.11083333,-106.61,558545,NA,New Mexico,"Bernalillo County, NM",North America,CDPCities2020
"Alburqueque, Spain",ESP,City,Spain,723,2,39.219167,-7.001111,5340,2018,Badajoz,,Europe,EUCovenantofMayors2021;GCoM2021
Alcalá De Ebro,ESP,City,Spain,9.9,3,41.8140364,-1.1940809,283,2018,Zaragoza,Alcalá de Ebro,Europe,EUCovenantofMayors2021;GCoM2021;GCoMHarmonized2021;GCoM2021
Alcalá de Guadaíra,ESP,City,Spain,284.61,NA,37.33333,-5.85,75256,2018,Sevilla,Sevilla,Europe,EUCovenantofMayors2021;GCoM2021;GCoMHarmonized2021;GCoM2021
Alcalá de Henares,ESP,City,Spain,87.72,NA,40.467,-3.367,193751,2018,NA,Community of Madrid,Europe,EUCovenantofMayors2021
Alcalá de los Gazules,ESP,City,Spain,479.59,3,36.46666667,-5.716666667,5619,2018,Cádiz,La Janda,Europe,EUCovenantofMayors2021;GCoM2021;GCoMHarmonized2021;GCoM2021
Alcala De Moncayo,ESP,City,Spain,13.69,3,41.7862357,-1.6969471,205,2018,Zaragoza,Tarazona y el Moncayo,Europe,EUCovenantofMayors2021;GCoM2021;GCoMHarmonized2021;GCoM2021
Alcalá del Valle,ESP,City,Spain,46.89,3,36.905066,-5.1726099,5300,2018,Cádiz,Sierra de Cádiz,Europe,EUCovenantofMayors2021;GCoM2021;GCoMHarmonized2021;GCoM2021
Alcalá la Real,ESP,City,Spain,262,3,37.45,-3.916666667,22129,2018,Jaén,Sierra Sur de Jaén,Europe,EUCovenantofMayors2021;GCoM2021;GCoMHarmonized2021;GCoM2021
Alcalalí,ESP,City,Spain,14.4,3,38.7503504,-0.0399998,1350,2018,Valencia,Marina Alta,Europe,EUCovenantofMayors2021;GCoM2021;GCoMHarmonized2021;GCoM2021
Alcamo,ITA,City,Italy,130.9,3,37.97777778,12.96388889,46238,NA,Trapani,,Europe,EUCovenantofMayors2021;GCoM2021;GCoMHarmonized2021;GCoM2021
Alcanena,PRT,City,Portugal,127.33,NA,39.467,-8.667,13868,2011,Centro,Santarém,Europe,EUCovenantofMayors2021;GCoM2021
ALCÁNTARA,ESP,City,Spain,552,NA,39.72222,-6.88972,1480,2018,Cáceres,Cáceres,Europe,EUCovenantofMayors2021
Alcantarilla,ESP,City,Spain,16,2,37.969517,-1.219342,40774,2018,Murcia,Huerta de Murcia,Europe,EUCovenantofMayors2021;GCoM2021;GCoMHarmonized2021;GCoM2021
Alcàntera de Xúquer,ESP,City,Spain,3.3,2,39.0694393,-0.5601547,1350,2018,Valencia,Ribera Alta,Europe,EUCovenantofMayors2021;GCoM2021
Alcara li Fusi,ITA,City,Italy,62.94,3,38.01666667,14.7,2473,2017,Sicily,Messina,Europe,EUCovenantofMayors2021;GCoM2021;GCoMHarmonized2021;GCoM2021
Alcarràs,ESP,City,Spain,114.3,3,41.5630062,0.5245393,9100,2018,Lleida,Segrià,Europe,EUCovenantofMayors2021;GCoM2021;GCoMHarmonized2021;GCoM2021
Alcasser,ESP,City,Spain,9.01,2,39.3677124,-0.444674,9615,2018,Valencia,Horta Sud,Europe,EUCovenantofMayors2021;GCoM2021
Alcaudete,ESP,City,Spain,238,3,37.58333333,-4.1,11164,2018,Jaén,Sierra Sur de Jaén,Europe,EUCovenantofMayors2021;GCoM2021;GCoMHarmonized2021;GCoM2021
Alcázar de San Juan,ESP,City,Spain,666.78,3,39.40555556,-3.205555556,31992,2018,Ciudad Real,,Europe,EUCovenantofMayors2021;GCoM2021;GCoMHarmonized2021;GCoM2021
Alchevsk,UKR,City,Ukraine,55,2,48.47134,38.813441,110529,2013,Luhansk Oblast,,Eastern Europe and Central Asia,EUCovenantofMayors2021;GCoM2021
Alcocer de Planes,ESP,City,Spain,4.39,3,38.79444444,-0.4025,238,2018,Alicante,Comtat,Europe,EUCovenantofMayors2021;GCoM2021;GCoMHarmonized2021;GCoM2021
Alcochete,PRT,City,Portugal,128.36,3,38.7488526,-8.973300657,17569,2011,Lisbon,Setúbal,Europe,EUCovenantofMayors2021;GCoM2021;GCoMHarmonized2021;GCoM2021
Alcoi,ESP,City,Spain,129.86,3,38.69833333,-0.473611111,59675,2018,Valencia,Alcoià,Europe,EUCovenantofMayors2021;GCoM2021;GCoMHarmonized2021;GCoM2021
Alcolea,ESP,City,Spain,67,3,36.96666667,-2.95,966,2018,Almería,,Europe,EUCovenantofMayors2021;GCoM2021;GCoMHarmonized2021;GCoM2021
Alcolea del Río,ESP,City,Spain,50.02,3,37.5180353,-5.9800362,9317,2005,Seville,,Europe,EUCovenantofMayors2021;GCoM2021;GCoMHarmonized2021;GCoM2021
Alcoleja,ESP,City,Spain,14.56,3,38.6755861,-0.3311341,191,2018,Valencia,Comtat,Europe,EUCovenantofMayors2021;GCoM2021;GCoMHarmonized2021;GCoM2021
Alcoletge,ESP,City,Spain,16.7,2,41.6472222,0.6944444,3285,2018,Lleida,,Europe,EUCovenantofMayors2021;GCoM2021
Alcollarín,ESP,City,Spain,79,2,39.245057,-5.737223,433,2018,Cáceres,NA,Europe,EUCovenantofMayors2021;GCoM2021
Alconchel,ESP,City,Spain,294.9,2,38.517011,-7.070012,1876,2018,Badajoz,Llanos de Olivenza,Europe,EUCovenantofMayors2021;GCoM2021
Alcóntar,ESP,City,Spain,94,3,37.33333333,-2.583333333,647,2018,Almería,,Europe,EUCovenantofMayors2021;GCoM2021;GCoMHarmonized2021;GCoM2021
Alcorcón,ESP,City,Spain,33.7,3,40.35,-3.833333333,167997,2018,Madrid,of Madrid,Europe,EUCovenantofMayors2021;GCoM2021;GCoMHarmonized2021;GCoM2021
Alcover,ESP,City,Spain,460,3,41.26666667,1.166666667,5131,2018,Tarragona,Alt Camp,Europe,EUCovenantofMayors2021;GCoM2021;GCoMHarmonized2021;GCoM2021
Alcublas,ESP,City,Spain,43.5,2,39.7979196,-0.7025735,690,2018,Valencia,Los Serranos,Europe,EUCovenantofMayors2021;GCoM2021
Alcudia,ESP,City,Spain,60.05,2,39.853267,3.124024,22942,2018,Baleares,Raiguer,Europe,EUCovenantofMayors2021;GCoM2021
Aldaia,ESP,City,Spain,16.1,2,39.4647207,-0.4607809,31246,2018,Valencia,Horta Oest,Europe,EUCovenantofMayors2021;GCoM2021
Aldehuela De Liestos,ESP,City,Spain,38.12,3,41.0642215,-1.7005881,51,2018,Aragon,Aldehuela de Liestos,Europe,EUCovenantofMayors2021;GCoM2021;GCoMHarmonized2021;GCoM2021
Aldeire,ESP,City,Spain,67,3,37.15,-3.066666667,696,2018,Granada,NA,Europe,EUCovenantofMayors2021;GCoM2021;GCoMHarmonized2021;GCoM2021
Aldeno,ITA,City,Italy,8.97,3,45.9767795,11.0908573,3053,NA,Trentino,,Europe,EUCovenantofMayors2021;GCoM2021;GCoMHarmonized2021;GCoM2021
Aldover,ESP,City,Spain,20.2,2,40.8800537,0.5000194,918,2018,Tarragona,Baix Ebre,Europe,EUCovenantofMayors2021;GCoM2021
Ale,SWE,City,Sweden,332.1359,1,57.925833,12.083611,31402,2019,Västergötland,Västra Götaland County,Europe,ACTSweden;DDLNetZeroDB2020;Sveriges Ekokommuner
Aledo,ESP,City,Spain,49.74,2,37.794985,-1.573546,1053,2018,Murcia,Bajo Guadalentín,Europe,EUCovenantofMayors2021;GCoM2021
Alella,ESP,City,Spain,9.6,3,41.495,2.296111111,9397,2018,Barcelona Province,Maresme,Europe,EUCovenantofMayors2021;GCoM2021;GCoMHarmonized2021;GCoM2021
Alencon,FRA,City,France,10.68,NA,48.4306,0.0931,25775,2018,Normandy,Alençon,Europe,Race to Zero
Alenquer,PRT,City,Portugal,304.22,2,39.0574,-9.006365,42000,2011,Lisbon,,Europe,EUCovenantofMayors2021;GCoM2021
Alento Montestella,ITA,City,Italy,NA,2,40.2374011,15.0487682,15104,NA,Campania,,Europe,EUCovenantofMayors2021;GCoMHarmonized2021
Alessandria,ITA,City,Italy,203.57,3,44.9129225,8.615321,85438,NA,NA,,Europe,EUCovenantofMayors2021;GCoM2021;GCoMHarmonized2021;GCoM2021
Alessandria della Rocca,ITA,City,Italy,62.24,3,37.56666667,13.45,3082,2017,Agrigento,,Europe,EUCovenantofMayors2021;GCoM2021;GCoMHarmonized2021;GCoM2021
Alessano,ITA,City,Italy,28.69,3,39.8896785,18.3312082,6552,NA,Lecce,,Europe,EUCovenantofMayors2021;GCoM2021;GCoMHarmonized2021;GCoM2021
Ålesund,NOR,City,Norway,93.17,3,62.47777778,6.190277778,42317,2017,Møre og Romsdal,NA,Europe,EUCovenantofMayors2021;GCoM2021;GCoMHarmonized2021;GCoM2021
Alexandria,GRC,City,Greece,2679,3,37.9506108,23.7029521,41604,2018,Central Macedonia,,Europe,EUCovenantofMayors2021;GCoM2021;GCoMHarmonized2021;GCoM2021
"Alexandria, VA",USA,City,United States of America,38.6685507,2,38.804722,-77.047222,153511,2010,Virginia,,North America,ClimateMayors2019;WeAreStillIn2019
Alexandroupolis,GRC,City,Greece,1217,3,40.85,25.86666667,72750,2011,East Macedonia and Thrace,Evros,Europe,EUCovenantofMayors2021;GCoM2021;GCoMHarmonized2021;GCoM2021
Alexânia,BRA,City,Brazil,847.891,2,-16.0887,-48.5017,30000,2007,Goiás,,Latin America and Caribbean,CDPCities2020;GCoM2021
Alezio,ITA,City,Italy,16.79,3,40.06666667,18.05,5547,NA,Lecce,,Europe,EUCovenantofMayors2021;GCoM2021;GCoMHarmonized2021;GCoM2021
Alfacar,ESP,City,Spain,16,3,37.2383551,-3.566372,5508,2018,Granada,NA,Europe,EUCovenantofMayors2021;GCoM2021;GCoMHarmonized2021;GCoM2021
Alfafar,ESP,City,Spain,16,2,39.4200749,-0.3891354,20772,2018,Granada,Horta Sud,Europe,EUCovenantofMayors2021;GCoM2021
Alfafara,ESP,City,Spain,19.78,3,38.7732651,-0.554559,418,2018,Alicante,Comtat,Europe,EUCovenantofMayors2021;GCoM2021;GCoMHarmonized2021;GCoM2021
Alfajarín,ESP,City,Spain,137,3,41.61666667,-0.7,2215,2018,Aragon,NA,Europe,EUCovenantofMayors2021;GCoM2021;GCoMHarmonized2021;GCoM2021
Alfamen,ESP,City,Spain,102,3,41.43333333,-1.25,1577,2018,Zaragoza,Campo de Cariñena,Europe,EUCovenantofMayors2021;GCoM2021;GCoMHarmonized2021;GCoM2021
Alfândega da Fé,PRT,City,Portugal,321.95,3,41.35555556,-6.945,5104,2011,Norte,Bragança,Europe,EUCovenantofMayors2021;GCoM2021
Alfara De Carles,ESP,City,Spain,63.9,2,40.8729772,0.4005288,395,2018,Tarragona,Baix Ebre,Europe,EUCovenantofMayors2021;GCoM2021
Alfara De La Baronia,ESP,City,Spain,11.71,2,39.762781,-0.355419,535,2018,Valencia,Camp de Morvedre,Europe,EUCovenantofMayors2021;GCoM2021
Alfara Del Patriarca,ESP,City,Spain,1.98,2,39.544129,-0.3856584,3228,2018,Valencia,Horta Nord,Europe,EUCovenantofMayors2021;GCoM2021
Alfarnate,ESP,City,Spain,33.66987,3,36.98333333,-4.25,1362,2018,Málaga,Axarquía Costa del Sol,Europe,EUCovenantofMayors2021;GCoM2021;GCoMHarmonized2021;GCoM2021
Alfarnatejo,ESP,City,Spain,20.71992,3,36.9790514,-4.2726473,404,2018,Málaga,Axarquía Costa del Sol,Europe,EUCovenantofMayors2021;GCoM2021;GCoMHarmonized2021;GCoM2021
Alfarp,ESP,City,Spain,20.6,2,39.2767351,-0.560509,1553,2018,Valencia,Ribera Alta,Europe,EUCovenantofMayors2021;GCoM2021
Alfarràs,ESP,City,Spain,11.4,2,41.8311403,0.5692934,2923,2018,Lleida,Segrià,Europe,EUCovenantofMayors2021;GCoM2021
Alfarrasí,ESP,City,Spain,6.4,2,38.903726,-0.4961549,1309,2018,Valencia,Vall d'Albaida,Europe,EUCovenantofMayors2021;GCoM2021
Alfauir,ESP,City,Spain,6.2,2,38.9283659,-0.2516594,451,2018,Valencia,Safor,Europe,EUCovenantofMayors2021;GCoM2021
Alfedena,ITA,City,Italy,39.96,3,41.73424,14.03253,791,NA,Province of L'Aquila,L'Aquila,Europe,EUCovenantofMayors2021;GCoM2021;GCoMHarmonized2021;GCoM2021
Alfianello,ITA,City,Italy,13.75,3,45.266975,10.148172,2445,NA,Brescia,,Europe,EUCovenantofMayors2021;GCoM2021;GCoMHarmonized2021;GCoM2021
Alfonsine,ITA,City,Italy,106.79,3,44.5053302,12.0410437,12411,NA,Ravenna,,Europe,EUCovenantofMayors2021;GCoM2021;GCoMHarmonized2021;GCoM2021
Alforja,ESP,City,Spain,38.2,3,41.2099763,0.9750606,1857,2018,Tarragona,Baix Camp,Europe,EUCovenantofMayors2021;GCoM2021;GCoMHarmonized2021;GCoM2021
Alforque,ESP,City,Spain,10,3,41.3298767,-0.3852708,86,2018,Zaragoza,,Europe,EUCovenantofMayors2021;GCoM2021;GCoMHarmonized2021;GCoM2021
ALFOZ,ESP,City,Spain,43,NA,41.65,-3.5,2007,2018,Burgos,Burgos,Europe,EUCovenantofMayors2021
Algaida,ESP,City,Spain,89.78,3,39.55833333,2.891666667,5367,2018,Baleares,Pla de Mallorca,Europe,EUCovenantofMayors2021;GCoM2021;GCoMHarmonized2021;GCoM2021
Algámitas,ESP,City,Spain,20.42,3,37.0163821,-5.1488475,1330,2018,Seville,Sierra Sur de Sevilla,Europe,EUCovenantofMayors2021;GCoM2021;GCoMHarmonized2021;GCoM2021
Algar,ESP,City,Spain,175.6,3,-33.39111111,-71.69277778,1540,NA,Málaga,,Europe,EUCovenantofMayors2021;GCoM2021;GCoMHarmonized2021;GCoM2021
Algar De Palancia,ESP,City,Spain,13.2,2,39.7810953,-0.3674639,503,2018,Valencia,Camp de Morvedre,Europe,EUCovenantofMayors2021;GCoM2021
Algarinejo,ESP,City,Spain,93,3,37.31666667,-4.15,4184,2018,Granada,NA,Europe,EUCovenantofMayors2021;GCoM2021;GCoMHarmonized2021;GCoM2021
Algarrobo,ESP,City,Spain,10.35996,3,36.7732439,-4.0399306,6144,2018,Málaga,Axarquía Costa del Sol,Europe,EUCovenantofMayors2021;GCoM2021;GCoMHarmonized2021;GCoM2021
Algatocín,ESP,City,Spain,20,3,36.57277778,-5.275555556,951,2018,Málaga,Serranía de Ronda,Europe,EUCovenantofMayors2021;GCoM2021;GCoMHarmonized2021;GCoM2021
Algeciras,ESP,City,Spain,86,3,36.1275,-5.453888889,115333,2018,Cádiz,Campo de Gibraltar,Europe,EUCovenantofMayors2021;GCoM2021;GCoMHarmonized2021;GCoM2021
Algemesí,ESP,City,Spain,41.5,2,39.1907907,-0.4357531,27808,2018,Valencia,Ribera Alta,Europe,EUCovenantofMayors2021;GCoM2021
Algerri,ESP,City,Spain,54.3,3,41.8151794,0.6371437,437,2018,Lleida,Noguera,Europe,EUCovenantofMayors2021;GCoM2021;GCoMHarmonized2021;GCoM2021
Alghero,ITA,City,Italy,225.4,3,40.55,8.316666667,43945,2018,Sassari,SS,Europe,GCoMHarmonized2021;GCoM2021;EUCovenantofMayors2021;GCoM2021
Algimia De Alfara,ESP,City,Spain,14.4,2,39.7536043,-0.362999,1047,2018,Valencia,Camp de Morvedre,Europe,EUCovenantofMayors2021;GCoM2021
Alginet,ESP,City,Spain,24.1,2,39.2651129,-0.4716911,13068,2018,Valencia,Ribera Alta,Europe,EUCovenantofMayors2021;GCoM2021
Algua,ITA,City,Italy,8.32,3,45.83333333,9.716666667,722,NA,Bergamo,,Europe,EUCovenantofMayors2021;GCoM2021;GCoMHarmonized2021;GCoM2021
ALGUAIRE,ESP,City,Spain,50.1,NA,41.738609999999994,0.5855600000000001,2970,2018,Lleida,Lleida,Europe,EUCovenantofMayors2021
Alguazas,ESP,City,Spain,23.74,2,38.052566,-1.249398,9146,2018,Murcia,Vega Media del Segura,Europe,EUCovenantofMayors2021;GCoM2021
Algueña,ESP,City,Spain,18.43,3,38.33777778,-1.003611111,1457,2018,Valencia,Vinalopó Mitjà,Europe,EUCovenantofMayors2021;GCoM2021;GCoMHarmonized2021;GCoM2021
Alhama de Almería,ESP,City,Spain,26,3,36.95,-2.566666667,3587,2018,Almería,Alpujarra Almeriense,Europe,EUCovenantofMayors2021;GCoM2021;GCoMHarmonized2021;GCoM2021
Alhama de Aragón,ESP,City,Spain,31,3,41.3,-1.9,1146,2018,Aragon,Alhama de Aragón,Europe,EUCovenantofMayors2021;GCoM2021;GCoMHarmonized2021;GCoM2021
Alhama de Granada,ESP,City,Spain,433.5,3,37.0028286,-3.9891095,6214,2018,Granada,Alhama,Europe,EUCovenantofMayors2021;GCoM2021;GCoMHarmonized2021;GCoM2021
Alhama de Murcia,ESP,City,Spain,311.55,NA,37.85139,-1.42639,21657,2018,Murcia,Totana,Europe,EUCovenantofMayors2021;GCoM2021;GCoMHarmonized2021;GCoM2021
Alhaurín de la Torre,ESP,City,Spain,83,NA,36.667,-4.55,39911,2018,Málaga,Málaga,Europe,EUCovenantofMayors2021;GCoM2021;GCoMHarmonized2021;GCoM2021
Alhaurin el Grande,ESP,City,Spain,73.1,NA,36.63306,-4.68306,24123,2018,Málaga,Málaga,Europe,EUCovenantofMayors2021;GCoM2021;GCoMHarmonized2021;GCoM2021
Alhendín,ESP,City,Spain,51,3,37.1081077,-3.64366,5200,2018,Granada,Empire of Alhendín,Europe,EUCovenantofMayors2021;GCoM2021;GCoMHarmonized2021;GCoM2021
Alì,ITA,City,Italy,6.2,NA,38,15.417,2570,2014,NA,Messina,Europe,EUCovenantofMayors2021
Alì Terme,ITA,City,Italy,6.27,2,38.005064,15.42269,2567,NA,Sicily,Messina,Europe,EUCovenantofMayors2021;GCoM2021
Alia,ITA,City,Italy,NA,3,37.779948,13.713856,3806,NA,Palermo,,Europe,EUCovenantofMayors2021;GCoM2021;GCoMHarmonized2021;GCoM2021
Aliano,ITA,City,Italy,98.41,3,40.3138266,16.2299609,1110,NA,Basilicata,Matera,Europe,EUCovenantofMayors2021;GCoM2021;GCoMHarmonized2021;GCoM2021
Aliartou - Thespieon,GRC,City,Greece,108.152,3,38.3,23.15,4793,NA,Boeotia,,Europe,EUCovenantofMayors2021;GCoM2021;GCoMHarmonized2021;GCoM2021
Alicante,ESP,City,Spain,201.27,3,38.353738,-0.4901845,334678,2018,NA,Alacantí,Europe,EUCovenantofMayors2021;GCoM2021;GCoMHarmonized2021;GCoM2021
Alife,ITA,City,Italy,64.32,3,41.33333333,14.33333333,7613,NA,Caserta,,Europe,EUCovenantofMayors2021;GCoM2021;GCoMHarmonized2021;GCoM2021
Alijó,PRT,City,Portugal,297.6,3,41.27611111,-7.475,11840,2011,Norte,Vila Real,Europe,EUCovenantofMayors2021;GCoM2021;GCoMHarmonized2021;GCoM2021
Alimena,ITA,City,Italy,59.7,3,37.7,14.11666667,2087,NA,Sicily,Palermo,Europe,EUCovenantofMayors2021;GCoM2021;GCoMHarmonized2021;GCoM2021
Aliminusa,ITA,City,Italy,13.68,3,37.86666667,13.78333333,1269,NA,Palermo,,Europe,EUCovenantofMayors2021;GCoM2021;GCoMHarmonized2021;GCoM2021
Alimos,GRC,City,Greece,5.909,3,37.91666667,23.71666667,42000,2011,Attica,Cythirians,Europe,EUCovenantofMayors2021;GCoM2021;GCoMHarmonized2021;GCoM2021
Alins,ESP,City,Spain,183.2,NA,42.55056,1.31972,290,2018,Lleida,Lleida,Europe,EUCovenantofMayors2021;GCoM2021
Alió,ESP,City,Spain,7.2,3,41.3,1.3,432,2018,Tarragona,Alt Camp,Europe,EUCovenantofMayors2021;GCoM2021;GCoMHarmonized2021;GCoM2021
Aliseda,ESP,City,Spain,81,2,39.4247,-6.691883,1951,2018,Cáceres,,Europe,EUCovenantofMayors2021;GCoM2021
Aljaraque,ESP,City,Spain,34,3,37.2664912,-7.0246858,17960,2018,Huelva,,Europe,EUCovenantofMayors2021;GCoM2021;GCoMHarmonized2021;GCoM2021
Alken,BEL,City,Belgium,28.14,3,50.8754731,5.3079873,11242,NA,Limburg,Tongeren,Europe,EUCovenantofMayors2021;GCoM2021;GCoMHarmonized2021;GCoM2021
Alkmaar,NLD,City,Netherlands,29.26,2,52.632381,4.753375,288000,2016,North Holland,,Europe,EUCovenantofMayors2021;GCoM2021;GCoMHarmonized2021;GCoM2021
ALLARIZ,ESP,City,Spain,85.3,NA,42.183,-7.8,6110,2018,Ourense,Ourense,Europe,EUCovenantofMayors2021
Alleghe,ITA,City,Italy,29,NA,46.407347200000004,12.0253222,1408,2004,Province of Belluno,Province of Belluno,Europe,EUCovenantofMayors2021
"Allentown, PA",USA,City,United States of America,749.802105,2,40.601667,-75.477222,120443,2010,Pennsylvania,"Lehigh County, PA",North America,ClimateMayors2019;WeAreStillIn2019
Alleroed,DNK,City,Denmark,67.44,2,55.866667,12.366667,24201,NA,Capital Region,Zealand,Europe,NAZCA2020;DDLNetZeroDB2020;RacetoZero2020ZCA2020
Alliste,ITA,City,Italy,23.53,2,39.947527,18.086225,6719,NA,Lecce,,Europe,EUCovenantofMayors2021;GCoM2021
Allo,ESP,City,Spain,NA,NA,42.56722,-2.01917,983,NA,NA,NA,Europe,EUCovenantofMayors2021
Allumiere,ITA,City,Italy,92.17,3,42.15,11.9,4293,NA,Rome,,Europe,EUCovenantofMayors2021;GCoM2021;GCoMHarmonized2021;GCoM2021
Almacelles,ESP,City,Spain,49,3,41.7325,0.440277778,6961,2018,Lleida,Segrià,Europe,EUCovenantofMayors2021;GCoM2021;GCoMHarmonized2021;GCoM2021
Almáchar,ESP,City,Spain,14.3,3,36.8,-4.233333333,1898,2018,Málaga,Axarquía,Europe,EUCovenantofMayors2021;GCoM2021;GCoMHarmonized2021;GCoM2021
Almada,PRT,City,Portugal,70.21,4,38.6803861,-9.1559562,174030,2011,Lisbon,Setúbal,Europe,EUCovenantofMayors2021;GCoM2021;GCoMHarmonized2021;GCoM2021
Almadén de la Plata,ESP,City,Spain,256.02,3,37.8736407,-6.0804953,1696,2018,Seville,,Europe,EUCovenantofMayors2021;GCoM2021;GCoMHarmonized2021;GCoM2021
Almafuerte,ARG,City,Argentina,NA,2,-32.192227,-64.254416,1276000,NA,Córdoba,Tercero Arriba,Latin America and Caribbean,CDPCities2020;GCoM2021;RacetoZero2020
Almargen,ESP,City,Spain,165,3,37,-5.016666667,2106,2018,Málaga,Comarca of Antequera,Europe,EUCovenantofMayors2021;GCoM2021;GCoMHarmonized2021;GCoM2021
Almásfüzito,HUN,City,Hungary,8.19,NA,47.7287,18.25539,2047,2015,Komárom-Esztergom,Komárom-Esztergom,Europe,NA
Almásfüzitő,HUN,City,Hungary,8.19,NA,47.7287,18.25539,2097,2015,Komárom-Esztergom,Komárom-Esztergom,Europe,EUCovenantofMayors2021;GCoM2021
Almàssera,ESP,City,Spain,2.7,2,39.5118213,-0.3562373,7514,2018,Valencia,Horta Nord,Europe,EUCovenantofMayors2021;GCoM2021
Almassora,ESP,City,Spain,33,3,39.9435743,-0.0634782,24963,2018,Castellón,Plana Alta,Europe,EUCovenantofMayors2021;GCoM2021;GCoMHarmonized2021;GCoM2021
ALMATRET,ESP,City,Spain,56.8,NA,41.3075,0.425,319,2018,Lleida,Lleida,Europe,EUCovenantofMayors2021
Almè,ITA,City,Italy,2,3,45.73333333,9.616666667,5631,NA,Bergamo,,Europe,EUCovenantofMayors2021;GCoM2021;GCoMHarmonized2021;GCoM2021
Almegíjar,ESP,City,Spain,30,3,36.9,-3.3,435,2018,Granada,Alpujarra Granadina,Europe,EUCovenantofMayors2021;GCoM2021;GCoMHarmonized2021;GCoM2021
Almenar,ESP,City,Spain,66.6,2,41.7943506,0.5695395,3502,2018,Lleida,Segrià,Europe,EUCovenantofMayors2021;GCoM2021;GCoMHarmonized2021;GCoM2021
ALMENARA,ESP,City,Spain,37.72,NA,39.783,-2.8,5998,2018,Cuenca,Puebla de Almenara,Europe,EUCovenantofMayors2021
Almendral,ESP,City,Spain,67,2,38.613437,-6.821032,1354,2018,Badajoz,Llanos de Olivenza,Europe,EUCovenantofMayors2021;GCoM2021
Almenno San Bartolomeo,ITA,City,Italy,10.61,3,45.75,9.583333333,5388,NA,Bergamo,,Europe,EUCovenantofMayors2021;GCoM2021;GCoMHarmonized2021;GCoM2021
Almenno San Salvatore,ITA,City,Italy,4.73,3,45.7499556,9.5963684,5789,NA,Bergamo,,Europe,EUCovenantofMayors2021;GCoM2021;GCoMHarmonized2021;GCoM2021
Almensilla,ESP,City,Spain,NA,3,37.3100014,-6.1130522,5096,NA,Seville,,Europe,EUCovenantofMayors2021;GCoM2021;GCoMHarmonized2021;GCoM2021
Almere,NLD,City,Netherlands,129.6,3,52.36666667,5.216666667,193156,2017,Flevoland,,Europe,EUCovenantofMayors2021;GCoM2021;GCoMHarmonized2021;GCoM2021
Almería,ESP,City,Spain,296.21,3,36.84027778,-2.468055556,175000,2018,NA,Comarca de Almería,Europe,EUCovenantofMayors2021;GCoM2021;GCoMHarmonized2021;GCoM2021
Almese,ITA,City,Italy,17.88,3,45.1168763,7.39455,6378,NA,Turin,,Europe,EUCovenantofMayors2021;GCoM2021;GCoMHarmonized2021;GCoM2021
Älmhults,SWE,City,Sweden,8.78,3,56.55,14.116667,15570,2010,Småland,NA,Europe,EUCovenantofMayors2021;GCoM2021;GCoMHarmonized2021;GCoM2021
Almiserà,ESP,City,Spain,7.4,2,38.9153082,-0.286036,276,2018,Valencia,Safor,Europe,EUCovenantofMayors2021;GCoM2021
Almócita,ESP,City,Spain,30,3,37.003137,-2.7904478,158,2018,Almería,,Europe,EUCovenantofMayors2021;GCoM2021;GCoMHarmonized2021;GCoM2021
Almoharín,ESP,City,Spain,97,2,39.175874,-6.042773,2082,2018,Cáceres,NA,Europe,EUCovenantofMayors2021;GCoM2021
Almoines,ESP,City,Spain,2.1,2,38.9434696,-0.1809756,2302,2018,Valencia,Safor,Europe,EUCovenantofMayors2021;GCoM2021
Almonacid De La Cuba,ESP,City,Spain,55,3,41.2795006,-0.7923988,270,2018,Aragon,Campo de Belchite,Europe,EUCovenantofMayors2021;GCoM2021;GCoMHarmonized2021;GCoM2021
Almonacid De La Sierra,ESP,City,Spain,54,3,41.4,-1.316666667,824,2018,Aragon,Almonacid de la Sierra,Europe,EUCovenantofMayors2021;GCoM2021;GCoMHarmonized2021;GCoM2021
Almonaster la Real,ESP,City,Spain,322,3,37.87333333,-6.786111111,1848,2018,Huelva,Almonaster la Real,Europe,EUCovenantofMayors2021;GCoM2021;GCoMHarmonized2021;GCoM2021
Almonte,ESP,City,Spain,859.2,3,39.68416667,-6.46,21782,NA,Huelva,,Europe,EUCovenantofMayors2021;GCoM2021;GCoMHarmonized2021;GCoM2021
Almopia,GRC,City,Greece,985.8,2,41.039781,22.09533,29354,2011,Central Macedonia,Pella,Europe,EUCovenantofMayors2021;GCoM2021
Almoradí,ESP,City,Spain,42.72,3,38.1096544,-0.7919255,19601,2018,Valencia,Vega Baja del Segura,Europe,EUCovenantofMayors2021;GCoM2021;GCoMHarmonized2021;GCoM2021
Almoster,ESP,City,Spain,6,3,41.2,1.116666667,1396,2018,Tarragona,Bajo Campo,Europe,EUCovenantofMayors2021;GCoM2021;GCoMHarmonized2021;GCoM2021
Almudaina,ESP,City,Spain,8.82,3,38.7611112,-0.3539786,112,2018,Alicante,Comtat,Europe,EUCovenantofMayors2021;GCoM2021;GCoMHarmonized2021;GCoM2021
Almussafes,ESP,City,Spain,10.77,2,39.2924334,-0.4138576,8744,2018,Valencia,Ribera Baixa,Europe,EUCovenantofMayors2021;GCoM2021
Almyros,GRC,City,Greece,905.4,3,39.18,22.76,18614,2011,Magnesia,,Europe,EUCovenantofMayors2021;GCoM2021;GCoMHarmonized2021;GCoM2021
Alonte,ITA,City,Italy,11.15,2,45.364644,11.428491,1663,NA,Vicenza,,Europe,EUCovenantofMayors2021;GCoM2021
Alor Gajah,MYS,City,Malaysia,635.84,1,2.383333333,102.2166667,198400,NA,Melaka,NA,East Asia and the Pacific,Carbonn2019
Álora,ESP,City,Spain,79.26,2,36.839681,-4.707062,13499,2018,Málaga,Valle del Guadalhorce,Europe,EUCovenantofMayors2021;GCoM2021
Alosno,ESP,City,Spain,193,3,37.55,-7.116666667,4381,2018,Huelva,Andévalo,Europe,EUCovenantofMayors2021;GCoM2021;GCoMHarmonized2021;GCoM2021
Alozaina,ESP,City,Spain,33.85,3,36.7278925,-4.8564749,2236,2018,Málaga,Comarca of Antequera,Europe,EUCovenantofMayors2021;GCoM2021;GCoMHarmonized2021;GCoM2021
Alp,ESP,City,Spain,NA,2,42.372845,1.886116,1747,NA,Girona,Cerdanya,Europe,EUCovenantofMayors2021;GCoM2021
Alpa Corral,ARG,City,Argentina,NA,2,-32.69138,-64.7213,1200,NA,Córdoba,,Latin America and Caribbean,NAZCA2020;DDLNetZeroDB2020;GlobalCovenantofMayors2019ZCA;RacetoZero2020
Alpago,ITA,City,Italy,80.34,2,46.1306681,12.3548944,7299,NA,Venice,Belluno,Europe,EUCovenantofMayors2021;GCoMHarmonized2021
Alpandeire,ESP,City,Spain,31.3,3,36.63444444,-5.202777778,271,2018,Málaga,Serranía de Ronda,Europe,EUCovenantofMayors2021;GCoM2021;GCoMHarmonized2021;GCoM2021
Alpens,ESP,City,Spain,13.8,3,42.11666667,2.1,311,2018,Barcelona Province,Osona,Europe,EUCovenantofMayors2021;GCoM2021;GCoMHarmonized2021;GCoM2021
Alpicat,ESP,City,Spain,15.3,3,41.66666667,0.55,6203,2018,Lleida,Segrià,Europe,EUCovenantofMayors2021;GCoM2021;GCoMHarmonized2021;GCoM2021
Alpignano,ITA,City,Italy,11.92,3,45.1,7.516666667,16993,NA,Turin,,Europe,EUCovenantofMayors2021;GCoM2021;GCoMHarmonized2021;GCoM2021
Alpuente,ESP,City,Spain,138.3,2,39.8759884,-1.0137761,640,2018,Valencia,Los Serranos,Europe,EUCovenantofMayors2021;GCoM2021
Alquería de Aznar,ESP,City,Spain,1.08,3,38.77277778,-0.425833333,527,2018,Valencia,Comtat,Europe,EUCovenantofMayors2021;GCoM2021;GCoMHarmonized2021;GCoM2021
Alsace,FRA,Region,France,NA,1,48.66666667,7,1872949,NA,NA,,Europe,Under2Coalition2019
Alseno,ITA,City,Italy,55.27,3,44.9,9.966666667,4977,NA,Piacenza,,Europe,EUCovenantofMayors2021;GCoM2021;GCoMHarmonized2021;GCoM2021
Alsómocsolád,HUN,City,Hungary,5,NA,46.317,18.25,311,2015,Baranya,Baranya,Europe,EUCovenantofMayors2021;GCoM2021
Alta Gracia,ARG,City,Argentina,NA,2,-27.5095304,-58.8264294,48506,NA,Córdoba,,Latin America and Caribbean,GlobalCovenantofMayors2019;NAZCA
Altafulla,ESP,City,Spain,7,3,41.14333333,1.376944444,4928,2018,Tarragona,Tarragonès,Europe,EUCovenantofMayors2021;GCoM2021;GCoMHarmonized2021;GCoM2021
Altare-Cosseria,ITA,City,Italy,NA,2,44.3352858,8.3180253,3249,NA,Liguria,Savona,Europe,EUCovenantofMayors2021;GCoMHarmonized2021
Altavilla Milicia,ITA,City,Italy,23.78,3,38.037851,13.54835,7791,NA,Palermo,,Europe,EUCovenantofMayors2021;GCoM2021;GCoMHarmonized2021;GCoM2021
Altavilla Silentina,ITA,City,Italy,52.48,3,40.5302405,15.1310307,7029,NA,Salerno,,Europe,EUCovenantofMayors2021;GCoM2021;GCoMHarmonized2021;GCoM2021
Altavilla Vicentina,ITA,City,Italy,16.72,3,45.5084288,11.4706863,12084,NA,Vicenza,,Europe,EUCovenantofMayors2021;GCoM2021;GCoMHarmonized2021;GCoM2021
Altea,ESP,City,Spain,34.43,3,38.59861111,-0.0519,21739,2018,Alicante,Marina Baixa,Europe,EUCovenantofMayors2021;GCoM2021;GCoMHarmonized2021;GCoM2021
Alter do Chão,PRT,City,Portugal,362.07,3,39.18333333,-7.65,3591,2011,Alentejo,Portalegre,Europe,EUCovenantofMayors2021;GCoM2021;GCoMHarmonized2021;GCoM2021
ALTIDONA,ITA,City,Italy,12.97,NA,43.117,13.8,3410,2017,Fermo,Fermo,Europe,EUCovenantofMayors2021
Altilia,ITA,City,Italy,10.56,3,39.13333333,16.25,779,NA,Cosenza,,Europe,EUCovenantofMayors2021;GCoM2021;GCoMHarmonized2021;GCoM2021
Altino,ITA,City,Italy,15.33,3,42.1,14.33333333,2823,NA,Chieti Province,,Europe,EUCovenantofMayors2021;GCoM2021;GCoMHarmonized2021;GCoM2021
Altivole,ITA,City,Italy,21.95,3,45.7540029,11.9553621,6828,NA,Treviso,,Europe,EUCovenantofMayors2021;GCoM2021;GCoMHarmonized2021;GCoM2021
Alto,ITA,City,Italy,40.0671453,2,46.433666,11.16933,113,2010,Cuneo,,Europe,EUCovenantofMayors2021;GCoM2021
Alto Agordino,ITA,City,Italy,NA,3,46.2683053,12.036373,3869,NA,Venice,Belluno,Europe,EUCovenantofMayors2021;GCoM2021;GCoMHarmonized2021;GCoM2021
Alto Alegre,BRA,City,Brazil,25567,2,-21.623976,-50.203844,4164,2015,Roraima,,Latin America and Caribbean,GlobalCovenantofMayors2019;NAZCA
Alto e Medio Metauro,ITA,City,Italy,590.82,2,43.668333,12.524167,41375,NA,Marche,,Europe,EUCovenantofMayors2021;GCoMHarmonized2021
Alto Reno Terme,ITA,City,Italy,73.64,NA,44.16028,10.97333,7003,2015,NA,Bologna,Europe,EUCovenantofMayors2021
Altofonte,ITA,City,Italy,35.44,2,38.044476,13.298103,10438,NA,Sicily,Palermo,Europe,EUCovenantofMayors2021;GCoM2021
"Alton, IL",USA,City,United States of America,43,4,38.90055556,-90.15972222,26581,2010,Illinois,"Madison County, IL",North America,CDPCities2020;GCoM2021
Altötting,DEU,City,Germany,23.43,3,48.2268085,12.6757914,13000,NA,Bavaria,NA,Europe,EUCovenantofMayors2021;GCoM2021;GCoMHarmonized2021;GCoM2021
Altsasu,ESP,City,Spain,26.72,NA,42.89528,-2.16889,7407,2018,Navarre,Navarre,Europe,EUCovenantofMayors2021
Altura,ESP,City,Spain,7.3037718,2,39.850792,-0.512944,3920,2010,Castellón,,Europe,EUCovenantofMayors2021;GCoM2021
Aluminé,ARG,City,Argentina,NA,NA,-39.217,-70.95,3720,2001,Neuquén,Neuquén,Latin America and Caribbean,Race to Zero
Alvaiázere,PRT,City,Portugal,160.48,3,39.8161333,-8.402046067,8112,2011,Centro,Leiria,Europe,EUCovenantofMayors2021;GCoM2021;GCoMHarmonized2021;GCoM2021
Alvarado,MEX,City,Mexico,840.63,2,18.76648,-95.7573,56927,2005,Veracruz,NA,Latin America and Caribbean,GlobalCovenantofMayors2019;NAZCA
Alvesta,SWE,City,Sweden,6.1,3,56.86382675,14.44793099,18757,2010,Småland,NA,Europe,EUCovenantofMayors2021;GCoM2021;GCoMHarmonized2021;GCoM2021
Alvignano,ITA,City,Italy,38.13,3,41.25,14.33333333,4885,NA,Caserta,,Europe,EUCovenantofMayors2021;GCoM2021;GCoMHarmonized2021;GCoM2021
Älvsbyn,SWE,City,Sweden,6.35,3,65.68333333,21.01666667,8274,2010,Norrbotten County,NA,Europe,EUCovenantofMayors2021;GCoM2021;GCoMHarmonized2021;GCoM2021
Alzano Lombardo,ITA,City,Italy,13.68,3,45.73333333,9.733333333,13757,NA,Bergamo,,Europe,EUCovenantofMayors2021;GCoM2021;GCoMHarmonized2021;GCoM2021
Alzira,ESP,City,Spain,110.4,2,39.1512424,-0.4346132,44518,2018,Valencia,Ribera Alta,Europe,EUCovenantofMayors2021;GCoM2021
Amacuzac,MEX,City,Mexico,125,1,18,-99,17021,NA,Morelos,,Latin America and Caribbean,Carbonn2019
Amadora,PRT,City,Portugal,23.78,2,38.75776,-9.224547,172350,2011,Lisbon,,Europe,EUCovenantofMayors2021;GCoM2021
Amami,JPN,City,Japan,308.15,1,28.31666667,129.45,44561,2016,Kagoshima Prefecture,Kagoshima,East Asia and the Pacific,Carbonn2019
Amarante,PRT,City,Portugal,301.33,NA,41.266999999999996,-8.067,56264,2011,Norte,Porto,Europe,CDPCities2020
Amares,PRT,City,Portugal,81.95,3,41.61666667,-8.333333333,19000,2011,Norte,Braga,Europe,EUCovenantofMayors2021;GCoM2021;GCoMHarmonized2021;GCoM2021
Amaroussion,GRC,City,Greece,12.938,3,38.0455,23.7689,72480,2011,Attica,North Athens,Europe,EUCovenantofMayors2021;GCoM2021;GCoMHarmonized2021;GCoM2021
Amato,ITA,City,Italy,20.93,3,38.93333333,16.46666667,861,NA,Reggio Calabria,Catanzaro,Europe,EUCovenantofMayors2021;GCoM2021;GCoMHarmonized2021;GCoM2021
Amay,BEL,City,Belgium,27.61,2,50.5497761,5.3240992,14145,NA,Liège,Huy,Europe,EUCovenantofMayors2021;GCoM2021;GCoMHarmonized2021;GCoM2021
"Amazonas, Brazil",BRA,Region,Brazil,1570745.7,2,-5,-63,4063614,2010,NA,,Latin America and Caribbean,CDPStates&Regions2020;Under2Coalition2021;Under2Coalition2020
"Amazonas, Peru",PER,Region,Peru,39249.13,3,-6.216666667,-77.85,424952,2017,NA,,Latin America and Caribbean,CDPStates&Regions2020;Under2Coalition2021;Under2Coalition2020
Ambivere,ITA,City,Italy,3.28,3,45.71666667,9.55,2371,NA,Bergamo,,Europe,EUCovenantofMayors2021;GCoM2021;GCoMHarmonized2021;GCoM2021
"Ambler, PA",USA,City,United States of America,23.2581102,2,67.085,-157.8602778,6506,2010,Pennsylvania,,North America,ClimateMayors2019;WeAreStillIn2019
Ameglia,ITA,City,Italy,14.17,3,44.06666667,9.95,4520,NA,La Spezia,,Europe,EUCovenantofMayors2021;GCoM2021;GCoMHarmonized2021;GCoM2021
Amel,BEL,City,Belgium,125.15,2,50.3543055,6.1705559,5500,NA,Liège,Verviers,Europe,EUCovenantofMayors2021;GCoM2021
Amendolara,ITA,City,Italy,60.91,3,39.9524383,16.5822838,3107,NA,Cosenza,,Europe,EUCovenantofMayors2021;GCoM2021;GCoMHarmonized2021;GCoM2021
Ameno,ITA,City,Italy,10,3,45.7886563,8.4413106,878,NA,Novara,,Europe,EUCovenantofMayors2021;GCoM2021;GCoMHarmonized2021;GCoM2021
Amer,ESP,City,Spain,NA,3,42.0092186,2.6030327,2300,NA,Girona,Selva,Europe,EUCovenantofMayors2021;GCoM2021;GCoMHarmonized2021;GCoM2021
Ames,ESP,City,Spain,80.55,NA,42.9,-8.633,32000,2018,A Coruña,A Coruña,Europe,EUCovenantofMayors2021
Améscoa Baja,ESP,City,Spain,30.2,NA,42.77417,-2.13278,730,2018,NA,Navarra,Europe,NA
Améscoa Baja / Ameskoabarrena,ESP,City,Spain,30.2,NA,42.77417,-2.13278,730,2018,NA,Navarra,Europe,EUCovenantofMayors2021
"Amesville, OH",USA,City,United States of America,0.5697978,1,39.401389,-81.955,157,2010,Ohio,"Athens County, OH",North America,ClimateMayors2019
Amezketa,ESP,City,Spain,NA,3,43.04916667,-2.088055556,994,2018,Biscay,Tolosaldea,Europe,EUCovenantofMayors2021;GCoM2021;GCoMHarmonized2021;GCoM2021
Amiens,FRA,City,France,NA,2,49.8941708,2.2956951,132727,NA,Hauts-de-France,NA,Europe,EUCovenantofMayors2021;GCoM2021;GCoMHarmonized2021;GCoM2021
Amiens Métropole,FRA,City,France,NA,2,49.87267,2.313818,177345,NA,Hauts-de-France,Amiens,Europe,EUCovenantofMayors2021;GCoM2021
Amman,JOR,City,Jordan,1680,5,31.9454,35.9284,3800000,2017,Amman Governorate,,Middle East and North Africa,CDPCities2020;C40Cities2020;GCoM2021;C40Cities2021;RacetoZero2020
AMOEIRO,ESP,City,Spain,39.7,NA,42.41,-7.95333,2265,2018,Ourense,Ourense,Europe,EUCovenantofMayors2021
Ampelokipi - Menemeni,GRC,City,Greece,8.82,3,40.65,22.91666667,52127,2011,Central Macedonia,Ampelokipoi-Menemeni,Europe,EUCovenantofMayors2021;GCoM2021;GCoMHarmonized2021;GCoM2021
Amposta,ESP,City,Spain,138.3,3,40.71055556,0.580833333,21197,2018,Tarragona,Montsià,Europe,EUCovenantofMayors2021;GCoM2021;GCoMHarmonized2021;GCoM2021
Ampuero,ESP,City,Spain,32.34,2,43.3440563,-3.4151481,4228,2018,Cantabria,Asón valley,Europe,EUCovenantofMayors2021;GCoM2021
Amsterdam,NLD,City,Netherlands,219.32,4,52.36666667,4.9,731289,2015,North Holland,,Europe,CDPCities2020;GCoM2021;C40Cities2021;RacetoZero2020;CDPCities2020;CDPJRC2020;GCoM2021;C40Cities2021;RacetoZero2020;CDPCities2020;CDPJRC2020;C40Cities2020;GCoM2021;C40Cities2021;RacetoZero2020;EUCovenantofMayors2021;C40Cities2020;GCoM2021;C40Cities2021;RacetoZero2020;GCoMHarmonized2021;GCoM2021;C40Cities2021;RacetoZero2020;GCoMHarmonized2021;C40Cities2020;GCoM2021;C40Cities2021;RacetoZero2020
Amurrio,ESP,City,Spain,96.36,4,43.05277778,-3.001388889,10260,2018,Alava,Aiaraldea,Europe,EUCovenantofMayors2021;GCoM2021;GCoMHarmonized2021;GCoM2021
Amuwo-Odofin,NGA,City,Nigeria,179,1,6.45,3.266666667,386060,NA,Lagos State,Lagos,Sub-Saharan Africa,Carbonn2019
Amynteo,GRC,City,Greece,589.4,3,40.683333,21.683333,16973,NA,West Macedonia,,Europe,EUCovenantofMayors2021;GCoM2021;GCoMHarmonized2021;GCoM2021
Anacapri,ITA,City,Italy,6.47,3,40.55,14.21666667,6684,NA,Naples,,Europe,EUCovenantofMayors2021;GCoM2021;GCoMHarmonized2021;GCoM2021
Anadia,PRT,City,Portugal,216.63,3,40,-8,29150,NA,Centro,Aveiro,Europe,EUCovenantofMayors2021;GCoM2021;GCoMHarmonized2021;GCoM2021
Anapolis,BRA,City,Brazil,918.375,NA,-16.33389,-48.95194,391772,2020,Goiás,Goiás,Latin America and Caribbean,CDPCities2020
Ancarano,ITA,City,Italy,13.92,3,42.836048,13.739392,1921,NA,Province of Teramo,Teramo,Europe,EUCovenantofMayors2021;GCoM2021;GCoMHarmonized2021;GCoM2021
"Anchorage, AK",USA,City,United States of America,204.091212,5,61.2163129,-149.8948522,301010,2010,Alaska,,North America,CDPCities2020;GCoM2021;ClimateMayors2019;WeAreStillIn2019;GCoM2021
Ancona,ITA,City,Italy,124.84,4,43.6170137,13.5170982,100507,NA,NA,,Europe,EUCovenantofMayors2021;GCoM2021;GCoMHarmonized2021;GCoM2021
Andalo,ITA,City,Italy,11.38,3,46.16666667,11.00444444,1042,NA,Trento,Trentino,Europe,EUCovenantofMayors2021;GCoM2021;GCoMHarmonized2021;GCoM2021
Andalusia,ESP,Region,Spain,NA,3,37.38333333,-5.983333333,8394426,2014,NA,,Europe,CDPStates&Regions2020;Under2Coalition2021;Under2Coalition2020
"Anderson, SC",USA,City,United States of America,37.813854,2,34.514444,-82.648889,27181,NA,South Carolina,"Anderson County, SC",North America,ClimateMayors2019;WeAreStillIn2019
Andévalo,ESP,City,Spain,NA,NA,37.733000000000004,-6.933,0,NA,NA,NA,Europe,EUCovenantofMayors2021
Andilla,ESP,City,Spain,142.8,2,39.8357785,-0.8143659,400,2018,Valencia,Los Serranos,Europe,EUCovenantofMayors2021;GCoM2021
Andora,ITA,City,Italy,31.8,3,43.9519286,8.1456487,6767,NA,Savona,,Europe,EUCovenantofMayors2021;GCoM2021;GCoMHarmonized2021;GCoM2021
Andosilla,ESP,City,Spain,51.51,NA,42.38306,-1.66667,2863,2018,Navarre,Navarre,Europe,EUCovenantofMayors2021
Andrano,ITA,City,Italy,15.71,3,39.98333333,18.38333333,5027,2017,Lecce,,Europe,EUCovenantofMayors2021;GCoM2021;GCoMHarmonized2021;GCoM2021
Andratx,ESP,City,Spain,81.46,3,39.57083333,2.421388889,12149,2018,Baleares,NA,Europe,EUCovenantofMayors2021;GCoM2021
Andravida - Killini,GRC,City,Greece,355.5,2,37.968307,21.26082,26333,2011,West Greece,Andravida-Kyllini,Europe,EUCovenantofMayors2021;GCoM2021
Andretta,ITA,City,Italy,43.65,2,40.940363,15.327022,2089,NA,Avellino,,Europe,EUCovenantofMayors2021;GCoM2021
Andria,ITA,City,Italy,402.89,3,41.227674,16.2947553,100217,NA,Barletta-Andria-Trani - Andria - Trani,Barletta-Andria-Trani,Europe,EUCovenantofMayors2021;GCoM2021;GCoMHarmonized2021;GCoM2021
Andrieseni,ROU,City,Romania,NA,2,47.52795,27.285696,4420,2002,Ia<U+0219>i County,,Europe,EUCovenantofMayors2021;GCoM2021
Andújar,ESP,City,Spain,9649,3,38.03333333,-4.05,38769,2018,Jaén,Campiña de Jaén,Europe,EUCovenantofMayors2021;GCoM2021;GCoMHarmonized2021;GCoM2021
Aneby,SWE,City,Sweden,3.37,2,57.838521,14.817802,6776,2010,Småland,NA,Europe,EUCovenantofMayors2021;GCoM2021
Aného,TGO,City,Togo,NA,2,6.24081,1.63335,25000,NA,Maritime,,Sub-Saharan Africa,GlobalCovenantofMayors2019;NAZCA
Anela,ITA,City,Italy,36.89,3,40.44176,9.057427,699,NA,Sassari,,Europe,EUCovenantofMayors2021;GCoM2021;GCoMHarmonized2021;GCoM2021
Anenii Noi,MDA,City,Moldova,NA,3,46.8808554,29.2227797,13856,2014,Anenii Noi District,NA,Eastern Europe and Central Asia,EUCovenantofMayors2021;GCoM2021;GCoMHarmonized2021;GCoM2021
Anento,ESP,City,Spain,21,3,41.06666667,-1.333333333,133,2018,Aragon,NA,Europe,EUCovenantofMayors2021;GCoM2021;GCoMHarmonized2021;GCoM2021
Anfo,ITA,City,Italy,23.83,3,45.76527778,10.49444444,434,NA,Lombardy,Brescia,Europe,EUCovenantofMayors2021;GCoM2021;GCoMHarmonized2021;GCoM2021
Angeles City,PHL,City,Philippines,60.27,3,15.12611,120.59302,470282,NA,Pampanga,,East Asia and the Pacific,GlobalCovenantofMayors2019;Carbonn2019;NAZCA
Ängelholm,SWE,City,Sweden,12.83,1,56.25,12.85,39612,2017,Skåne,NA,Europe,Carbonn2019
Angera,ITA,City,Italy,17.72,3,45.7721876,8.5751222,5694,NA,Varese,,Europe,EUCovenantofMayors2021;GCoM2021;GCoMHarmonized2021;GCoM2021
Angers Loire Métropole,FRA,City,France,NA,3,47.4739884,-0.5515587,283000,NA,Pays de la Loire,Angers,Europe,EUCovenantofMayors2021;GCoM2021;GCoMHarmonized2021;GCoM2021
Angiari,ITA,City,Italy,13.47,3,45.21666667,11.28333333,2204,NA,Verona,,Europe,EUCovenantofMayors2021;GCoM2021;GCoMHarmonized2021;GCoM2021
Anglès,ESP,City,Spain,16.3,3,41.95,2.65,5500,2018,Girona,Selva,Europe,EUCovenantofMayors2021;GCoM2021;GCoMHarmonized2021;GCoM2021
Anglesola,ESP,City,Spain,23.5,NA,41.65,1.083,1328,2018,Lleida,Lleida,Europe,EUCovenantofMayors2021
Angolo Terme,ITA,City,Italy,30.56,2,45.8910363,10.1460986,2459,NA,Brescia,,Europe,EUCovenantofMayors2021;GCoM2021
Angossas,CMR,City,Cameroon,NA,2,4.0756573,12.9885553,13605,NA,East Region,Cameroon,Sub-Saharan Africa,GlobalCovenantofMayors2019;NAZCA
Angra dos Reis,BRA,City,Brazil,816.3,NA,-23.00667,-44.318059999999996,207044,2020,Rio de Janeiro,Rio de Janeiro,Latin America and Caribbean,CDPCities2020
Angri,ITA,City,Italy,13.77,3,40.74271,14.571439,32675,NA,Salerno,,Europe,EUCovenantofMayors2021;GCoM2021;GCoMHarmonized2021;GCoM2021
Anguillara Sabazia,ITA,City,Italy,75.24,3,42.08752,12.27667,18256,NA,Rome,,Europe,EUCovenantofMayors2021;GCoM2021;GCoMHarmonized2021;GCoM2021
Anguillara Veneta,ITA,City,Italy,21.67,3,45.1393548,11.8877456,4512,NA,Padua,,Europe,EUCovenantofMayors2021;GCoM2021;GCoMHarmonized2021;GCoM2021
Anhée,BEL,City,Belgium,65.67,NA,50.317,4.883,7117,NA,Namur,Dinant,Europe,EUCovenantofMayors2021;GCoM2021
Aniene Green Net,ITA,City,Italy,NA,2,41.9589747,12.5660007,12140,NA,Lazio,,Europe,EUCovenantofMayors2021;GCoMHarmonized2021
"Ann Arbor, MI",USA,City,United States of America,74.33,6,42.28138889,-83.74833333,1177700,2017,Michigan,"Washtenaw County, MI",North America,CDPCities2020;GCoM2021;ClimateMayors2019;WeAreStillIn2019;GCoM2021
Anna,ESP,City,Spain,18.6738279,2,39.0204311,-0.646136,2655,2010,Valencia,Canal de Navarrés,Europe,EUCovenantofMayors2021;GCoM2021
Annecy,FRA,City,France,NA,3,45.88975045,6.1354651,51119,NA,Haute-Savoie,NA,Europe,EUCovenantofMayors2021;GCoM2021;GCoMHarmonized2021;GCoM2021
Annemasse Les Voirons,FRA,City,France,73.69,2,46.21444,6.353056,29540,2014,Auvergne-Rhône-Alpes,Annemasse,Europe,EUCovenantofMayors2021;GCoM2021
Annicco,ITA,City,Italy,19.2,3,45.244572,9.879466,2097,NA,Cremona,,Europe,EUCovenantofMayors2021;GCoM2021;GCoMHarmonized2021;GCoM2021
Annone di Brianza,ITA,City,Italy,5.8,NA,45.783,9.333,2302,NA,Lecco,Lecco,Europe,EUCovenantofMayors2021;GCoM2021;GCoMHarmonized2021;GCoM2021
Annone Veneto,ITA,City,Italy,25.94,3,45.79551,12.68422,3984,NA,Venice,,Europe,EUCovenantofMayors2021;GCoM2021;GCoMHarmonized2021;GCoM2021
Ano Liosia,GRC,City,Greece,NA,NA,38.083,23.7,33565,2011,NA,Fyli,Europe,NA
Anogia,GRC,City,Greece,102.6,3,35.2907782,24.8824614,2507,2011,Crete,Rethymno,Europe,EUCovenantofMayors2021;GCoM2021;GCoMHarmonized2021;GCoM2021
Añon De Moncayo,ESP,City,Spain,64.33,3,41.778589,-1.7210175,208,2018,Aragon,Tarazona y el Moncayo,Europe,EUCovenantofMayors2021;GCoM2021;GCoMHarmonized2021;GCoM2021
Ans,BEL,City,Belgium,23.35,3,50.6624326,5.5190612,28131,NA,Liège,Liège,Europe,EUCovenantofMayors2021;GCoM2021;GCoMHarmonized2021;GCoM2021
Ansan,KOR,City,South Korea,149.39,3,37.31666667,126.8333333,693546,2018,Gyeonggi-do,Sudogwon,East Asia and the Pacific,CDPCities2020;GCoM2021
Ansoain,ESP,City,Spain,2,NA,42.83556,-1.6394400000000002,10752,2018,Navarre,Navarre,Europe,EUCovenantofMayors2021
Antalya,TUR,City,Turkey,1417,3,36.9008783,30.6937117,2043432,2014,NA,,Eastern Europe and Central Asia,EUCovenantofMayors2021;GCoM2021;GCoMHarmonized2021;GCoM2021
Antananarivo,MDG,City,Madagascar,85.01,NA,-18.933,47.516999999999996,1275207,2018,Analamanga,Analamanga,Sub-Saharan Africa,CDPCities2020
Antas de Almería,ESP,City,Spain,8,NA,37.183,-1.817,8838,2018,NA,Almería,Europe,EUCovenantofMayors2021;GCoM2021;GCoMHarmonized2021;GCoM2021
ANTAS DE ULLA,ESP,City,Spain,103.66,NA,42.78222,-7.88972,2008,2018,Lugo,Lugo,Europe,EUCovenantofMayors2021
Antella,ESP,City,Spain,17.6,2,39.080713,-0.5909713,1343,2018,Valencia,Ribera Alta,Europe,EUCovenantofMayors2021;GCoM2021
Antequera,ESP,City,Spain,749.34,3,37.0183652,-4.5596648,44032,2018,Málaga,NA,Europe,EUCovenantofMayors2021;GCoM2021;GCoMHarmonized2021;GCoM2021
Anthisnes,BEL,City,Belgium,37.08,2,50.481662,5.5225261,4119,NA,Liège,Huy,Europe,EUCovenantofMayors2021;GCoM2021
Antillo,ITA,City,Italy,43.64,3,37.977262,15.244786,992,NA,Messina,,Europe,EUCovenantofMayors2021;GCoM2021;GCoMHarmonized2021;GCoM2021
"Antioch, CA",USA,City,United States of America,75.32,1,38.005,-121.8058333,108930,2010,California,"Contra Costa County, CA",North America,Carbonn2019
Antoing,BEL,City,Belgium,31.13,2,50.56727,3.451391,7813,NA,Hainaut,Tournai,Europe,EUCovenantofMayors2021;GCoM2021;GCoMHarmonized2021;GCoM2021
Antonesti,MDA,City,Moldova,NA,2,46.335302,28.216647,1042,2014,Cantemir District,Cantemir,Eastern Europe and Central Asia,EUCovenantofMayors2021;GCoM2021
Antrona Schieranco,ITA,City,Italy,100.18,3,46.06666667,8.116666667,465,NA,Verbano-Cusio-Ossola,,Europe,EUCovenantofMayors2021;GCoM2021;GCoMHarmonized2021;GCoM2021
Antwerp,BEL,City,Belgium,204.51,4,51.21777778,4.400277778,502604,NA,Antwerp Province,NA,Europe,EUCovenantofMayors2021;GCoM2021;GCoMHarmonized2021;GCoM2021
Antwerp Province,BEL,Region,Belgium,2867,1,51.2211097,4.3997081,1809412,NA,NA,,Europe,EUCovenantofMayors2021
Anversa degli Abruzzi,ITA,City,Italy,32.43,3,41.9940179,13.8040518,368,2017,Province of L'Aquila,L'Aquila,Europe,EUCovenantofMayors2021;GCoM2021;GCoMHarmonized2021;GCoM2021
Anyang,KOR,City,South Korea,58.46,1,37.38333333,126.9333333,614687,2016,Gyeonggi-do,Sudogwon,East Asia and the Pacific,Carbonn2019
Anykšciai,LTU,City,Lithuania,NA,3,55.53333333,25.1,32137,2011,Utena County,NA,Europe,EUCovenantofMayors2021;GCoMHarmonized2021
Anzegem,BEL,City,Belgium,41.79,NA,50.833,3.467,14609,NA,West Flanders,Kortrijk,Europe,EUCovenantofMayors2021;GCoM2021
Anzi,ITA,City,Italy,43.65,3,40.516615,15.924571,1811,NA,Basilicata,Potenza,Europe,EUCovenantofMayors2021;GCoM2021;GCoMHarmonized2021;GCoM2021
Anzola dell'Emilia,ITA,City,Italy,36.6,NA,44.54722,11.19556,12260,2017,NA,Bologna,Europe,EUCovenantofMayors2021;GCoM2021;GCoMHarmonized2021;GCoM2021
Aoiz / Agoitz,ESP,City,Spain,NA,NA,42.783,-1.367,2624,NA,NA,NA,Europe,EUCovenantofMayors2021
Aomori,JPN,City,Japan,825,1,40.82233333,140.7307222,298866,2017,Aomori Prefecture,Sannohe,East Asia and the Pacific,Carbonn2019
Aomori Prefecture,JPN,Region,Japan,9606.26,1,40.82466667,140.7406389,1373164,NA,NA,,East Asia and the Pacific,JapanPrefectureSites2021
Aosta,ITA,City,Italy,21.37,NA,45.733000000000004,7.317,34800,2013,NA,Aosta Valley,Europe,EUCovenantofMayors2021
"Apalachicola, FL",USA,City,United States of America,4.9986807,2,29.72527778,-84.9925,2276,2010,Florida,"Franklin County, FL",North America,ClimateMayors2019;WeAreStillIn2019
Aparan,ARM,City,Armenia,3.5,3,40.58911389,44.35721389,6500,NA,Aragatsotn,,Eastern Europe and Central Asia,EUCovenantofMayors2021;GCoM2021;GCoMHarmonized2021;GCoM2021
Aparecida,BRA,City,Brazil,121.08,3,-20.7,-41.6667,36279,2017,São Paulo State,,Latin America and Caribbean,CDPCities2020;GCoM2021
Aparecida de Goiânia,BRA,City,Brazil,290.1,4,-16.82277778,-49.22555556,521910,2018,Goiás,,Latin America and Caribbean,Carbonn2019;GlobalCovenantofMayors2019;CDPCities2018;NAZCA
Apaseo el Grande,MEX,City,Mexico,415.26,2,20.5455014,-100.6878411,92605,NA,Guanajuato,,Latin America and Caribbean,GlobalCovenantofMayors2019;NAZCA
Apeldoorn,NLD,City,Netherlands,341.15,2,52.211157,5.969923,155730,NA,Gelderland,,Europe,EUCovenantofMayors2021;GCoM2021
Apodaca,MEX,City,Mexico,183.5,NA,25.783,-100.18299999999999,523370,2010,Nuevo León,Nuevo León,Latin America and Caribbean,CDPCities2020
Apokoronou,GRC,City,Greece,315.5,3,35.383333,24.2,12807,NA,Crete,Chania,Europe,EUCovenantofMayors2021;GCoM2021;GCoMHarmonized2021;GCoM2021
Apollosa,ITA,City,Italy,21.12,2,41.092183,14.700951,2725,NA,Benevento,,Europe,EUCovenantofMayors2021;GCoM2021
"Apopka, FL",USA,City,United States of America,86.6610654,2,28.7414145,-81.5344293,47084,2010,Florida,"Orange County, FL",North America,GlobalCovenantofMayors2019;NAZCA
Appignano,ITA,City,Italy,22.67,3,43.4,13.2,4212,NA,Macerata,,Europe,EUCovenantofMayors2021;GCoM2021;GCoMHarmonized2021;GCoM2021
Appignano Del Tronto,ITA,City,Italy,23.19,NA,42.9,13.667,1788,2017,Ascoli Piceno,Ascoli Piceno,Europe,EUCovenantofMayors2021;GCoM2021
Aprica,ITA,City,Italy,20.37,3,46.152697,10.151656,1576,NA,Sondrio,,Europe,EUCovenantofMayors2021;GCoM2021;GCoMHarmonized2021;GCoM2021
Apricale,ITA,City,Italy,19.94,3,43.88333333,7.666666667,625,NA,Imperia,,Europe,EUCovenantofMayors2021;GCoM2021;GCoMHarmonized2021;GCoM2021
Aprigliano,ITA,City,Italy,122.43,3,39.23333333,16.35,2714,NA,Cosenza,,Europe,EUCovenantofMayors2021;GCoM2021;GCoMHarmonized2021;GCoM2021
Aprilia,ITA,City,Italy,178.11,3,41.58333333,12.65,70349,NA,Latina,,Europe,EUCovenantofMayors2021;GCoM2021;GCoMHarmonized2021;GCoM2021
Aqaba Special Economic Zone Authority,JOR,City,Jordan,NA,2,29,35,118000,2005,Aqaba Qasabah District,,Middle East and North Africa,EUCovenantofMayors2021;GCoM2021;GCoMHarmonized2021;GCoM2021
Aquila,MEX,City,Mexico,NA,2,18.79577,-97.30922,1924,NA,Veracruz,,Latin America and Caribbean,GlobalCovenantofMayors2019;NAZCA
Aquitaine,FRA,Region,France,41308,1,44.58333333,0,3300000,2009,NA,,Europe,Under2Coalition2019
Aracaju,BRA,City,Brazil,1167.4,4,-10.9472,-37.0731,641523,2016,São Paulo State,Sergipe,Latin America and Caribbean,CDPCities2020;GCoM2021
Araçatuba,BRA,City,Brazil,1167.4,2,-21.2089,-50.4328,190536,2013,São Paulo State,São Paulo,Latin America and Caribbean,CDPCities2020;GCoM2021
Aracena,ESP,City,Spain,184,3,37.89111111,-6.561111111,7612,2018,Huelva,Sierra de Huelva,Europe,EUCovenantofMayors2021;GCoM2021;GCoMHarmonized2021;GCoM2021
Arad,ROU,City,Romania,46.18,3,46.16666667,21.31666667,172827,NA,NA,,Europe,EUCovenantofMayors2021;GCoM2021;GCoMHarmonized2021;GCoM2021
Aradeo,ITA,City,Italy,8.58,3,40.13333333,18.13333333,9827,NA,Lecce,,Europe,EUCovenantofMayors2021;GCoM2021;GCoMHarmonized2021;GCoM2021
Aradippou,CYP,City,Cyprus,NA,3,34.9527866,33.5899733,19594,2011,Larnaka District,Larnaca,Europe,EUCovenantofMayors2021;GCoM2021;GCoMHarmonized2021;GCoM2021
Arafo,ESP,City,Spain,33.92,NA,28.34,-16.419439999999998,5862,2018,Santa Cruz de Tenerife,Tenerife,Europe,EUCovenantofMayors2021
Aragona,ITA,City,Italy,74.7,2,37.4031776,13.6175534,9493,NA,Agrigento,,Europe,EUCovenantofMayors2021;GCoM2021
Arahal,ESP,City,Spain,201.09,3,37.25,-5.533333333,19585,2018,Seville,La Campiña,Europe,EUCovenantofMayors2021;GCoM2021;GCoMHarmonized2021;GCoM2021
Araitz,ESP,City,Spain,NA,NA,43.03694,-1.98722,512,NA,NA,NA,Europe,EUCovenantofMayors2021
ARAKIL,ESP,City,Spain,NA,NA,42.917,-1.9669999999999999,949,NA,NA,NA,Europe,NA
Aranarache / Aranaratxe,ESP,City,Spain,NA,NA,42.783,-2.217,85,NA,NA,NA,Europe,EUCovenantofMayors2021
Arandas,MEX,City,Mexico,NA,2,20.70549,-102.345154,77116,2005,Jalisco,Los Altos,Latin America and Caribbean,GlobalCovenantofMayors2019;NAZCA
Aranga,ESP,City,Spain,120.49,NA,43.23389,-8.015830000000001,1894,2018,NA,NA,Europe,EUCovenantofMayors2021
Aranjuez,ESP,City,Spain,201.11,3,40.0322347,-3.6039678,58000,2018,Madrid,of Madrid,Europe,EUCovenantofMayors2021;GCoM2021;GCoMHarmonized2021;GCoM2021
Arano,ESP,City,Spain,NA,NA,43.19972,-1.8952799999999999,116,NA,NA,NA,Europe,EUCovenantofMayors2021
Arantza,ESP,City,Spain,NA,NA,43.196000000000005,-1.725,597,NA,NA,NA,Europe,EUCovenantofMayors2021
Araraquara,BRA,City,Brazil,1004,1,-21.7946,-48.1766,266508,2015,São Paulo State,São Paulo,Latin America and Caribbean,CDPCities2018
Ararat,ARM,City,Armenia,NA,1,40.03333333,44.33333333,260367,NA,NA,,Eastern Europe and Central Asia,Under2Coalition2019
Aras,ESP,City,Spain,76,NA,39.92556,-1.13361,374,2018,Valencia,Llíria,Europe,EUCovenantofMayors2021
Aras De Los Olmos,ESP,City,Spain,76,2,39.9242294,-1.1332321,386,2018,Valencia,Los Serranos,Europe,EUCovenantofMayors2021;GCoM2021
Arba Minch,ETH,City,Ethiopia,NA,2,6.020605,37.564109,140000,2017,"Southern Nations, Nationalities, and Peoples",Ethiopia,Sub-Saharan Africa,GlobalCovenantofMayors2019;NAZCA
ARBECA,ESP,City,Spain,58.3,NA,41.541000000000004,0.924,2231,2018,Lleida,Lleida,Europe,EUCovenantofMayors2021
Arbizu,ESP,City,Spain,NA,NA,42.917,-2.033,1124,NA,NA,NA,Europe,EUCovenantofMayors2021
ARBO,ESP,City,Spain,43.3,NA,42.117,-8.317,2637,2018,Pontevedra,Pontevedra,Europe,EUCovenantofMayors2021
Arboleas,ESP,City,Spain,65,3,37.35,-2.066666667,3904,2018,Almería,,Europe,EUCovenantofMayors2021;GCoM2021;GCoMHarmonized2021;GCoM2021
Arbolí,ESP,City,Spain,20.8,3,41.2425941,0.9487676,110,2018,Tarragona,Baix Camp,Europe,EUCovenantofMayors2021;GCoM2021;GCoMHarmonized2021;GCoM2021
Arborea,ITA,City,Italy,115,NA,39.766999999999996,8.583,4068,2017,Oristano,Oristano,Europe,EUCovenantofMayors2021;GCoM2021
Arbúcies,ESP,City,Spain,86.2,3,41.8160485,2.5140573,6713,2018,Girona,Selva,Europe,EUCovenantofMayors2021;GCoM2021;GCoMHarmonized2021;GCoM2021
Arbus,ITA,City,Italy,269.12,2,39.525839,8.597831,6387,NA,South Sardinia,,Europe,EUCovenantofMayors2021;GCoM2021
"Arcata, CA",USA,City,United States of America,24.2682063,2,40.86638889,-124.0827778,17974,2010,California,"Humboldt County, CA",North America,ClimateMayors2019;WeAreStillIn2019
Arce / Artzibar,ESP,City,Spain,27.7,NA,43.30722,-2.385,5354,2018,Gipuzkoa,Gipuzkoa,Europe,EUCovenantofMayors2021
Arcene,ITA,City,Italy,4.35,3,45.58333333,9.616666667,4767,NA,Bergamo,,Europe,EUCovenantofMayors2021;GCoM2021;GCoMHarmonized2021;GCoM2021
Arcevia,ITA,City,Italy,126.25,NA,43.5,12.933,4518,NA,Ancona,Ancona,Europe,EUCovenantofMayors2021
Archena,ESP,City,Spain,16.4,2,38.116774,-1.301143,19500,2018,Murcia,Vega Media del Segura,Europe,EUCovenantofMayors2021;GCoM2021
Árchez,ESP,City,Spain,4.8,3,36.83888889,-3.990555556,437,2018,Málaga,Axarquía,Europe,EUCovenantofMayors2021;GCoM2021;GCoMHarmonized2021;GCoM2021
Archi,ITA,City,Italy,NA,3,42.089937,14.381217,2310,NA,Abruzzo,Chieti,Europe,EUCovenantofMayors2021;GCoM2021;GCoMHarmonized2021;GCoM2021
Archidona,ESP,City,Spain,185.59,3,37.0949676,-4.3909773,8500,2018,Málaga,Comarca of Antequera,Europe,EUCovenantofMayors2021;GCoM2021;GCoMHarmonized2021;GCoM2021
Archipiélago de San Andrés,COL,City,Colombia,NA,1,12.5794,-81.6976,120000,2017,NA,,Latin America and Caribbean,CDPCities2018
Arco,ITA,City,Italy,NA,3,45.91667,10.88333,17322,2011,Trento,,Europe,EUCovenantofMayors2021;GCoM2021;GCoMHarmonized2021;GCoM2021
Arcola,ITA,City,Italy,5.17998,3,44.1143821,9.9059673,9914,2010,La Spezia,,Europe,EUCovenantofMayors2021;GCoM2021;GCoMHarmonized2021;GCoM2021
Arcole,ITA,City,Italy,18.87,2,45.357317,11.28472,6263,NA,Verona,,Europe,EUCovenantofMayors2021;GCoM2021
Arconate,ITA,City,Italy,8.42,3,45.54197,8.848538,6679,NA,Lombardy,Milan,Europe,EUCovenantofMayors2021;GCoM2021;GCoMHarmonized2021;GCoM2021
Arcore,ITA,City,Italy,9.25,3,45.63333333,9.316666667,17838,NA,Monza Brianza,Monza and Brianza,Europe,EUCovenantofMayors2021;GCoM2021;GCoMHarmonized2021;GCoM2021
Arcos de la Frontera,ESP,City,Spain,527.54,NA,36.75,-5.8,30741,2018,Cádiz,Arcos de la Frontera,Europe,EUCovenantofMayors2021;GCoM2021;GCoMHarmonized2021;GCoM2021
Arcos de Valdevez,PRT,City,Portugal,447.6,NA,41.84722,-8.418610000000001,22847,2011,Norte,Viana do Castelo,Europe,EUCovenantofMayors2021;GCoM2021;GCoMHarmonized2021;GCoM2021
Arcugnano,ITA,City,Italy,41.57,2,45.500612,11.535509,7024,NA,Vicenza,,Europe,GlobalCovenantofMayors2019;NAZCA
Ardales,ESP,City,Spain,106,3,36.878757,-4.8464639,2600,2018,Asturias,Málaga,Europe,EUCovenantofMayors2021;GCoM2021;GCoMHarmonized2021;GCoM2021
Ardara,ITA,City,Italy,38.19,3,40.62277778,8.811388889,810,NA,Sassari,,Europe,EUCovenantofMayors2021;GCoM2021;GCoMHarmonized2021;GCoM2021
Ardeh,LBN,City,Lebanon,NA,2,34.4113373,35.919918,5000,NA,Zgharta District,Zgharta,Middle East and North Africa,EUCovenantofMayors2021;GCoM2021
"Arden, DE",USA,City,United States of America,NA,1,39.80916667,-75.48666667,448,NA,Delaware,"New Castle County, DE",North America,WeAreStillIn2019
Ardesio,ITA,City,Italy,54.44,2,45.9382,9.931005,1225,NA,Bergamo,,Europe,EUCovenantofMayors2021;GCoM2021
Ardisa,ESP,City,Spain,27,3,42.33305556,-1.266944444,85,2018,Aragon,Zaragoza,Europe,EUCovenantofMayors2021;GCoM2021;GCoMHarmonized2021;GCoM2021
"Ardsley, NY",USA,City,United States of America,3.366987,1,41.011389,-73.841389,4634,2010,New York State,"Westchester County, NY",North America,ClimateMayors2019
Area Adige Delta Po,ITA,City,Italy,NA,2,45.4708684,11.4963819,33013,NA,Venice,,Europe,EUCovenantofMayors2021;GCoMHarmonized2021
Area Alto Polesine,ITA,City,Italy,1789,2,45.0827517,11.5689043,17299,NA,Venice,,Europe,EUCovenantofMayors2021;GCoMHarmonized2021
AREA PIAVE 1,ITA,City,Italy,78.73,NA,45.633,12.567,41856,2017,NA,Venice,Europe,EUCovenantofMayors2021
Area Rovigo Centrale,ITA,City,Italy,NA,2,45.067567,11.78711,59383,NA,Venice,Padua,Europe,EUCovenantofMayors2021;GCoMHarmonized2021
Area San Pietro Di Feletto - Pieve Di Soligo - Refrontolo,ITA,City,Italy,NA,2,45.9041427,12.1185964,19257,NA,Venice,Treviso,Europe,EUCovenantofMayors2021;GCoMHarmonized2021
Areatza,ESP,City,Spain,9.1,4,43.12083333,-2.769444444,1036,2018,Biscay,Arratia-Nerbioi,Europe,EUCovenantofMayors2021;GCoM2021;GCoMHarmonized2021;GCoM2021
Arellano,ESP,City,Spain,NA,NA,42.60611,-2.04694,157,NA,NA,NA,Europe,EUCovenantofMayors2021
Arenales De San Gregorio,ESP,City,Spain,31.19,3,39.30972222,-3.025555556,703,2018,Ciudad Real,Mancha Alta,Europe,EUCovenantofMayors2021;GCoM2021;GCoMHarmonized2021;GCoM2021
Arenas,ESP,City,Spain,26.3,3,36.81583333,-4.044722222,1411,2018,Cantabria,La Axarquía,Europe,EUCovenantofMayors2021;GCoM2021;GCoMHarmonized2021;GCoM2021
Arenas de San Pedro,ESP,City,Spain,194.85,NA,40.208890000000004,-5.09111,6454,2018,Ávila,Arenas de San Pedro,Europe,EUCovenantofMayors2021
Arenas del Rey,ESP,City,Spain,116,3,36.95777778,-3.899722222,2202,2018,Granada,Comarca de Alhama,Europe,EUCovenantofMayors2021;GCoM2021;GCoMHarmonized2021;GCoM2021
Arendal,NOR,City,Norway,30.86,4,58.4618,8.77245,44630,2017,Aust-Agder,NA,Europe,CDPCities2020;CDPJRC2020;GCoM2021;RacetoZero2020;CDPCities2020;GCoM2021;RacetoZero2020
Arendonk,BEL,City,Belgium,55.38,3,51.3202315,5.0864557,12894,NA,Antwerp Province,Turnhout,Europe,EUCovenantofMayors2021;GCoM2021;GCoMHarmonized2021;GCoM2021
Arenys de Mar,ESP,City,Spain,6.8,NA,41.58194,2.55028,15533,2018,Barcelona,Barcelona,Europe,EUCovenantofMayors2021;GCoM2021;GCoMHarmonized2021;GCoM2021
Arenys de Munt,ESP,City,Spain,21.3,NA,41.61,2.54,8838,2018,Barcelona,Barcelona,Europe,EUCovenantofMayors2021;GCoM2021;GCoMHarmonized2021;GCoM2021
Arenzano,ITA,City,Italy,24.3,3,44.4025183,8.6831317,11431,NA,Genoa,,Europe,EUCovenantofMayors2021;GCoM2021;GCoMHarmonized2021;GCoM2021
Arequipa,PER,City,Peru,2923.53,2,-16.38333333,-71.53333333,784651,2015,NA,,Latin America and Caribbean,CDPCities2020;GCoM2021
Arequito,ARG,City,Argentina,503,2,-33.15,-61.466667,1391298,2010,Santa Fe,Caseros,Latin America and Caribbean,CDPCities2020;GCoM2021;RacetoZero2020
Arese,ITA,City,Italy,6.56,3,45.55,9.066666667,19056,NA,Lombardy,Milan,Europe,EUCovenantofMayors2021;GCoM2021;GCoMHarmonized2021;GCoM2021
Areso,ESP,City,Spain,NA,NA,43.083,-1.95,279,NA,NA,NA,Europe,EUCovenantofMayors2021
Arezzo,ITA,City,Italy,384.7,3,43.4640246,11.86046188,99434,NA,NA,,Europe,EUCovenantofMayors2021;GCoM2021;GCoMHarmonized2021;GCoM2021
Arganda Del Rey,ESP,City,Spain,79.65,2,40.3007708,-3.4380687,56000,2018,Madrid,of Madrid,Europe,EUCovenantofMayors2021;GCoM2021
Argelaguer,ESP,City,Spain,0.1256,3,42.2161,2.641572,430,2018,Girona,Garrotxa,Europe,EUCovenantofMayors2021;GCoM2021
Argelato,ITA,City,Italy,35,NA,44.575829999999996,11.34861,9827,2017,NA,Bologna,Europe,EUCovenantofMayors2021
ARGELITA,ESP,City,Spain,NA,NA,40.05,-0.35,108,NA,NA,NA,Europe,EUCovenantofMayors2021
Argençola,ESP,City,Spain,47.1,3,41.59833333,1.443611111,250,2018,Barcelona Province,Anoia,Europe,EUCovenantofMayors2021;GCoM2021;GCoMHarmonized2021;GCoM2021
Argentona,ESP,City,Spain,25.4,3,41.5554326,2.4002787,11944,2018,Barcelona Province,Maresme,Europe,EUCovenantofMayors2021;GCoM2021;GCoMHarmonized2021;GCoM2021
Argithea,GRC,City,Greece,372.9,2,39.355207,21.538589,6084,2011,Thessaly,Karditsa,Europe,EUCovenantofMayors2021;GCoM2021
Argos Orestiko,GRC,City,Greece,NA,2,40.4531538,21.2598868,11802,2011,West Macedonia,Orestida,Europe,EUCovenantofMayors2021;GCoM2021
Argos-Mykines,GRC,City,Greece,1002.5,3,37.61666667,22.71666667,42022,2011,Peloponnese,Argolis,Europe,EUCovenantofMayors2021;GCoM2021;GCoMHarmonized2021;GCoM2021
Arguedas,ESP,City,Spain,NA,NA,42.17694,-1.59833,2315,NA,NA,NA,Europe,EUCovenantofMayors2021
Argyroupoli,GRC,City,Greece,NA,NA,37.9,23.75,45000,2011,NA,Ano and Kato Argyroupoli,Europe,EUCovenantofMayors2021
Ari,ITA,City,Italy,NA,3,42.29234,14.263011,1319,NA,Chieti Province,Chieti,Europe,EUCovenantofMayors2021;GCoM2021;GCoMHarmonized2021;GCoM2021
Ariano Irpino,ITA,City,Italy,186.74,2,41.154893,15.092276,22517,NA,Avellino,,Europe,EUCovenantofMayors2021;GCoM2021
ARIANO NEL POLESINE,ITA,City,Italy,80.63,NA,44.95,12.117,4394,2017,Rovigo,Rovigo,Europe,EUCovenantofMayors2021
Ariany,ESP,City,Spain,23.1286107,2,39.650895,3.112115,872,2018,Baleares,Pla de Mallorca,Europe,EUCovenantofMayors2021;GCoM2021
Arias,ARG,City,Argentina,NA,3,-33.6422087,-62.4038412,7075,NA,Córdoba,,Latin America and Caribbean,NAZCA2020;DDLNetZeroDB2020;GlobalCovenantofMayors2019;Carbonn2019ZCA;RacetoZero2020
Ariccia,ITA,City,Italy,18.59,3,41.720709,12.6713481,18381,NA,Rome,,Europe,EUCovenantofMayors2021;GCoM2021;GCoMHarmonized2021;GCoM2021
Arico,ESP,City,Spain,178.76,NA,28.166999999999998,-16.467,7988,2018,Santa Cruz de Tenerife,Tenerife,Europe,EUCovenantofMayors2021
Arielli,ITA,City,Italy,11.72,3,42.26666667,14.3,1250,NA,Chieti Province,Chieti,Europe,EUCovenantofMayors2021;GCoM2021;GCoMHarmonized2021;GCoM2021
Aristotle,GRC,City,Greece,NA,2,40.470394,23.715681,18861,NA,Central Macedonia,,Europe,EUCovenantofMayors2021;GCoM2021
Aritzo,ITA,City,Italy,75.58,3,39.95,9.2,1331,NA,Nuoro,,Europe,EUCovenantofMayors2021;GCoM2021;GCoMHarmonized2021;GCoM2021
Arizona,USA,Region,United States of America,NA,1,34,-112,7016270,2017,NA,,North America,ClimateAlliance2019
Arizzano,ITA,City,Italy,1.6,3,45.96666667,8.583333333,2080,NA,Verbano-Cusio-Ossola,,Europe,EUCovenantofMayors2021;GCoM2021;GCoMHarmonized2021;GCoM2021
Arjeplogs,SWE,City,Sweden,2.29,3,66.05,17.88333333,3069,2010,Norrbotten County,Lapland,Europe,EUCovenantofMayors2021;GCoM2021
Arjona,ESP,City,Spain,154.45,3,37.935,-4.056944444,5826,2018,Jaén,Campiña,Europe,EUCovenantofMayors2021;GCoM2021;GCoMHarmonized2021;GCoM2021
Arjonilla,ESP,City,Spain,42,3,37.96666667,-4.1,3837,2018,Jaén,NA,Europe,EUCovenantofMayors2021;GCoM2021;GCoMHarmonized2021;GCoM2021
"Arlington County, VA",USA,City,United States of America,70,1,38.880278,-77.108333,234965,NA,Virginia,NA,North America,WeAreStillIn2019
"Arlington, MA",USA,City,United States of America,25.1747028,1,48.18111111,-122.1388889,17926,NA,Massachusetts,"Middlesex County, MA",North America,WeAreStillIn2019
"Arlington, VA",USA,City,United States of America,2.7194895,3,38.8903961,-77.0841584,220400,2010,Virginia,"Arlington County, VA",North America,CDPCities2020;GCoM2021
Arlon,BEL,City,Belgium,118.64,2,49.68514,5.81048,28259,NA,Luxembourg,NA,Europe,EUCovenantofMayors2021;GCoM2021
Arluno,ITA,City,Italy,12.36,3,45.50507,8.941541,9815,NA,Lombardy,Milan,Europe,EUCovenantofMayors2021;GCoM2021;GCoMHarmonized2021;GCoM2021
Armamar,PRT,City,Portugal,117.24,3,41.10944444,-7.692222222,6258,2011,Norte,NA,Europe,EUCovenantofMayors2021;GCoM2021;GCoMHarmonized2021;GCoM2021
