name,iso,entity_type,country,area,initiatives_committed,num_commit,lat,lng,population,population_year,state,admin_1,region
!Kheis,ZAF,City,South Africa,11107,GlobalCovenantofMayors2019;NAZCA,2,-30.4620482,17.9929881,16637,2011,Northern Cape,,Sub-Saharan Africa
25 De Mayo,ARG,City,Argentina,NA,Race to Zero;NAZCA2020,2,-35.416667,-60.166667,23408,2010,Buenos Aires,Veinticinco de Mayo,Latin America and Caribbean
A Bola,ESP,City,Spain,34.9,EUCovenantofMayors2019;GlobalCovenantofMayors2019;NAZCA,3,42.15194444,-7.913888889,1339,2018,Cáceres,Terra de Celanova,Europe
A Coruña,ESP,City,Spain,37.83,GlobalCovenantofMayors2019;Carbonn2019;EUCovenantofMayors2019;NAZCA,4,43.3712091,-8.3958767,247482,2018,NA,,Europe
Å empeter-Vrtojba,SVN,City,Slovenia,15,GlobalCovenantofMayors2019;EUCovenantofMayors2019;NAZCA,3,45.916667,13.65,6269,NA,Šempeter–Vrtojba,,Europe
Aachen,DEU,City,Germany,160.85,GlobalCovenantofMayors2019;EUCovenantofMayors2019;NAZCA,3,50.776351,6.083862,244509,NA,North Rhine-Westphalia,NA,Europe
Aalborg,DNK,City,Denmark,139,EUCovenantofMayors2019;GlobalCovenantofMayors2019;NAZCA,3,57.05,9.916666667,205809,2016,North Denmark Region,NA,Europe
Aalst,BEL,City,Belgium,78.12,EUCovenantofMayors2019;GlobalCovenantofMayors2019;NAZCA,3,50.93333333,4.033333333,83267,NA,East Flanders,NA,Europe
Aarhus,DNK,City,Denmark,468,GlobalCovenantofMayors2019;NAZCA,2,56.1496278,10.2134046,305000,2018,Central Denmark Region,NA,Europe
Aarschot,BEL,City,Belgium,62.52,GlobalCovenantofMayors2019;EUCovenantofMayors2019;NAZCA,3,50.9855815,4.834949915,28760,NA,Flemish Brabant,Leuven,Europe
Abaetetuba,BRA,City,Brazil,430.9,GlobalCovenantofMayors2019;NAZCA,2,-1.72509,-48.889938,153553,NA,Pará,,Latin America and Caribbean
Abanilla,ESP,City,Spain,236.6,GlobalCovenantofMayors2019;NAZCA,2,38.205181,-1.04066,6500,2018,Murcia,Comarca Oriental,Europe
Abano Terme,ITA,City,Italy,21.41,EUCovenantofMayors2019;GlobalCovenantofMayors2019;NAZCA,3,45.36027778,11.79,18206,NA,Padua,,Europe
Abanto-Zierbena,ESP,City,Spain,18.03,GlobalCovenantofMayors2019;EUCovenantofMayors2019;NAZCA,3,43.31184035,-3.089286215,9724,2018,Biscay,Greater Bilbao,Europe
Abarán,ESP,City,Spain,115,EUCovenantofMayors2019;GlobalCovenantofMayors2019;NAZCA,3,38.2,-1.4,13110,2018,Murcia,Santiago,Europe
Abasan Al-Kabira,PSE,City,Palestine,NA,GlobalCovenantofMayors2019;EUCovenantofMayors2019;Carbonn2019;CDPCities2018;NAZCA,5,31.3238491,34.3497101,32000,2017,State of Palestine,Khan Yunis,Middle East and North Africa
Abbadia Lariana,ITA,City,Italy,16.67,EUCovenantofMayors2019;GlobalCovenantofMayors2019;NAZCA,3,45.9,9.333333333,3249,NA,Lecco,,Europe
Abbateggio,ITA,City,Italy,15.4,EUCovenantofMayors2019;GlobalCovenantofMayors2019;NAZCA,3,42.23333333,14.01666667,443,NA,Pescara,,Europe
Abbiategrasso,ITA,City,Italy,47.78,GlobalCovenantofMayors2019;EUCovenantofMayors2019;NAZCA,3,45.400767,8.918542,30000,NA,Lombardy,Milan,Europe
Abéché,TCD,City,Chad,NA,GlobalCovenantofMayors2019;NAZCA,2,13.835912,20.843371,200000,2012,Ouaddaï Region,NA,Sub-Saharan Africa
Abegondo,ESP,City,Spain,83.81,GlobalCovenantofMayors2019;NAZCA,2,43.21912,-8.297905,7509,2018,A Coruña,,Europe
Aberdeen,GBR,City,United Kingdom,NA,GlobalCovenantofMayors2019;EUCovenantofMayors2019;NAZCA,3,57.1452452,-2.0913744,213810,NA,Scotland,United Kingdom,Europe
Aberdeenshire,GBR,Region,United Kingdom,6313,GlobalCovenantofMayors2019,1,57.16666667,-2.666666667,243510,NA,NA,,Europe
Abertura,ESP,City,Spain,NA,GlobalCovenantofMayors2019;NAZCA,2,39.24395,-5.8147,456,NA,Cáceres,,Europe
Abidjan,CIV,City,Cote d'Ivoire,422,C40Cities2019;GlobalCovenantofMayors2019;NAZCA,3,5.316666667,-4.033333333,3677115,NA,NA,,Sub-Saharan Africa
Abiko,JPN,City,Japan,43.19,JapanMOEZeroCarbonCities,1,35.866667,140.033333,132999,2012,Kantō,Chiba Prefecture,East Asia and the Pacific
"Abington, PA",USA,City,United States of America,25.122903,CDPCities2018,1,40.1241,-75.1195,55310,2010,Pennsylvania,"Montgomery County, PA",North America
Abla,ESP,City,Spain,45.24,GlobalCovenantofMayors2019;EUCovenantofMayors2019;NAZCA,3,37.1416926,-2.7792317,1505,2018,Almería,,Europe
Aboisso,CIV,City,Cote d'Ivoire,NA,GlobalCovenantofMayors2019;NAZCA,2,5.474511,-3.203076,63332,2014,Comoé,Sud-Comoe,Sub-Saharan Africa
Abrantes,PRT,City,Portugal,714.69,GlobalCovenantofMayors2019;EUCovenantofMayors2019;NAZCA,3,39.440102950000004,-8.128236307,19132,2011,Centro,Santarém,Europe
Abrera,ESP,City,Spain,19.9,EUCovenantofMayors2019;GlobalCovenantofMayors2019;NAZCA,3,41.51666667,1.9,11521,2018,Barcelona Province,Baix Llobregat,Europe
Abriola,ITA,City,Italy,97.19,GlobalCovenantofMayors2019;EUCovenantofMayors2019;NAZCA,3,40.5078822,15.8137603,1617,NA,Potenza,,Europe
Abrucena,ESP,City,Spain,83,GlobalCovenantofMayors2019;EUCovenantofMayors2019;NAZCA,3,37.1332098,-2.7974819,1358,2018,Almería,,Europe
Abruzzo,ITA,Region,Italy,10763,Under2Coalition2019;NAZCA,2,42.36611111,12.39444444,1326513,2016,NA,,Europe
Abuja,NGA,City,Nigeria,1769,CDPCities2018,1,9.07647,7.39857,2440000,2017,Federal Capital Territory,,Sub-Saharan Africa
Aburrá Valley,COL,City,Colombia,1152,Carbonn2019;NAZCA,2,6,-75,3591963,NA,Antioquia,,Latin America and Caribbean
Acate,ITA,City,Italy,102.47,EUCovenantofMayors2019;GlobalCovenantofMayors2019;NAZCA,3,37.03388889,14.49416667,10432,NA,Ragusa,,Europe
Accadia,ITA,City,Italy,30.74,EUCovenantofMayors2019;GlobalCovenantofMayors2019;NAZCA,3,41.16666667,15.33333333,2470,NA,Foggia,,Europe
Accettura,ITA,City,Italy,90.37,EUCovenantofMayors2019;GlobalCovenantofMayors2019;NAZCA,3,40.48333333,16.15,2020,NA,Matera,,Europe
Acciano,ITA,City,Italy,32.22,EUCovenantofMayors2019;GlobalCovenantofMayors2019;NAZCA,3,42.18333333,13.73333333,339,NA,Province of L'Aquila,,Europe
Accra,GHA,City,Ghana,225.67,GlobalCovenantofMayors2019;C40Cities2019;CDPCities2018;NAZCA,4,5.5600141,-0.2057436,1986580,2017,Greater Accra Region,,Sub-Saharan Africa
Acered,ESP,City,Spain,30,GlobalCovenantofMayors2019;EUCovenantofMayors2019;NAZCA,3,41.1704796,-1.6042984,243,2018,Zaragoza,NA,Europe
Acerenza,ITA,City,Italy,77.64,EUCovenantofMayors2019;GlobalCovenantofMayors2019;NAZCA,3,40.79690278,15.94068056,2623,NA,Potenza,,Europe
Acharnes,GRC,City,Greece,149.96,GlobalCovenantofMayors2019;NAZCA,2,38.08522,23.738064,80121,2011,Attica,East Attica,Europe
Aci Bonaccorsi,ITA,City,Italy,1.72,GlobalCovenantofMayors2019;NAZCA,2,37.595517,15.109543,3272,NA,Sicily,Catania,Europe
Aci Castello,ITA,City,Italy,8.71,GlobalCovenantofMayors2019;EUCovenantofMayors2019;NAZCA,3,37.5542111,15.14856,18080,NA,Catania,,Europe
Aci Catena,ITA,City,Italy,8.53,GlobalCovenantofMayors2019;NAZCA,2,37.606435,15.141924,29662,NA,Sicily,Catania,Europe
Aci Sant'Antonio,ITA,City,Italy,14.33,GlobalCovenantofMayors2019;EUCovenantofMayors2019;NAZCA,3,37.6064186,15.1260733,17479,NA,Catania,,Europe
Acigné,FRA,City,France,NA,GlobalCovenantofMayors2019;NAZCA,2,48.13368,-1.53385,5246,2016,Brittany,Liffré,Europe
Acireale,ITA,City,Italy,40.43,GlobalCovenantofMayors2019;EUCovenantofMayors2019;NAZCA,3,37.6127773,15.1658804,53122,NA,Catania,,Europe
Acquanegra sul Chiese,ITA,City,Italy,28.01,EUCovenantofMayors2019;GlobalCovenantofMayors2019;NAZCA,3,45.16666667,10.43333333,3016,NA,Mantua,,Europe
Acquapendente,ITA,City,Italy,131.61,GlobalCovenantofMayors2019;NAZCA,2,42.747723,11.86302,5619,NA,Viterbo,,Europe
Acquappesa,ITA,City,Italy,14.45,EUCovenantofMayors2019;GlobalCovenantofMayors2019;NAZCA,3,39.5,15.95,1882,NA,Cosenza,,Europe
Acquarica del capo,ITA,City,Italy,18.7,GlobalCovenantofMayors2019;NAZCA,2,39.907845,18.231821,4951,NA,Lecce,,Europe
Acquaviva Collecroce,ITA,City,Italy,28.6,EUCovenantofMayors2019;GlobalCovenantofMayors2019;NAZCA,3,41.86666667,14.75,674,NA,Campobasso,,Europe
Acquaviva delle Fonti,ITA,City,Italy,132.03,EUCovenantofMayors2019;GlobalCovenantofMayors2019;NAZCA,3,40.9,16.85,21000,NA,Bari,,Europe
Acquaviva Platani,ITA,City,Italy,14.63,EUCovenantofMayors2019;GlobalCovenantofMayors2019;NAZCA,3,37.56666667,13.7,1033,NA,Caltanissetta,,Europe
Acquedolci,ITA,City,Italy,12.93,EUCovenantofMayors2019;NAZCA,2,38.05,14.58333333,5500,2015,Messina,,Europe
Acqui Terme,ITA,City,Italy,33.42,Race to Zero,NA,44.683,8.467,19961,2017,Alessandria,Alessandria,NA
Acre,BRA,Region,Brazil,152581,Under2Coalition2019;NAZCA,2,-9.116666667,-70.51666667,790101,2014,NA,,Latin America and Caribbean
Acri,ITA,City,Italy,200.63,GlobalCovenantofMayors2019;NAZCA,2,39.488691,16.382857,21195,NA,Cosenza,,Europe
"Acton, MA",USA,City,United States of America,NA,WeAreStillIn2019,1,42.485,-71.43333333,219292,NA,Massachusetts,"Middlesex County, MA",North America
Adachi,JPN,City,Japan,53,Carbonn2019,1,35.78333333,139.8,669143,2015,Tokyo Metropolis,Tokyo,East Asia and the Pacific
"Adams County, CO",USA,City,United States of America,NA,Carbonn2019,1,38.79388889,-83.54361111,45913,2017,Colorado,,North America
"Adams, MA",USA,City,United States of America,59.310771,GlobalCovenantofMayors2019;NAZCA,2,39.839827,-104.193092,498187,2010,Massachusetts,"Berkshire County, MA",North America
Adamuz,ESP,City,Spain,334,EUCovenantofMayors2019;GlobalCovenantofMayors2019;NAZCA,3,38.01666667,-4.516666667,4476,2018,Córdoba,Alto Guadalquivir,Europe
Addis Ababa,ETH,City,Ethiopia,527,C40Cities2019;CDPCities2018;GlobalCovenantofMayors2019;NAZCA,4,9.03,38.74,3103374,2013,NA,Ethiopia,Sub-Saharan Africa
Adeje,ESP,City,Spain,105.95,GlobalCovenantofMayors2019;NAZCA,2,28.1219416,-16.7241892,46667,2018,Santa Cruz de Tenerife,Tenerife,Europe
Adelaide,AUS,City,Australia,3257.7,Carbonn2019;GlobalCovenantofMayors2019;CDPCities2018;NAZCA,4,-34.92888889,138.6011111,23916,2017,South Australia,,East Asia and the Pacific
Ademuz,ESP,City,Spain,100.42,GlobalCovenantofMayors2019;NAZCA,2,40.0632676,-1.2862303,1092,2018,Valencia,Rincón de Ademuz,Europe
Adjud,ROU,City,Romania,59.1,GlobalCovenantofMayors2019;NAZCA,2,46.096196,27.18219,17585,2011,Vrancea County,Vrancea,Europe
Administration commmunale de Seneffe,BEL,City,Belgium,NA,GlobalCovenantofMayors2019;NAZCA,2,50.52964,4.256984,11161,NA,Wallonia,Charleroi,Europe
Administration communale d'Estinnes,BEL,City,Belgium,NA,GlobalCovenantofMayors2019;NAZCA,2,50.516667,4.25,2475,2018,Wallonia,Thuin,Europe
Administration Communale de Tellin,BEL,City,Belgium,56.64,EUCovenantofMayors2019;GlobalCovenantofMayors2019;NAZCA,3,50.081667,5.218333,2468,NA,Luxembourg,Neufchâteau,Europe
Ador,ESP,City,Spain,13.8,GlobalCovenantofMayors2019;NAZCA,2,38.9177071,-0.2249926,1374,2018,Valencia,Safor,Europe
Adra,ESP,City,Spain,83.22,EUCovenantofMayors2019;GlobalCovenantofMayors2019;NAZCA,3,37.66666667,14.83333333,23195,NA,Almería,,Europe
Adrano,ITA,City,Italy,83.22,GlobalCovenantofMayors2019;EUCovenantofMayors2019;NAZCA,3,37.661966,14.8333672,35519,NA,Catania,,Europe
Ærø,DNK,City,Denmark,NA,CDPCities2018;GlobalCovenantofMayors2019;EUCovenantofMayors2019;NAZCA,4,54.8914,10.4047,6180,2017,South Denmark Region,Southern Denmark,Europe
Affi,ITA,City,Italy,9.88,GlobalCovenantofMayors2019;EUCovenantofMayors2019;NAZCA,3,45.5540914,10.7764241,1942,NA,Verona,,Europe
Afragola,ITA,City,Italy,17.91,GlobalCovenantofMayors2019;NAZCA,2,40.923039,14.309304,63674,NA,Naples,,Europe
Agadir,MAR,City,Morocco,NA,EUCovenantofMayors2019;GlobalCovenantofMayors2019;NAZCA,3,30.43333333,-9.6,450000,2014,Agadir-Ida Ou Tanane,,Middle East and North Africa
Agaete,ESP,City,Spain,45.5,GlobalCovenantofMayors2019;NAZCA,2,28.100259,-15.699674,5558,2018,Las Palmas,Gran Canaria,Europe
Agência de energia MédioTejo21,PRT,City,Portugal,NA,GlobalCovenantofMayors2019;EUCovenantofMayors2019,2,39.53604175,-8.332223294,219465,NA,Santarém,,Europe
Àger,ESP,City,Spain,160.6,GlobalCovenantofMayors2019;EUCovenantofMayors2019;NAZCA,3,42.0000879,0.7632247,590,2018,Lleida,Noguera,Europe
Agerola,ITA,City,Italy,19.83,GlobalCovenantofMayors2019;EUCovenantofMayors2019;NAZCA,3,40.637707,14.538839,7500,NA,Naples,,Europe
Aggregazione BERNEZZO,ITA,City,Italy,NA,GlobalCovenantofMayors2019;EUCovenantofMayors2019,2,44.3886068,7.4332093,5631,NA,Cuneo,,Europe
Aggregazione Castelletto Stura,ITA,City,Italy,NA,GlobalCovenantofMayors2019;EUCovenantofMayors2019,2,44.4417886,7.638649,9322,NA,Cuneo,,Europe
Aggregazione Ceva,ITA,City,Italy,NA,GlobalCovenantofMayors2019;EUCovenantofMayors2019,2,44.386254,8.029079,6678,NA,Cuneo,,Europe
Aggregazione Diano D'alba,ITA,City,Italy,NA,EUCovenantofMayors2019;GlobalCovenantofMayors2019,2,44.6515358,8.0252513,5643,NA,Cuneo,,Europe
Aggregazione Dro-Roc-Vil,ITA,City,Italy,27,GlobalCovenantofMayors2019;EUCovenantofMayors2019,2,45.961111,10.911111,4030,NA,Trento,,Europe
Aggregazione Garessio,ITA,City,Italy,NA,GlobalCovenantofMayors2019;EUCovenantofMayors2019,2,44.202931,8.0192528,5155,NA,Cuneo,,Europe
Aggregazione Genola,ITA,City,Italy,NA,GlobalCovenantofMayors2019;EUCovenantofMayors2019,2,44.588936,7.66453,2661,NA,Cuneo,,Europe
Aggregazione MARENE,ITA,City,Italy,NA,GlobalCovenantofMayors2019;EUCovenantofMayors2019,2,44.6615577,7.7270091,5359,NA,Cuneo,,Europe
Aggregazione Niella Belbo,ITA,City,Italy,NA,GlobalCovenantofMayors2019;EUCovenantofMayors2019,2,44.51376,8.08048,7835,NA,Cuneo,,Europe
Aggregazione Robilante-Roccavione,ITA,City,Italy,NA,GlobalCovenantofMayors2019;EUCovenantofMayors2019,2,44.2945397,7.509191,5203,NA,Cuneo,,Europe
Aggregazione Saliceto,ITA,City,Italy,NA,GlobalCovenantofMayors2019;EUCovenantofMayors2019,2,44.41439,8.16987,5018,NA,Cuneo,,Europe
Aggregazione Sommariva del Bosco,ITA,City,Italy,NA,GlobalCovenantofMayors2019;EUCovenantofMayors2019,2,44.768741,7.78533,21367,NA,Cuneo,,Europe
Aggregazione Vicoforte,ITA,City,Italy,NA,EUCovenantofMayors2019;GlobalCovenantofMayors2019,2,44.3744419,7.8725517,8567,NA,Cuneo,,Europe
Aggregazione Villanova Mondovì,ITA,City,Italy,NA,GlobalCovenantofMayors2019,1,44.348514,7.767477,10206,NA,Cuneo,,Europe
Aghios Nikolaos,GRC,City,Greece,NA,GlobalCovenantofMayors2019;EUCovenantofMayors2019;NAZCA,3,36.8243276,22.2811442,27074,2011,Crete,,Europe
Agia,GRC,City,Greece,NA,EUCovenantofMayors2019;GlobalCovenantofMayors2019;NAZCA,3,39.03333333,26.41666667,14121,NA,Nomos Larisis,,Europe
Agia Paraskevi,GRC,City,Greece,7.935,GlobalCovenantofMayors2019;EUCovenantofMayors2019;NAZCA,3,39.2475388,26.2711986,59704,2011,Attica,,Europe
Agia Varvara,GRC,City,Greece,2.425,EUCovenantofMayors2019;GlobalCovenantofMayors2019;NAZCA,3,38,23.65,26490,2011,Attica,West Athens,Europe
Agioi Anargyroi-Kamatero,GRC,City,Greece,9.15,EUCovenantofMayors2019;GlobalCovenantofMayors2019;NAZCA,3,38.03333333,23.71666667,55191,2011,Attica,West Athens,Europe
Agios Athanasios,CYP,City,Cyprus,NA,GlobalCovenantofMayors2019;EUCovenantofMayors2019;NAZCA,3,34.7093395,33.0504749,15500,2011,Limassol District,Limassol,Europe
Agios Dimitrios,GRC,City,Greece,4.949,EUCovenantofMayors2019;GlobalCovenantofMayors2019;Carbonn2019;NAZCA,4,37.93333333,23.73333333,70000,2011,Attica,South Athens,Europe
Agira,ITA,City,Italy,164.08,GlobalCovenantofMayors2019;NAZCA,2,37.661603,14.51201,8500,NA,Enna,,Europe
Aglandjia,CYP,City,Cyprus,NA,GlobalCovenantofMayors2019;NAZCA,2,35.1523806,33.3977301,22000,2011,Nicosia District,Nicosia,Europe
Agna,ITA,City,Italy,18.8,GlobalCovenantofMayors2019;EUCovenantofMayors2019;NAZCA,3,45.1702381,11.9603017,3405,NA,Parma,Padua,Europe
Agnone,ITA,City,Italy,96.85,GlobalCovenantofMayors2019;EUCovenantofMayors2019;NAZCA,3,41.8095612,14.3770463,5253,NA,Isernia,,Europe
Agnosine,ITA,City,Italy,13.55,EUCovenantofMayors2019;GlobalCovenantofMayors2019;NAZCA,3,45.65,10.35,1875,NA,Brescia,,Europe
Agona East,GHA,City,Ghana,NA,GlobalCovenantofMayors2019;NAZCA,2,5.603215,-0.791323,101522,NA,Central Region,,Sub-Saharan Africa
Agost,ESP,City,Spain,66.64,GlobalCovenantofMayors2019;EUCovenantofMayors2019;NAZCA,3,38.436906,-0.6396686,4752,2018,Alicante,Campo de Alicante,Europe
Agrafa,GRC,City,Greece,920.3,GlobalCovenantofMayors2019;NAZCA,2,39.1359953,21.6494392,14365,2011,Central Greece,Evrytania,Europe
Agramunt,ESP,City,Spain,79.6,GlobalCovenantofMayors2019;EUCovenantofMayors2019;NAZCA,3,41.7876693,1.0986828,5735,2018,Lleida,Urgell,Europe
Agrate Brianza,ITA,City,Italy,11.22,EUCovenantofMayors2019;GlobalCovenantofMayors2019;NAZCA,3,45.58333333,9.35,15035,NA,Monza Brianza,Monza and Brianza,Europe
Agres,ESP,City,Spain,25.8,GlobalCovenantofMayors2019;EUCovenantofMayors2019;NAZCA,3,38.7799007,-0.5157277,583,2018,Alicante,Comtat,Europe
Agrigento,ITA,City,Italy,245.32,GlobalCovenantofMayors2019;NAZCA,2,37.309407,13.585982,57000,NA,NA,,Europe
Agrinio,GRC,City,Greece,1229.33,GlobalCovenantofMayors2019;NAZCA,2,38.6247709,21.4095037,92608,2011,West Greece,Aetolia-Acarnania,Europe
Agrón,ESP,City,Spain,27,EUCovenantofMayors2019;GlobalCovenantofMayors2019;NAZCA,3,37.03,-3.829166667,342,2018,Granada,Comarca de Alhama,Europe
Agropoli,ITA,City,Italy,32.77,GlobalCovenantofMayors2019;EUCovenantofMayors2019,2,40.346905,14.996553,35823,NA,Salerno,,Europe
Agros,CYP,City,Cyprus,NA,GlobalCovenantofMayors2019;EUCovenantofMayors2019;NAZCA,3,34.916667,33.016667,804,2011,Limassol District,,Europe
Aguadulce,ESP,City,Spain,50.4,EUCovenantofMayors2019;GlobalCovenantofMayors2019;NAZCA,3,37.25222,-4.9925,2169,2010,Almería,,Europe
Aguascalientes,MEX,City,Mexico,385,Carbonn2019;Under2Coalition2019,2,21.876,-102.296,934424,NA,NA,,Latin America and Caribbean
Águeda,PRT,City,Portugal,335.27,CDPCities2018;GlobalCovenantofMayors2019;EUCovenantofMayors2019;NAZCA,4,40.5753,-8.44582,47729,2011,Centro,Aveiro,Europe
Aguilar de Segarra,ESP,City,Spain,43.3,GlobalCovenantofMayors2019;EUCovenantofMayors2019;NAZCA,3,41.7394902,1.6316676,257,2018,Barcelona Province,Bages,Europe
Águilas,ESP,City,Spain,251.77,GlobalCovenantofMayors2019;EUCovenantofMayors2019;NAZCA,3,37.4099628,-1.5804921,34828,2018,Murcia,Alto Guadalentín,Europe
Agullana,ESP,City,Spain,27.7,EUCovenantofMayors2019;GlobalCovenantofMayors2019;NAZCA,3,42.4,2.85,900,2018,Girona,Alt Empordà,Europe
Agullent,ESP,City,Spain,16.2,GlobalCovenantofMayors2019;NAZCA,2,38.8233412,-0.5473744,2395,2018,Valencia,Vall d'Albaida,Europe
Ahillones,ESP,City,Spain,21.5,GlobalCovenantofMayors2019;NAZCA,2,38.259139,-5.865061,1001,2018,Badajoz,Campiña Sur,Europe
Ahmedabad,IND,City,India,464,Carbonn2019,1,23.03333333,72.58333333,5570585,2011,Gujarat,NA,South Asia
Aichi Prefecture,JPN,Region,Japan,5165,Carbonn2019,1,35.18018889,136.9135083,7507553,2016,NA,,East Asia and the Pacific
Aicurzio,ITA,City,Italy,2.47,EUCovenantofMayors2019;GlobalCovenantofMayors2019;NAZCA,3,45.63333333,9.416666667,2087,NA,Monza Brianza,Monza and Brianza,Europe
Aidone,ITA,City,Italy,210.78,GlobalCovenantofMayors2019;NAZCA,2,37.415915,14.445496,5023,NA,Enna,,Europe
Aielli,ITA,City,Italy,37.52,GlobalCovenantofMayors2019;EUCovenantofMayors2019;NAZCA,3,42.08083,13.590599,1448,NA,Province of L'Aquila,L'Aquila,Europe
Aiello Calabro,ITA,City,Italy,38.51,GlobalCovenantofMayors2019;EUCovenantofMayors2019;NAZCA,3,39.1174689,16.1666633,2017,NA,Cosenza,,Europe
Aiello del Sabato,ITA,City,Italy,10.87,GlobalCovenantofMayors2019;NAZCA,2,40.884294,14.816278,4050,NA,Avellino,,Europe
Aielo De Rugat,ESP,City,Spain,7.66,GlobalCovenantofMayors2019;NAZCA,2,38.8820867,-0.3442155,200,2018,Valencia,Vall d'Albaida,Europe
Aigaleo,GRC,City,Greece,6.45,GlobalCovenantofMayors2019;EUCovenantofMayors2019;NAZCA,3,37.9928313,23.68159021,120000,2011,Attica,West Athens,Europe
Aigialeia,GRC,City,Greece,723.1,GlobalCovenantofMayors2019;EUCovenantofMayors2019;NAZCA,3,38.140844,22.25179945,49872,2011,West Greece,Achaea,Europe
Aiguafreda,ESP,City,Spain,7.9,GlobalCovenantofMayors2019;EUCovenantofMayors2019;NAZCA,3,41.7692525,2.2517162,2505,2018,Barcelona Province,Vallès Oriental,Europe
Aiguamúrcia,ESP,City,Spain,73.2,EUCovenantofMayors2019;GlobalCovenantofMayors2019;NAZCA,3,41.32888889,1.358888889,909,2018,Tarragona,Alt Camp,Europe
Aiguaviva,ESP,City,Spain,13.9,GlobalCovenantofMayors2019;EUCovenantofMayors2019;NAZCA,3,41.9381188,2.7626201,765,2018,Girona,Gironès,Europe
Aigües,ESP,City,Spain,18.47,GlobalCovenantofMayors2019;EUCovenantofMayors2019;NAZCA,3,38.500265,-0.3634257,984,2018,Valencia,Alacantí,Europe
Ailano,ITA,City,Italy,16.06,GlobalCovenantofMayors2019;NAZCA,2,41.391372,14.207422,1384,NA,Caserta,,Europe
Ainzón,ESP,City,Spain,40,GlobalCovenantofMayors2019;EUCovenantofMayors2019;NAZCA,3,41.8160689,-1.5196969,1214,2018,Zaragoza,NA,Europe
Aipromades Lago de Chapala,MEX,City,Mexico,385.58,GlobalCovenantofMayors2019;NAZCA,2,20.305278,-103.184722,50738,NA,Jalisco,,Latin America and Caribbean
Airasca,ITA,City,Italy,15.74,GlobalCovenantofMayors2019;NAZCA,2,44.917111,7.489349,3808,NA,Cuneo,Turin,Europe
Airola,ITA,City,Italy,14.9,GlobalCovenantofMayors2019;NAZCA,2,41.0610225,14.5584304,8140,NA,Benevento,,Europe
Airuno,ITA,City,Italy,4.29,GlobalCovenantofMayors2019;EUCovenantofMayors2019;NAZCA,3,45.75388,9.424247,2994,NA,Lecco,,Europe
Aitona,ESP,City,Spain,66.9,GlobalCovenantofMayors2019;NAZCA,2,41.4939531,0.4591083,2456,2018,Lleida,Segrià,Europe
Aiud,ROU,City,Romania,142.52,GlobalCovenantofMayors2019;EUCovenantofMayors2019;NAZCA,3,46.3108411,23.7188503,28934,2011,Alba County,Alba,Europe
"Ajax, ON",CAN,City,Canada,67.07,CDPCities2018;Carbonn2019,2,43.8509,-79.0204,119677,2016,Ontario,"Durham, ON",North America
Ajuntament D'Argelaguer,ESP,City,Spain,NA,EUCovenantofMayors2019,1,42,2.641429901,430,2015,Girona,Garrotxa,Europe
Ajuntament d'Espinelves,ESP,City,Spain,NA,GlobalCovenantofMayors2019;EUCovenantofMayors2019;NAZCA,3,41.8686935,2.4177195,201,NA,Girona,Osona,Europe
Akashi,JPN,City,Japan,49,Carbonn2019,1,34.65,135,290776,2017,Hyogo Prefecture,,East Asia and the Pacific
Akatsi North,GHA,City,Ghana,NA,GlobalCovenantofMayors2019;NAZCA,2,6.36419,0.85461,40738,NA,Volta,Akatsi South,Sub-Saharan Africa
Akershus,NOR,City,Norway,4579,Under2Coalition2019,1,60,11,615000,2017,NA,Ås,Europe
Akhaltsikhe,GEO,City,Georgia,NA,EUCovenantofMayors2019;GlobalCovenantofMayors2019;NAZCA,3,41.63888889,42.98611111,19200,2014,Samtskhe-Javakheti,,Eastern Europe and Central Asia
Akhmeta,GEO,City,Georgia,NA,GlobalCovenantofMayors2019;NAZCA,2,42.03852,45.206841,34154,NA,Kakheti,Georgia,Eastern Europe and Central Asia
Akhtala,ARM,City,Armenia,4.3,GlobalCovenantofMayors2019;NAZCA,2,41.150494,44.763959,2753,NA,Lori,,Eastern Europe and Central Asia
Akita City,JPN,City,Japan,906,Carbonn2019,1,39.72002778,140.1025833,320909,2016,Akita Prefecture,,East Asia and the Pacific
Akita Prefecture,JPN,Region,Japan,11636,Carbonn2019,1,39.71861111,140.1025,1026983,NA,NA,,East Asia and the Pacific
Akmene,LTU,City,Lithuania,NA,EUCovenantofMayors2019;GlobalCovenantofMayors2019;NAZCA,3,56.31666667,22.9,25729,2011,Šiauliai County,NA,Europe
Aksakovo,BGR,City,Bulgaria,NA,GlobalCovenantofMayors2019;EUCovenantofMayors2019;NAZCA,3,43.2586259,27.8173611,8600,2009,Varna,,Europe
Aksu,KAZ,City,Kazakhstan,NA,GlobalCovenantofMayors2019;NAZCA,2,52.04072,76.93376,69354,NA,Tarbagatay District,Pavlodar Region,Eastern Europe and Central Asia
Akureyri,ISL,City,Iceland,138,GlobalCovenantofMayors2019;CDPCities2018;NAZCA,3,65.6825696,-18.0913026,18340,2019,Northeastern Region,,Europe
Aladren,ESP,City,Spain,21,GlobalCovenantofMayors2019;EUCovenantofMayors2019;NAZCA,3,41.249166,-1.1560465,67,2018,Zaragoza,Aladrén,Europe
Alájar,ESP,City,Spain,41,GlobalCovenantofMayors2019;EUCovenantofMayors2019;NAZCA,3,37.8746137,-6.66506,802,2018,Huelva,Alajar,Europe
"Alameda County, CA",USA,City,United States of America,NA,WeAreStillIn2019,1,37.65,-121.9166667,1666753,NA,California,,North America
"Alameda, CA",USA,City,United States of America,27.0394956,WeAreStillIn2019;ClimateMayors;WeAreStillIn2019;GlobalCovenantofMayors2019;CDPCities2018;NAZCA,5,37.75611111,-122.2744444,78906,2010,California,"Alameda County, CA",North America
"Alameda, Spain",ESP,City,Spain,64.74975,EUCovenantofMayors2019;GlobalCovenantofMayors2019;NAZCA,3,37.2,-4.65,5426,2018,Málaga,Antequera,Europe
Aland,FIN,Region,Finland,1580,CompactofStatesRegions2018;NAZCA,2,60,20,29489,2017,NA,,Europe
Alange,ESP,City,Spain,160,GlobalCovenantofMayors2019;NAZCA,2,38.78588,-6.244232,1971,2018,Badajoz,Tierra de Mérida Vegas Bajas,Europe
Alanis de la Sierra,ESP,City,Spain,NA,EUCovenantofMayors2019;GlobalCovenantofMayors2019;NAZCA,3,37.3601614,-5.9788488,1900,NA,Seville,,Europe
Alanno,ITA,City,Italy,32.53,EUCovenantofMayors2019;GlobalCovenantofMayors2019;NAZCA,3,42.3,13.96666667,3679,NA,Pescara,,Europe
Alano di Piave,ITA,City,Italy,36.52,GlobalCovenantofMayors2019;EUCovenantofMayors2019;NAZCA,3,45.907803,11.9081948,2881,NA,Belluno,,Europe
Alaquàs,ESP,City,Spain,3.9,GlobalCovenantofMayors2019;NAZCA,2,39.4572928,-0.4609799,29965,2018,Valencia,Horta Oest,Europe
Alàs i Cerc,ESP,City,Spain,57.7,GlobalCovenantofMayors2019;NAZCA,2,42.324487,1.540233,400,2018,Lleida,Alt Urgell,Europe
Alassio,ITA,City,Italy,17.25,EUCovenantofMayors2019;GlobalCovenantofMayors2019;NAZCA,3,44,8.166666667,12000,NA,Savona,,Europe
Alaverdi,ARM,City,Armenia,18,GlobalCovenantofMayors2019;NAZCA,2,41.0958608,44.6459522,16400,2017,Lori,,Eastern Europe and Central Asia
Alba,ITA,City,Italy,28748,GlobalCovenantofMayors2019;EUCovenantofMayors2019;NAZCA,3,44.691542,8.025636,31531,2017,Cuneo,,Europe
Alba Adriatica,ITA,City,Italy,9.6,GlobalCovenantofMayors2019;EUCovenantofMayors2019;NAZCA,3,42.8343422,13.927816,12522,NA,Abruzzo,Teramo,Europe
Alba Iulia,ROU,City,Romania,103.65,Carbonn2019;GlobalCovenantofMayors2019;EUCovenantofMayors2019;NAZCA,4,46.06694444,23.57,63536,2011,Alba County,Alba,Europe
Alba Posse,ARG,City,Argentina,405,Race to Zero;NAZCA2020,2,-27.55,-54.7,481,NA,Misiones Province,25 De Mayo,Latin America and Caribbean
Albagés,ESP,City,Spain,25.7,GlobalCovenantofMayors2019;EUCovenantofMayors2019;NAZCA,3,41.7317684,1.8151935,425,2018,Lleida,,Europe
Albagiara,ITA,City,Italy,8.87,GlobalCovenantofMayors2019;NAZCA,2,39.786857,8.861913,278,NA,Oristano,,Europe
Albaida,ESP,City,Spain,89.78,GlobalCovenantofMayors2019;NAZCA,2,38.838669,-0.5181894,5987,2018,Baleares,Vall d'Albaida,Europe
Albairate,ITA,City,Italy,14.98,EUCovenantofMayors2019;GlobalCovenantofMayors2019;NAZCA,3,45.41666667,8.933333333,4148,NA,Lombardy,Milan,Europe
Albal,ESP,City,Spain,38,GlobalCovenantofMayors2019;NAZCA,2,39.3956438,-0.415082,16029,2018,Cáceres,Horta Sud,Europe
Albala,ESP,City,Spain,38,GlobalCovenantofMayors2019;NAZCA,2,39.255502,-6.190489,744,2018,Cáceres,Albalá,Europe
Albalat de la Ribera,ESP,City,Spain,14.29,GlobalCovenantofMayors2019;NAZCA,2,39.2012627,-0.3866467,3485,2018,Valencia,Ribera Baixa,Europe
Albalat Dels Sorells,ESP,City,Spain,4.62,GlobalCovenantofMayors2019;NAZCA,2,39.5436955,-0.3461911,3937,2018,Valencia,Horta Nord,Europe
Albánchez de Mágina,ESP,City,Spain,39,EUCovenantofMayors2019;GlobalCovenantofMayors2019;NAZCA,3,37.79166667,-3.45,1326,2018,Jaén,Albanchez de Mágina,Europe
Albanella,ITA,City,Italy,40.23,GlobalCovenantofMayors2019;NAZCA,2,40.478163,15.114332,6519,NA,Salerno,,Europe
Albano di Lucania,ITA,City,Italy,55.87,GlobalCovenantofMayors2019;EUCovenantofMayors2019;NAZCA,3,40.587058,16.037129,1502,NA,Potenza,,Europe
Albano Laziale,ITA,City,Italy,23.8,GlobalCovenantofMayors2019;EUCovenantofMayors2019;NAZCA,3,41.7288894,12.6582689,38997,NA,Rome,,Europe
Albano Sant'Alessandro,ITA,City,Italy,5.35,EUCovenantofMayors2019;GlobalCovenantofMayors2019;NAZCA,3,45.68333333,9.75,8075,NA,Bergamo,,Europe
"Albany, CA",USA,City,United States of America,4.6360821,ClimateMayors;Carbonn2019,2,37.886944,-122.297778,18969,2010,California,"Alameda County, CA",North America
"Albany, NY",USA,City,United States of America,55.3998861,GlobalCovenantofMayors2019;CDPCities2018;ClimateMayors;WeAreStillIn2019;WeAreStillIn2019;NAZCA,5,42.6511674,-73.7549679,98566,2016,New York State,"Albany County, NY",North America
"Albany, OR",USA,City,United States of America,3.2374875,ClimateMayors,1,44.630278,-123.096111,53211,2010,Oregon,"Linn County, OR",North America
Albanyà,ESP,City,Spain,94.4,EUCovenantofMayors2019;GlobalCovenantofMayors2019;NAZCA,3,42.30694444,2.723055556,150,2018,Girona,Alt Empordà,Europe
Albaredo d'Adige,ITA,City,Italy,28.25,GlobalCovenantofMayors2019;NAZCA,2,45.316997,11.276161,5179,NA,Verona,,Europe
Albaretto Della Torre,ITA,City,Italy,4.59,GlobalCovenantofMayors2019;NAZCA,2,44.59681,8.06451,5952,NA,Cuneo,,Europe
Albatàrrec,ESP,City,Spain,10.5,EUCovenantofMayors2019;GlobalCovenantofMayors2019;NAZCA,3,41.575,0.606388889,2090,2018,Lleida,Segrià,Europe
Albatera,ESP,City,Spain,66327,GlobalCovenantofMayors2019;EUCovenantofMayors2019;NAZCA,3,38.1794357,-0.8700719,11767,2018,Teruel,Vega Baja del Segura,Europe
"Albemarle County, VA",USA,City,United States of America,1880,WeAreStillIn2019,1,38.03333333,-78.56666667,98970,NA,Virginia,,North America
Albenga,ITA,City,Italy,36.58,EUCovenantofMayors2019;GlobalCovenantofMayors2019;NAZCA,3,44.05,8.216666667,25000,NA,Savona,,Europe
Albergaria-a-Velha,PRT,City,Portugal,158.83,EUCovenantofMayors2019;GlobalCovenantofMayors2019;NAZCA,3,40.69333333,-8.481111111,25252,2011,Centro,Aveiro,Europe
Alberic,ESP,City,Spain,NA,GlobalCovenantofMayors2019;NAZCA,2,39.1164369,-0.5201837,10826,NA,Valencia,Ribera Alta,Europe
Alberite De San Juan,ESP,City,Spain,11.23,EUCovenantofMayors2019;GlobalCovenantofMayors2019;NAZCA,3,41.81666667,-1.466666667,99,2018,Zaragoza,Alberite de San Juan,Europe
Alberobello,ITA,City,Italy,0.1052,GlobalCovenantofMayors2019;NAZCA,2,40.786413,17.240936,11300,NA,Bari,,Europe
Alberona,ITA,City,Italy,49.75,EUCovenantofMayors2019;GlobalCovenantofMayors2019;NAZCA,3,41.43333333,15.11666667,1010,NA,Foggia,,Europe
Alberta,CAN,Region,Canada,640081,CompactofStatesRegions2018;NAZCA,2,54.4,-115,4318772,2018,NA,,North America
Alberti,ARG,City,Argentina,1130,Race to Zero,NA,-35.033,-60.25,10322,NA,NA,Argentina,NA
Albertslund,DNK,City,Denmark,NA,GlobalCovenantofMayors2019;EUCovenantofMayors2019;NAZCA,3,55.6586018,12.3562849,27880,NA,Capital Region,Copenhagen,Europe
Albesa,ESP,City,Spain,37.6,EUCovenantofMayors2019;GlobalCovenantofMayors2019;NAZCA,3,41.75388889,0.661666667,1652,2018,Lleida,Noguera,Europe
Albeta,ESP,City,Spain,2.65,GlobalCovenantofMayors2019;EUCovenantofMayors2019;NAZCA,3,41.8272224,-1.4926769,149,2018,Zaragoza,NA,Europe
Albiate,ITA,City,Italy,2.86,EUCovenantofMayors2019;GlobalCovenantofMayors2019;NAZCA,3,45.66666667,9.25,5216,NA,Monza Brianza,Monza and Brianza,Europe
Albignasego,ITA,City,Italy,21.16,EUCovenantofMayors2019;GlobalCovenantofMayors2019;NAZCA,3,45.35,11.86666667,25000,NA,Padua,,Europe
Albinea,ITA,City,Italy,43.89,GlobalCovenantofMayors2019;EUCovenantofMayors2019;NAZCA,3,44.6201821,10.6019259,8755,NA,Reggio Emilia,,Europe
Albino,ITA,City,Italy,31.81,GlobalCovenantofMayors2019;EUCovenantofMayors2019;NAZCA,3,45.7608142,9.7968303,17807,NA,Bergamo,,Europe
Albinyana,ESP,City,Spain,19.4,GlobalCovenantofMayors2019;EUCovenantofMayors2019;NAZCA,3,41.2454739,1.486748,2354,2018,Tarragona,Baix Penedès,Europe
Albiolo,ITA,City,Italy,2.84,GlobalCovenantofMayors2019;EUCovenantofMayors2019;NAZCA,3,45.805577,8.939235,2739,NA,Como,,Europe
Albisola Superiore,ITA,City,Italy,28.68,EUCovenantofMayors2019;GlobalCovenantofMayors2019;NAZCA,3,44.33944444,8.526944444,10485,NA,Savona,,Europe
Alboloduy,ESP,City,Spain,70,GlobalCovenantofMayors2019;EUCovenantofMayors2019;NAZCA,3,37.0327593,-2.6209782,745,2018,Almería,,Europe
Albolote,ESP,City,Spain,79,EUCovenantofMayors2019;GlobalCovenantofMayors2019;NAZCA,3,37.23055556,-3.656944444,18088,2018,Granada,NA,Europe
Albonese,ITA,City,Italy,4.33,GlobalCovenantofMayors2019;EUCovenantofMayors2019;NAZCA,3,45.2944385,8.706322,559,NA,Pavia,,Europe
Albons,ESP,City,Spain,11.1,GlobalCovenantofMayors2019;EUCovenantofMayors2019;NAZCA,3,42.1043559,3.0852797,740,2018,Girona,Baix Empordà,Europe
Alborache,ESP,City,Spain,27.33,GlobalCovenantofMayors2019;NAZCA,2,39.3929025,-0.774052,1136,2018,Valencia,Hoya de Buñol,Europe
Alboraya,ESP,City,Spain,8.3,GlobalCovenantofMayors2019;NAZCA,2,39.5009954,-0.3494799,23572,2018,Valencia,Horta Nord,Europe
Albosaggia,ITA,City,Italy,34.35,GlobalCovenantofMayors2019;EUCovenantofMayors2019;NAZCA,3,46.1472316,9.8531698,3188,NA,Sondrio,,Europe
Albox,ESP,City,Spain,168,EUCovenantofMayors2019;GlobalCovenantofMayors2019;NAZCA,3,37.38333333,-2.133333333,11271,2018,Almería,,Europe
Albudeite,ESP,City,Spain,17.02,GlobalCovenantofMayors2019;NAZCA,2,38.026663,-1.3866538,1423,2018,Murcia,Río Mula,Europe
Albuixech,ESP,City,Spain,4.4,GlobalCovenantofMayors2019;NAZCA,2,39.5449181,-0.3241613,3920,2018,Valencia,Horta Nord,Europe
Albuñol,ESP,City,Spain,63,GlobalCovenantofMayors2019;EUCovenantofMayors2019;NAZCA,3,36.7912927,-3.2016737,6270,2018,Granada,Costa Tropical,Europe
"Albuquerque, NM",USA,City,United States of America,NA,WeAreStillIn2019,1,35.11083333,-106.61,558545,NA,New Mexico,"Bernalillo County, NM",North America
"Alburqueque, Spain",ESP,City,Spain,723,GlobalCovenantofMayors2019;NAZCA,2,39.219167,-7.001111,5340,2018,Badajoz,,Europe
Alcalá De Ebro,ESP,City,Spain,9.9,GlobalCovenantofMayors2019;EUCovenantofMayors2019;NAZCA,3,41.8140364,-1.1940809,283,2018,Zaragoza,Alcalá de Ebro,Europe
Alcalá de Guadaíra,ESP,City,Spain,284.61,GlobalCovenantofMayors2019;EUCovenantofMayors2019;NAZCA,3,37.3397709,-5.8408395,72100,2018,Seville,,Europe
Alcalá de los Gazules,ESP,City,Spain,479.59,EUCovenantofMayors2019;GlobalCovenantofMayors2019;NAZCA,3,36.46666667,-5.716666667,5619,2018,Cádiz,La Janda,Europe
Alcala De Moncayo,ESP,City,Spain,13.69,GlobalCovenantofMayors2019;EUCovenantofMayors2019;NAZCA,3,41.7862357,-1.6969471,205,2018,Zaragoza,Tarazona y el Moncayo,Europe
Alcalá del Valle,ESP,City,Spain,46.89,GlobalCovenantofMayors2019;EUCovenantofMayors2019;NAZCA,3,36.905066,-5.1726099,5300,2018,Cádiz,Sierra de Cádiz,Europe
Alcalá la Real,ESP,City,Spain,262,EUCovenantofMayors2019;GlobalCovenantofMayors2019;NAZCA,3,37.45,-3.916666667,22129,2018,Jaén,Sierra Sur de Jaén,Europe
Alcalalí,ESP,City,Spain,14.4,GlobalCovenantofMayors2019;EUCovenantofMayors2019;NAZCA,3,38.7503504,-0.0399998,1350,2018,Valencia,Marina Alta,Europe
Alcamo,ITA,City,Italy,130.9,EUCovenantofMayors2019;GlobalCovenantofMayors2019;NAZCA,3,37.97777778,12.96388889,46238,NA,Trapani,,Europe
Alcantarilla,ESP,City,Spain,16,GlobalCovenantofMayors2019;NAZCA,2,37.969517,-1.219342,40774,2018,Murcia,Huerta de Murcia,Europe
Alcàntera de Xúquer,ESP,City,Spain,3.3,GlobalCovenantofMayors2019;NAZCA,2,39.0694393,-0.5601547,1350,2018,Valencia,Ribera Alta,Europe
Alcara li Fusi,ITA,City,Italy,62.94,EUCovenantofMayors2019;GlobalCovenantofMayors2019;NAZCA,3,38.01666667,14.7,2473,NA,Sicily,Messina,Europe
Alcarràs,ESP,City,Spain,114.3,GlobalCovenantofMayors2019;EUCovenantofMayors2019;NAZCA,3,41.5630062,0.5245393,9100,2018,Lleida,Segrià,Europe
Alcasser,ESP,City,Spain,9.01,GlobalCovenantofMayors2019;NAZCA,2,39.3677124,-0.444674,9615,2018,Valencia,Horta Sud,Europe
Alcaudete,ESP,City,Spain,238,EUCovenantofMayors2019;GlobalCovenantofMayors2019;NAZCA,3,37.58333333,-4.1,11164,2018,Jaén,Sierra Sur de Jaén,Europe
Alcázar de San Juan,ESP,City,Spain,666.78,EUCovenantofMayors2019;GlobalCovenantofMayors2019;NAZCA,3,39.40555556,-3.205555556,31992,2018,Ciudad Real,,Europe
Alchevsk,UKR,City,Ukraine,55,GlobalCovenantofMayors2019;NAZCA,2,48.47134,38.813441,110529,2013,Luhansk Oblast,,Eastern Europe and Central Asia
Alcocer de Planes,ESP,City,Spain,4.39,EUCovenantofMayors2019;GlobalCovenantofMayors2019;NAZCA,3,38.79444444,-0.4025,238,2018,Alicante,Comtat,Europe
Alcochete,PRT,City,Portugal,128.36,GlobalCovenantofMayors2019;EUCovenantofMayors2019;NAZCA,3,38.7488526,-8.973300657,17569,2011,Lisbon,Setúbal,Europe
Alcoi,ESP,City,Spain,129.86,EUCovenantofMayors2019;GlobalCovenantofMayors2019;NAZCA,3,38.69833333,-0.473611111,59675,2018,Valencia,Alcoià,Europe
Alcolea,ESP,City,Spain,67,EUCovenantofMayors2019;GlobalCovenantofMayors2019;NAZCA,3,36.96666667,-2.95,966,2018,Almería,,Europe
Alcolea del Río,ESP,City,Spain,NA,EUCovenantofMayors2019;GlobalCovenantofMayors2019;NAZCA,3,37.5180353,-5.9800362,9317,2005,Seville,,Europe
Alcoleja,ESP,City,Spain,14.56,GlobalCovenantofMayors2019;EUCovenantofMayors2019;NAZCA,3,38.6755861,-0.3311341,191,2018,Valencia,Comtat,Europe
Alcoletge,ESP,City,Spain,16.7,GlobalCovenantofMayors2019;NAZCA,2,41.6472222,0.6944444,3285,2018,Lleida,,Europe
Alcollarín,ESP,City,Spain,79,GlobalCovenantofMayors2019;NAZCA,2,39.245057,-5.737223,433,2018,Cáceres,NA,Europe
Alconchel,ESP,City,Spain,294.9,GlobalCovenantofMayors2019;NAZCA,2,38.517011,-7.070012,1876,2018,Badajoz,Llanos de Olivenza,Europe
Alcóntar,ESP,City,Spain,94,EUCovenantofMayors2019;GlobalCovenantofMayors2019;NAZCA,3,37.33333333,-2.583333333,647,2018,Almería,,Europe
Alcorcón,ESP,City,Spain,33.7,EUCovenantofMayors2019;GlobalCovenantofMayors2019;NAZCA,3,40.35,-3.833333333,167997,2018,Madrid,of Madrid,Europe
Alcover,ESP,City,Spain,460,EUCovenantofMayors2019;GlobalCovenantofMayors2019;NAZCA,3,41.26666667,1.166666667,5131,2018,Tarragona,Alt Camp,Europe
Alcublas,ESP,City,Spain,43.5,GlobalCovenantofMayors2019;NAZCA,2,39.7979196,-0.7025735,690,2018,Valencia,Los Serranos,Europe
Alcudia,ESP,City,Spain,60.05,GlobalCovenantofMayors2019;NAZCA,2,39.853267,3.124024,22942,2018,Baleares,Raiguer,Europe
Aldaia,ESP,City,Spain,16.1,GlobalCovenantofMayors2019;NAZCA,2,39.4647207,-0.4607809,31246,2018,Valencia,Horta Oest,Europe
Aldehuela De Liestos,ESP,City,Spain,38.12,GlobalCovenantofMayors2019;EUCovenantofMayors2019;NAZCA,3,41.0642215,-1.7005881,51,2018,Aragon,Aldehuela de Liestos,Europe
Aldeire,ESP,City,Spain,67,EUCovenantofMayors2019;GlobalCovenantofMayors2019;NAZCA,3,37.15,-3.066666667,696,2018,Granada,NA,Europe
Aldeno,ITA,City,Italy,8.97,GlobalCovenantofMayors2019;EUCovenantofMayors2019;NAZCA,3,45.9767795,11.0908573,3053,NA,Trentino,,Europe
Aldover,ESP,City,Spain,20.2,GlobalCovenantofMayors2019;NAZCA,2,40.8800537,0.5000194,918,2018,Tarragona,Baix Ebre,Europe
Ale,SWE,City,Sweden,332.1359,Sveriges Ekokommuner,1,57.925833,12.083611,31402,2019,Västergötland,Västra Götaland County,Europe
Aledo,ESP,City,Spain,49.74,GlobalCovenantofMayors2019;NAZCA,2,37.794985,-1.573546,1053,2018,Murcia,Bajo Guadalentín,Europe
Alella,ESP,City,Spain,9.6,EUCovenantofMayors2019;GlobalCovenantofMayors2019;NAZCA,3,41.495,2.296111111,9397,2018,Barcelona Province,Maresme,Europe
Alencon,FRA,City,France,10.68,Race to Zero,NA,48.4306,0.0931,25775,2018,Normandy,Alençon,NA
Alenquer,PRT,City,Portugal,304.22,GlobalCovenantofMayors2019;NAZCA,2,39.0574,-9.006365,42000,2011,Lisbon,,Europe
Alento Montestella,ITA,City,Italy,NA,GlobalCovenantofMayors2019;EUCovenantofMayors2019,2,40.2374011,15.0487682,15104,NA,Campania,,Europe
Alessandria,ITA,City,Italy,203.57,GlobalCovenantofMayors2019;EUCovenantofMayors2019;NAZCA,3,44.9129225,8.615321,85438,NA,NA,,Europe
Alessandria della Rocca,ITA,City,Italy,62.24,EUCovenantofMayors2019;GlobalCovenantofMayors2019;NAZCA,3,37.56666667,13.45,3082,NA,Agrigento,,Europe
Alessano,ITA,City,Italy,28.69,GlobalCovenantofMayors2019;EUCovenantofMayors2019;NAZCA,3,39.8896785,18.3312082,6552,NA,Lecce,,Europe
Ålesund,NOR,City,Norway,93.17,EUCovenantofMayors2019;GlobalCovenantofMayors2019;NAZCA,3,62.47777778,6.190277778,42317,2017,Møre og Romsdal,NA,Europe
Alexandria,GRC,City,Greece,2679,GlobalCovenantofMayors2019;EUCovenantofMayors2019;NAZCA,3,37.9506108,23.7029521,41604,2018,Central Macedonia,,Europe
"Alexandria, VA",USA,City,United States of America,38.6685507,ClimateMayors;WeAreStillIn2019;WeAreStillIn2019,2,38.804722,-77.047222,153511,2010,Virginia,,North America
Alexandroupolis,GRC,City,Greece,1217,EUCovenantofMayors2019;GlobalCovenantofMayors2019;NAZCA,3,40.85,25.86666667,72750,2011,East Macedonia and Thrace,Evros,Europe
Alexânia,BRA,City,Brazil,847.891,GlobalCovenantofMayors2019;NAZCA,2,-16.0887,-48.5017,30000,2007,Goiás,,Latin America and Caribbean
Alezio,ITA,City,Italy,16.79,EUCovenantofMayors2019;GlobalCovenantofMayors2019;NAZCA,3,40.06666667,18.05,5547,NA,Lecce,,Europe
Alfacar,ESP,City,Spain,16,GlobalCovenantofMayors2019;EUCovenantofMayors2019;NAZCA,3,37.2383551,-3.566372,5508,2018,Granada,NA,Europe
Alfafar,ESP,City,Spain,16,GlobalCovenantofMayors2019;NAZCA,2,39.4200749,-0.3891354,20772,2018,Granada,Horta Sud,Europe
Alfafara,ESP,City,Spain,19.78,GlobalCovenantofMayors2019;EUCovenantofMayors2019;NAZCA,3,38.7732651,-0.554559,418,2018,Alicante,Comtat,Europe
Alfajarín,ESP,City,Spain,137,EUCovenantofMayors2019;GlobalCovenantofMayors2019;NAZCA,3,41.61666667,-0.7,2215,2018,Aragon,NA,Europe
Alfamen,ESP,City,Spain,102,EUCovenantofMayors2019;GlobalCovenantofMayors2019;NAZCA,3,41.43333333,-1.25,1577,2018,Zaragoza,Campo de Cariñena,Europe
Alfândega da Fé,PRT,City,Portugal,321.95,Carbonn2019;GlobalCovenantofMayors2019;NAZCA,3,41.35555556,-6.945,5104,2011,Norte,Bragança,Europe
Alfara De Carles,ESP,City,Spain,63.9,GlobalCovenantofMayors2019;NAZCA,2,40.8729772,0.4005288,395,2018,Tarragona,Baix Ebre,Europe
Alfara De La Baronia,ESP,City,Spain,11.71,GlobalCovenantofMayors2019;NAZCA,2,39.762781,-0.355419,535,2018,Valencia,Camp de Morvedre,Europe
Alfara Del Patriarca,ESP,City,Spain,1.98,GlobalCovenantofMayors2019;NAZCA,2,39.544129,-0.3856584,3228,2018,Valencia,Horta Nord,Europe
Alfarnate,ESP,City,Spain,33.66987,EUCovenantofMayors2019;GlobalCovenantofMayors2019;NAZCA,3,36.98333333,-4.25,1362,2018,Málaga,Axarquía Costa del Sol,Europe
Alfarnatejo,ESP,City,Spain,20.71992,GlobalCovenantofMayors2019;EUCovenantofMayors2019;NAZCA,3,36.9790514,-4.2726473,404,2018,Málaga,Axarquía Costa del Sol,Europe
Alfarp,ESP,City,Spain,20.6,GlobalCovenantofMayors2019;NAZCA,2,39.2767351,-0.560509,1553,2018,Valencia,Ribera Alta,Europe
Alfarràs,ESP,City,Spain,11.4,GlobalCovenantofMayors2019;NAZCA,2,41.8311403,0.5692934,2923,2018,Lleida,Segrià,Europe
Alfarrasí,ESP,City,Spain,6.4,GlobalCovenantofMayors2019;NAZCA,2,38.903726,-0.4961549,1309,2018,Valencia,Vall d'Albaida,Europe
Alfauir,ESP,City,Spain,6.2,GlobalCovenantofMayors2019;NAZCA,2,38.9283659,-0.2516594,451,2018,Valencia,Safor,Europe
Alfedena,ITA,City,Italy,39.96,GlobalCovenantofMayors2019;EUCovenantofMayors2019;NAZCA,3,41.73424,14.03253,791,NA,Province of L'Aquila,L'Aquila,Europe
Alfianello,ITA,City,Italy,13.75,GlobalCovenantofMayors2019;EUCovenantofMayors2019;NAZCA,3,45.266975,10.148172,2445,NA,Brescia,,Europe
Alfonsine,ITA,City,Italy,106.79,GlobalCovenantofMayors2019;EUCovenantofMayors2019;NAZCA,3,44.5053302,12.0410437,12411,NA,Ravenna,,Europe
Alforja,ESP,City,Spain,38.2,GlobalCovenantofMayors2019;EUCovenantofMayors2019;NAZCA,3,41.2099763,0.9750606,1857,2018,Tarragona,Baix Camp,Europe
Alforque,ESP,City,Spain,10,GlobalCovenantofMayors2019;EUCovenantofMayors2019;NAZCA,3,41.3298767,-0.3852708,86,2018,Zaragoza,,Europe
Algaida,ESP,City,Spain,89.78,EUCovenantofMayors2019;GlobalCovenantofMayors2019;NAZCA,3,39.55833333,2.891666667,5367,2018,Baleares,Pla de Mallorca,Europe
Algámitas,ESP,City,Spain,20.42,GlobalCovenantofMayors2019;EUCovenantofMayors2019;NAZCA,3,37.0163821,-5.1488475,1330,2018,Seville,Sierra Sur de Sevilla,Europe
Algar,ESP,City,Spain,175.6,EUCovenantofMayors2019;GlobalCovenantofMayors2019;NAZCA,3,-33.39111111,-71.69277778,1540,NA,Málaga,,Europe
Algar De Palancia,ESP,City,Spain,13.2,GlobalCovenantofMayors2019;NAZCA,2,39.7810953,-0.3674639,503,2018,Valencia,Camp de Morvedre,Europe
Algarinejo,ESP,City,Spain,93,EUCovenantofMayors2019;GlobalCovenantofMayors2019;NAZCA,3,37.31666667,-4.15,4184,2018,Granada,NA,Europe
Algarrobo,ESP,City,Spain,10.35996,GlobalCovenantofMayors2019;EUCovenantofMayors2019;NAZCA,3,36.7732439,-4.0399306,6144,2018,Málaga,Axarquía Costa del Sol,Europe
Algatocín,ESP,City,Spain,20,EUCovenantofMayors2019;GlobalCovenantofMayors2019;NAZCA,3,36.57277778,-5.275555556,951,2018,Málaga,Serranía de Ronda,Europe
Algeciras,ESP,City,Spain,86,EUCovenantofMayors2019;GlobalCovenantofMayors2019;NAZCA,3,36.1275,-5.453888889,115333,2018,Cádiz,Campo de Gibraltar,Europe
Algemesí,ESP,City,Spain,41.5,GlobalCovenantofMayors2019;NAZCA,2,39.1907907,-0.4357531,27808,2018,Valencia,Ribera Alta,Europe
Algerri,ESP,City,Spain,54.3,GlobalCovenantofMayors2019;EUCovenantofMayors2019;NAZCA,3,41.8151794,0.6371437,437,2018,Lleida,Noguera,Europe
Alghero,ITA,City,Italy,225.4,EUCovenantofMayors2019;GlobalCovenantofMayors2019;NAZCA,3,40.55,8.316666667,43945,2018,Sassari,SS,Europe
Algimia De Alfara,ESP,City,Spain,14.4,GlobalCovenantofMayors2019;NAZCA,2,39.7536043,-0.362999,1047,2018,Valencia,Camp de Morvedre,Europe
Alginet,ESP,City,Spain,24.1,GlobalCovenantofMayors2019;NAZCA,2,39.2651129,-0.4716911,13068,2018,Valencia,Ribera Alta,Europe
Algua,ITA,City,Italy,8.32,EUCovenantofMayors2019;GlobalCovenantofMayors2019;NAZCA,3,45.83333333,9.716666667,722,NA,Bergamo,,Europe
Alguazas,ESP,City,Spain,23.74,GlobalCovenantofMayors2019;NAZCA,2,38.052566,-1.249398,9146,2018,Murcia,Vega Media del Segura,Europe
Algueña,ESP,City,Spain,18.43,EUCovenantofMayors2019;GlobalCovenantofMayors2019;NAZCA,3,38.33777778,-1.003611111,1457,2018,Valencia,Vinalopó Mitjà,Europe
Alhama de Almería,ESP,City,Spain,26,EUCovenantofMayors2019;GlobalCovenantofMayors2019;NAZCA,3,36.95,-2.566666667,3587,2018,Almería,Alpujarra Almeriense,Europe
Alhama de Aragón,ESP,City,Spain,31,EUCovenantofMayors2019;GlobalCovenantofMayors2019;NAZCA,3,41.3,-1.9,1146,2018,Aragon,NA,Europe
Alhama de Granada,ESP,City,Spain,433.5,GlobalCovenantofMayors2019;EUCovenantofMayors2019;NAZCA,3,37.0028286,-3.9891095,6214,2018,Granada,Alhama,Europe
Alhama de Murcia,ESP,City,Spain,311.55,GlobalCovenantofMayors2019;EUCovenantofMayors2019;NAZCA,3,37.8515173,-1.4264423,20915,2018,Murcia,Bajo Guadalentín,Europe
Alhaurín de la Torre,ESP,City,Spain,83,EUCovenantofMayors2019;GlobalCovenantofMayors2019;NAZCA,3,36.66666667,-4.55,37446,2018,Málaga,Valle del Guadalhorce,Europe
Alhaurin el Grande,ESP,City,Spain,73.1,EUCovenantofMayors2019;GlobalCovenantofMayors2019;NAZCA,3,36.63305556,-4.683055556,21776,2018,Málaga,,Europe
Alhendín,ESP,City,Spain,51,GlobalCovenantofMayors2019;EUCovenantofMayors2019;NAZCA,3,37.1081077,-3.64366,5200,2018,Granada,Empire of Alhendín,Europe
Alì Terme,ITA,City,Italy,6.27,GlobalCovenantofMayors2019;NAZCA,2,38.005064,15.42269,2567,NA,Sicily,Messina,Europe
Alia,ITA,City,Italy,NA,EUCovenantofMayors2019;GlobalCovenantofMayors2019;NAZCA,3,37.779948,13.713856,3806,NA,Palermo,,Europe
Aliano,ITA,City,Italy,98.41,GlobalCovenantofMayors2019;EUCovenantofMayors2019;NAZCA,3,40.3138266,16.2299609,1110,NA,Basilicata,Matera,Europe
Aliartou - Thespieon,GRC,City,Greece,108.152,GlobalCovenantofMayors2019;EUCovenantofMayors2019;NAZCA,3,38.3,23.15,4793,NA,Boeotia,,Europe
Alicante,ESP,City,Spain,201.27,GlobalCovenantofMayors2019;EUCovenantofMayors2019;NAZCA,3,38.353738,-0.4901845,334678,2018,NA,Alacantí,Europe
Alife,ITA,City,Italy,64.32,EUCovenantofMayors2019;GlobalCovenantofMayors2019;NAZCA,3,41.33333333,14.33333333,7613,NA,Caserta,,Europe
Alijó,PRT,City,Portugal,297.6,EUCovenantofMayors2019;GlobalCovenantofMayors2019;NAZCA,3,41.27611111,-7.475,11840,2011,Norte,Vila Real,Europe
Alimena,ITA,City,Italy,59.7,EUCovenantofMayors2019;GlobalCovenantofMayors2019;NAZCA,3,37.7,14.11666667,2087,NA,Sicily,Palermo,Europe
Aliminusa,ITA,City,Italy,13.68,EUCovenantofMayors2019;GlobalCovenantofMayors2019;NAZCA,3,37.86666667,13.78333333,1269,NA,Palermo,,Europe
Alimos,GRC,City,Greece,5.909,EUCovenantofMayors2019;GlobalCovenantofMayors2019;NAZCA,3,37.91666667,23.71666667,42000,2011,Attica,Cythirians,Europe
Alió,ESP,City,Spain,7.2,EUCovenantofMayors2019;GlobalCovenantofMayors2019;NAZCA,3,41.3,1.3,432,2018,Tarragona,Alt Camp,Europe
Aliseda,ESP,City,Spain,81,GlobalCovenantofMayors2019;NAZCA,2,39.4247,-6.691883,1951,2018,Cáceres,,Europe
Aljaraque,ESP,City,Spain,34,GlobalCovenantofMayors2019;EUCovenantofMayors2019;NAZCA,3,37.2664912,-7.0246858,17960,2018,Huelva,,Europe
Alken,BEL,City,Belgium,28.14,GlobalCovenantofMayors2019;EUCovenantofMayors2019;NAZCA,3,50.8754731,5.3079873,11242,NA,Limburg,Tongeren,Europe
Alkmaar,NLD,City,Netherlands,29.26,GlobalCovenantofMayors2019;NAZCA,2,52.632381,4.753375,288000,2016,North Holland,,Europe
"Allentown, PA",USA,City,United States of America,749.802105,ClimateMayors;WeAreStillIn2019;WeAreStillIn2019,2,40.601667,-75.477222,120443,2010,Pennsylvania,"Lehigh County, PA",North America
Alleroed,DNK,City,Denmark,67.44,Race to Zero;NAZCA2020,2,55.866667,12.366667,24201,NA,Capital Region,Zealand,Europe
Alliste,ITA,City,Italy,23.53,GlobalCovenantofMayors2019;NAZCA,2,39.947527,18.086225,6719,NA,Lecce,,Europe
Allumiere,ITA,City,Italy,92.17,EUCovenantofMayors2019;GlobalCovenantofMayors2019;NAZCA,3,42.15,11.9,4293,NA,Rome,,Europe
Almacelles,ESP,City,Spain,49,EUCovenantofMayors2019;GlobalCovenantofMayors2019;NAZCA,3,41.7325,0.440277778,6961,2018,Lleida,Segrià,Europe
Almáchar,ESP,City,Spain,14.3,EUCovenantofMayors2019;GlobalCovenantofMayors2019;NAZCA,3,36.8,-4.233333333,1898,2018,Málaga,Axarquía,Europe
Almada,PRT,City,Portugal,70.21,GlobalCovenantofMayors2019;EUCovenantofMayors2019;Carbonn2019;NAZCA,4,38.6803861,-9.1559562,174030,2011,Lisbon,Setúbal,Europe
Almadén de la Plata,ESP,City,Spain,NA,GlobalCovenantofMayors2019;EUCovenantofMayors2019;NAZCA,3,37.8736407,-6.0804953,1696,NA,Seville,,Europe
Almafuerte,ARG,City,Argentina,NA,Race to Zero;NAZCA2020,2,-32.192227,-64.254416,1276000,NA,Córdoba,Tercero Arriba,Latin America and Caribbean
Almargen,ESP,City,Spain,165,EUCovenantofMayors2019;GlobalCovenantofMayors2019;NAZCA,3,37,-5.016666667,2106,2018,Málaga,Comarca of Antequera,Europe
Almàssera,ESP,City,Spain,2.7,GlobalCovenantofMayors2019;NAZCA,2,39.5118213,-0.3562373,7514,2018,Valencia,Horta Nord,Europe
Almassora,ESP,City,Spain,33,GlobalCovenantofMayors2019;EUCovenantofMayors2019;NAZCA,3,39.9435743,-0.0634782,24963,2018,Castellón,Plana Alta,Europe
Almè,ITA,City,Italy,2,EUCovenantofMayors2019;GlobalCovenantofMayors2019;NAZCA,3,45.73333333,9.616666667,5631,NA,Bergamo,,Europe
Almegíjar,ESP,City,Spain,30,EUCovenantofMayors2019;GlobalCovenantofMayors2019;NAZCA,3,36.9,-3.3,435,2018,Granada,Alpujarra Granadina,Europe
Almenar,ESP,City,Spain,66.6,GlobalCovenantofMayors2019;NAZCA,2,41.7943506,0.5695395,3502,2018,Lleida,Segrià,Europe
Almendral,ESP,City,Spain,67,GlobalCovenantofMayors2019;NAZCA,2,38.613437,-6.821032,1354,2018,Badajoz,Llanos de Olivenza,Europe
Almenno San Bartolomeo,ITA,City,Italy,10.61,EUCovenantofMayors2019;GlobalCovenantofMayors2019;NAZCA,3,45.75,9.583333333,5388,NA,Bergamo,,Europe
Almenno San Salvatore,ITA,City,Italy,4.73,GlobalCovenantofMayors2019;EUCovenantofMayors2019;NAZCA,3,45.7499556,9.5963684,5789,NA,Bergamo,,Europe
Almensilla,ESP,City,Spain,NA,GlobalCovenantofMayors2019;EUCovenantofMayors2019;NAZCA,3,37.3100014,-6.1130522,5096,NA,Seville,,Europe
Almere,NLD,City,Netherlands,129.6,EUCovenantofMayors2019;GlobalCovenantofMayors2019;NAZCA,3,52.36666667,5.216666667,193156,2017,Flevoland,,Europe
Almería,ESP,City,Spain,296.21,EUCovenantofMayors2019;GlobalCovenantofMayors2019;NAZCA,3,36.84027778,-2.468055556,175000,2018,NA,Comarca de Almería,Europe
Almese,ITA,City,Italy,17.88,GlobalCovenantofMayors2019;EUCovenantofMayors2019;NAZCA,3,45.1168763,7.39455,6378,NA,Turin,,Europe
Älmhults,SWE,City,Sweden,8.78,GlobalCovenantofMayors2019;EUCovenantofMayors2019;NAZCA,3,56.55,14.116667,15570,2010,Småland,NA,Europe
Almiserà,ESP,City,Spain,7.4,GlobalCovenantofMayors2019;NAZCA,2,38.9153082,-0.286036,276,2018,Valencia,Safor,Europe
Almócita,ESP,City,Spain,30,GlobalCovenantofMayors2019;EUCovenantofMayors2019;NAZCA,3,37.003137,-2.7904478,158,2018,Almería,,Europe
Almoharín,ESP,City,Spain,97,GlobalCovenantofMayors2019;NAZCA,2,39.175874,-6.042773,2082,2018,Cáceres,NA,Europe
Almoines,ESP,City,Spain,2.1,GlobalCovenantofMayors2019;NAZCA,2,38.9434696,-0.1809756,2302,2018,Valencia,Safor,Europe
Almonacid De La Cuba,ESP,City,Spain,55,GlobalCovenantofMayors2019;EUCovenantofMayors2019;NAZCA,3,41.2795006,-0.7923988,270,2018,Aragon,Campo de Belchite,Europe
Almonacid De La Sierra,ESP,City,Spain,54,EUCovenantofMayors2019;GlobalCovenantofMayors2019;NAZCA,3,41.4,-1.316666667,824,2018,Aragon,Almonacid de la Sierra,Europe
Almonaster la Real,ESP,City,Spain,322,EUCovenantofMayors2019;GlobalCovenantofMayors2019;NAZCA,3,37.87333333,-6.786111111,1848,2018,Huelva,NA,Europe
Almonte,ESP,City,Spain,859.2,EUCovenantofMayors2019;GlobalCovenantofMayors2019;NAZCA,3,39.68416667,-6.46,21782,NA,Huelva,,Europe
Almopia,GRC,City,Greece,985.8,GlobalCovenantofMayors2019;NAZCA,2,41.039781,22.09533,29354,2011,Central Macedonia,Pella,Europe
Almoradí,ESP,City,Spain,42.72,GlobalCovenantofMayors2019;EUCovenantofMayors2019;NAZCA,3,38.1096544,-0.7919255,19601,2018,Valencia,Vega Baja del Segura,Europe
Almoster,ESP,City,Spain,6,EUCovenantofMayors2019;GlobalCovenantofMayors2019;NAZCA,3,41.2,1.116666667,1396,2018,Tarragona,Bajo Campo,Europe
Almudaina,ESP,City,Spain,8.82,GlobalCovenantofMayors2019;EUCovenantofMayors2019;NAZCA,3,38.7611112,-0.3539786,112,2018,Alicante,Comtat,Europe
Almussafes,ESP,City,Spain,10.77,GlobalCovenantofMayors2019;NAZCA,2,39.2924334,-0.4138576,8744,2018,Valencia,Ribera Baixa,Europe
Almyros,GRC,City,Greece,905.4,EUCovenantofMayors2019;GlobalCovenantofMayors2019;NAZCA,3,39.18,22.76,18614,2011,Magnesia,,Europe
Alonte,ITA,City,Italy,11.15,GlobalCovenantofMayors2019;NAZCA,2,45.364644,11.428491,1663,NA,Vicenza,,Europe
Alor Gajah,MYS,City,Malaysia,635.84,Carbonn2019,1,2.383333333,102.2166667,198400,NA,Melaka,NA,East Asia and the Pacific
Álora,ESP,City,Spain,79.26,GlobalCovenantofMayors2019;NAZCA,2,36.839681,-4.707062,13499,2018,Málaga,Valle del Guadalhorce,Europe
Alosno,ESP,City,Spain,193,EUCovenantofMayors2019;GlobalCovenantofMayors2019;NAZCA,3,37.55,-7.116666667,4381,2018,Huelva,Andévalo,Europe
Alozaina,ESP,City,Spain,33.85,GlobalCovenantofMayors2019;EUCovenantofMayors2019;NAZCA,3,36.7278925,-4.8564749,2236,2018,Málaga,Comarca of Antequera,Europe
Alp,ESP,City,Spain,NA,GlobalCovenantofMayors2019;NAZCA,2,42.372845,1.886116,1747,NA,Girona,Cerdanya,Europe
Alpa Corral,ARG,City,Argentina,NA,GlobalCovenantofMayors2019;NAZCA,2,-32.69138,-64.7213,1200,NA,Córdoba,,Latin America and Caribbean
Alpago,ITA,City,Italy,80.34,GlobalCovenantofMayors2019;EUCovenantofMayors2019,2,46.1306681,12.3548944,7299,NA,Venice,Belluno,Europe
Alpandeire,ESP,City,Spain,31.3,EUCovenantofMayors2019;GlobalCovenantofMayors2019;NAZCA,3,36.63444444,-5.202777778,271,2018,Málaga,Serranía de Ronda,Europe
Alpens,ESP,City,Spain,13.8,EUCovenantofMayors2019;GlobalCovenantofMayors2019;NAZCA,3,42.11666667,2.1,311,2018,Barcelona Province,Osona,Europe
Alpicat,ESP,City,Spain,15.3,EUCovenantofMayors2019;GlobalCovenantofMayors2019;NAZCA,3,41.66666667,0.55,6203,2018,Lleida,Segrià,Europe
Alpignano,ITA,City,Italy,11.92,EUCovenantofMayors2019;GlobalCovenantofMayors2019;NAZCA,3,45.1,7.516666667,16993,NA,Turin,,Europe
Alpuente,ESP,City,Spain,138.3,GlobalCovenantofMayors2019;NAZCA,2,39.8759884,-1.0137761,640,2018,Valencia,Los Serranos,Europe
Alquería de Aznar,ESP,City,Spain,1.08,EUCovenantofMayors2019;GlobalCovenantofMayors2019;NAZCA,3,38.77277778,-0.425833333,527,2018,Valencia,Comtat,Europe
Alsace,FRA,Region,France,NA,Under2Coalition2019,1,48.66666667,7,1872949,NA,NA,,Europe
Alseno,ITA,City,Italy,55.27,EUCovenantofMayors2019;GlobalCovenantofMayors2019;NAZCA,3,44.9,9.966666667,4977,NA,Piacenza,,Europe
Alta Gracia,ARG,City,Argentina,NA,GlobalCovenantofMayors2019;NAZCA,2,-27.5095304,-58.8264294,48506,NA,Córdoba,,Latin America and Caribbean
Altafulla,ESP,City,Spain,7,EUCovenantofMayors2019;GlobalCovenantofMayors2019;NAZCA,3,41.14333333,1.376944444,4928,2018,Tarragona,Tarragonès,Europe
Altare-Cosseria,ITA,City,Italy,NA,GlobalCovenantofMayors2019;EUCovenantofMayors2019,2,44.3352858,8.3180253,3249,NA,Liguria,Savona,Europe
Altavilla Milicia,ITA,City,Italy,23.78,GlobalCovenantofMayors2019;EUCovenantofMayors2019;NAZCA,3,38.037851,13.54835,7791,NA,Palermo,,Europe
Altavilla Silentina,ITA,City,Italy,52.48,GlobalCovenantofMayors2019;EUCovenantofMayors2019;NAZCA,3,40.5302405,15.1310307,7029,NA,Salerno,,Europe
Altavilla Vicentina,ITA,City,Italy,16.72,GlobalCovenantofMayors2019;EUCovenantofMayors2019;NAZCA,3,45.5084288,11.4706863,12084,NA,Vicenza,,Europe
Altea,ESP,City,Spain,34.43,EUCovenantofMayors2019;GlobalCovenantofMayors2019;NAZCA,3,38.59861111,-0.0519,21739,2018,Alicante,Marina Baixa,Europe
Alter do Chão,PRT,City,Portugal,362.07,EUCovenantofMayors2019;GlobalCovenantofMayors2019;NAZCA,3,39.18333333,-7.65,3591,2011,Alentejo,Portalegre,Europe
Altilia,ITA,City,Italy,10.56,EUCovenantofMayors2019;GlobalCovenantofMayors2019;NAZCA,3,39.13333333,16.25,779,NA,Cosenza,,Europe
Altino,ITA,City,Italy,15.33,EUCovenantofMayors2019;GlobalCovenantofMayors2019;NAZCA,3,42.1,14.33333333,2823,NA,Chieti Province,,Europe
Altivole,ITA,City,Italy,21.95,GlobalCovenantofMayors2019;EUCovenantofMayors2019;NAZCA,3,45.7540029,11.9553621,6828,NA,Treviso,,Europe
Alto,ITA,City,Italy,40.0671453,GlobalCovenantofMayors2019;NAZCA,2,46.433666,11.16933,113,2010,Cuneo,,Europe
Alto Agordino,ITA,City,Italy,NA,GlobalCovenantofMayors2019;EUCovenantofMayors2019;NAZCA,3,46.2683053,12.036373,3869,NA,Venice,Belluno,Europe
Alto Alegre,BRA,City,Brazil,25567,GlobalCovenantofMayors2019;NAZCA,2,-21.623976,-50.203844,4164,2015,Roraima,,Latin America and Caribbean
Alto e Medio Metauro,ITA,City,Italy,590.82,GlobalCovenantofMayors2019;EUCovenantofMayors2019,2,43.668333,12.524167,41375,NA,Marche,,Europe
Altofonte,ITA,City,Italy,35.44,GlobalCovenantofMayors2019;NAZCA,2,38.044476,13.298103,10438,NA,Sicily,Palermo,Europe
"Alton, IL",USA,City,United States of America,43,Carbonn2019;GlobalCovenantofMayors2019;CDPCities2018;NAZCA,4,38.90055556,-90.15972222,26581,2010,Illinois,"Madison County, IL",North America
Altötting,DEU,City,Germany,23.43,GlobalCovenantofMayors2019;EUCovenantofMayors2019;NAZCA,3,48.2268085,12.6757914,13000,NA,Bavaria,NA,Europe
Altura,ESP,City,Spain,7.3037718,GlobalCovenantofMayors2019;NAZCA,2,39.850792,-0.512944,3920,2010,Castellón,,Europe
Aluminé,ARG,City,Argentina,NA,Race to Zero,NA,-39.217,-70.95,3720,2001,Neuquén,Neuquén,NA
Alvaiázere,PRT,City,Portugal,160.48,GlobalCovenantofMayors2019;EUCovenantofMayors2019;NAZCA,3,39.8161333,-8.402046067,8112,2011,Centro,Leiria,Europe
Alvarado,MEX,City,Mexico,840.63,GlobalCovenantofMayors2019;NAZCA,2,18.76648,-95.7573,56927,2005,Veracruz,NA,Latin America and Caribbean
Alvesta,SWE,City,Sweden,6.1,GlobalCovenantofMayors2019;EUCovenantofMayors2019;NAZCA,3,56.86382675,14.44793099,18757,2010,Småland,NA,Europe
Alvignano,ITA,City,Italy,38.13,EUCovenantofMayors2019;GlobalCovenantofMayors2019;NAZCA,3,41.25,14.33333333,4885,NA,Caserta,,Europe
Älvsbyn,SWE,City,Sweden,6.35,EUCovenantofMayors2019;GlobalCovenantofMayors2019;NAZCA,3,65.68333333,21.01666667,8274,2010,Norrbotten County,NA,Europe
Alzano Lombardo,ITA,City,Italy,13.68,EUCovenantofMayors2019;GlobalCovenantofMayors2019;NAZCA,3,45.73333333,9.733333333,13757,NA,Bergamo,,Europe
Alzira,ESP,City,Spain,110.4,GlobalCovenantofMayors2019;NAZCA,2,39.1512424,-0.4346132,44518,2018,Valencia,Ribera Alta,Europe
Amacuzac,MEX,City,Mexico,125,Carbonn2019,1,18,-99,17021,NA,Morelos,,Latin America and Caribbean
Amadora,PRT,City,Portugal,23.78,GlobalCovenantofMayors2019;NAZCA,2,38.75776,-9.224547,172350,2011,Lisbon,,Europe
Amami,JPN,City,Japan,308.15,Carbonn2019,1,28.31666667,129.45,44561,2016,Kagoshima Prefecture,Kagoshima,East Asia and the Pacific
Amares,PRT,City,Portugal,81.95,EUCovenantofMayors2019;GlobalCovenantofMayors2019;NAZCA,3,41.61666667,-8.333333333,19000,2011,Norte,Braga,Europe
Amaroussion,GRC,City,Greece,12.938,GlobalCovenantofMayors2019;EUCovenantofMayors2019;NAZCA,3,38.0455,23.7689,72480,2011,Attica,North Athens,Europe
Amato,ITA,City,Italy,20.93,EUCovenantofMayors2019;GlobalCovenantofMayors2019;NAZCA,3,38.93333333,16.46666667,861,NA,Reggio Calabria,Catanzaro,Europe
Amay,BEL,City,Belgium,27.61,GlobalCovenantofMayors2019;NAZCA,2,50.5497761,5.3240992,14145,NA,Liège,Huy,Europe
"Amazonas, Brazil",BRA,Region,Brazil,1570745.7,Under2Coalition2019;NAZCA,2,-5,-63,4063614,2010,NA,,Latin America and Caribbean
"Amazonas, Peru",PER,Region,Peru,39249.13,CompactofStatesRegions2018;Under2Coalition2019;NAZCA,3,-6.216666667,-77.85,424952,2017,NA,,Latin America and Caribbean
Ambivere,ITA,City,Italy,3.28,EUCovenantofMayors2019;GlobalCovenantofMayors2019;NAZCA,3,45.71666667,9.55,2371,NA,Bergamo,,Europe
"Ambler, PA",USA,City,United States of America,23.2581102,WeAreStillIn2019;ClimateMayors;WeAreStillIn2019,2,67.085,-157.8602778,6506,2010,Pennsylvania,,North America
Ameglia,ITA,City,Italy,14.17,EUCovenantofMayors2019;GlobalCovenantofMayors2019;NAZCA,3,44.06666667,9.95,4520,NA,La Spezia,,Europe
Amel,BEL,City,Belgium,125.15,GlobalCovenantofMayors2019;NAZCA,2,50.3543055,6.1705559,5500,NA,Liège,Verviers,Europe
Amendolara,ITA,City,Italy,60.91,GlobalCovenantofMayors2019;EUCovenantofMayors2019;NAZCA,3,39.9524383,16.5822838,3107,NA,Cosenza,,Europe
Ameno,ITA,City,Italy,10,GlobalCovenantofMayors2019;EUCovenantofMayors2019;NAZCA,3,45.7886563,8.4413106,878,NA,Novara,,Europe
Amer,ESP,City,Spain,NA,EUCovenantofMayors2019;GlobalCovenantofMayors2019;NAZCA,3,42.0092186,2.6030327,2300,NA,Girona,Selva,Europe
"Amesville, OH",USA,City,United States of America,0.5697978,ClimateMayors,1,39.401389,-81.955,157,2010,Ohio,"Athens County, OH",North America
Amezketa,ESP,City,Spain,NA,EUCovenantofMayors2019;GlobalCovenantofMayors2019;NAZCA,3,43.04916667,-2.088055556,994,2018,Biscay,Tolosaldea,Europe
Amiens,FRA,City,France,NA,GlobalCovenantofMayors2019;NAZCA,2,49.8941708,2.2956951,132727,NA,Hauts-de-France,NA,Europe
Amiens Métropole,FRA,City,France,NA,GlobalCovenantofMayors2019;NAZCA,2,49.87267,2.313818,177345,NA,Hauts-de-France,Amiens,Europe
Amman,JOR,City,Jordan,1680,CDPCities2018;Carbonn2019;C40Cities2019;GlobalCovenantofMayors2019;NAZCA,5,31.9454,35.9284,3800000,2017,Amman Governorate,,Middle East and North Africa
Ampelokipi - Menemeni,GRC,City,Greece,8.82,EUCovenantofMayors2019;GlobalCovenantofMayors2019;NAZCA,3,40.65,22.91666667,52127,2011,Central Macedonia,Ampelokipoi-Menemeni,Europe
Amposta,ESP,City,Spain,138.3,EUCovenantofMayors2019;GlobalCovenantofMayors2019;NAZCA,3,40.71055556,0.580833333,21197,2018,Tarragona,Montsià,Europe
Ampuero,ESP,City,Spain,32.34,GlobalCovenantofMayors2019;NAZCA,2,43.3440563,-3.4151481,4228,2018,Cantabria,Asón valley,Europe
Amsterdam,NLD,City,Netherlands,219.32,C40Cities2019;EUCovenantofMayors2019;GlobalCovenantofMayors2019;NAZCA,4,52.36666667,4.9,731289,2015,North Holland,,Europe
Amurrio,ESP,City,Spain,96.36,Carbonn2019;GlobalCovenantofMayors2019;EUCovenantofMayors2019;NAZCA,4,43.05277778,-3.001388889,10260,2018,Alava,Aiaraldea,Europe
Amuwo-Odofin,NGA,City,Nigeria,179,Carbonn2019,1,6.45,3.266666667,386060,NA,Lagos State,Lagos,Sub-Saharan Africa
Amynteo,GRC,City,Greece,589.4,EUCovenantofMayors2019;GlobalCovenantofMayors2019;NAZCA,3,40.683333,21.683333,16973,NA,West Macedonia,,Europe
Anacapri,ITA,City,Italy,6.47,EUCovenantofMayors2019;GlobalCovenantofMayors2019;NAZCA,3,40.55,14.21666667,6684,NA,Naples,,Europe
Anadia,PRT,City,Portugal,216.63,EUCovenantofMayors2019;GlobalCovenantofMayors2019;NAZCA,3,40,-8,29150,NA,Centro,Aveiro,Europe
Ancarano,ITA,City,Italy,13.92,GlobalCovenantofMayors2019;EUCovenantofMayors2019;NAZCA,3,42.836048,13.739392,1921,NA,Province of Teramo,Teramo,Europe
"Anchorage, AK",USA,City,United States of America,204.091212,GlobalCovenantofMayors2019;ClimateMayors;WeAreStillIn2019;WeAreStillIn2019;CDPCities2018;NAZCA,5,61.2163129,-149.8948522,301010,2010,Alaska,,North America
Ancona,ITA,City,Italy,124.84,GlobalCovenantofMayors2019;Carbonn2019;EUCovenantofMayors2019;NAZCA,4,43.6170137,13.5170982,100507,NA,NA,,Europe
Andalo,ITA,City,Italy,11.38,EUCovenantofMayors2019;GlobalCovenantofMayors2019;NAZCA,3,46.16666667,11.00444444,1042,NA,Trento,Trentino,Europe
Andalusia,ESP,Region,Spain,NA,Under2Coalition2019;CompactofStatesRegions2018;NAZCA,3,37.38333333,-5.983333333,8394426,2014,NA,,Europe
"Anderson, SC",USA,City,United States of America,37.813854,ClimateMayors;WeAreStillIn2019;WeAreStillIn2019,2,34.514444,-82.648889,27181,NA,South Carolina,"Anderson County, SC",North America
Andilla,ESP,City,Spain,142.8,GlobalCovenantofMayors2019;NAZCA,2,39.8357785,-0.8143659,400,2018,Valencia,Los Serranos,Europe
Andora,ITA,City,Italy,31.8,GlobalCovenantofMayors2019;EUCovenantofMayors2019;NAZCA,3,43.9519286,8.1456487,6767,NA,Savona,,Europe
Andrano,ITA,City,Italy,15.71,EUCovenantofMayors2019;GlobalCovenantofMayors2019;NAZCA,3,39.98333333,18.38333333,5027,2017,Lecce,,Europe
Andratx,ESP,City,Spain,81.46,EUCovenantofMayors2019;GlobalCovenantofMayors2019;NAZCA,3,39.57083333,2.421388889,12149,2018,Baleares,NA,Europe
Andravida - Killini,GRC,City,Greece,355.5,GlobalCovenantofMayors2019;NAZCA,2,37.968307,21.26082,26333,2011,West Greece,Andravida-Kyllini,Europe
Andretta,ITA,City,Italy,43.65,GlobalCovenantofMayors2019;NAZCA,2,40.940363,15.327022,2089,NA,Avellino,,Europe
Andria,ITA,City,Italy,402.89,GlobalCovenantofMayors2019;EUCovenantofMayors2019;NAZCA,3,41.227674,16.2947553,100217,NA,Barletta-Andria-Trani - Andria - Trani,Barletta-Andria-Trani,Europe
Andrieseni,ROU,City,Romania,NA,GlobalCovenantofMayors2019;NAZCA,2,47.52795,27.285696,4420,2002,Ia<U+0219>i County,,Europe
Andújar,ESP,City,Spain,9649,EUCovenantofMayors2019;GlobalCovenantofMayors2019;NAZCA,3,38.03333333,-4.05,38769,2018,Jaén,Campiña de Jaén,Europe
Aneby,SWE,City,Sweden,3.37,GlobalCovenantofMayors2019;NAZCA,2,57.838521,14.817802,6776,2010,Småland,NA,Europe
Aného,TGO,City,Togo,NA,GlobalCovenantofMayors2019;NAZCA,2,6.24081,1.63335,25000,NA,Maritime,,Sub-Saharan Africa
Anela,ITA,City,Italy,36.89,GlobalCovenantofMayors2019;EUCovenantofMayors2019;NAZCA,3,40.44176,9.057427,699,NA,Sassari,,Europe
Anenii Noi,MDA,City,Moldova,NA,GlobalCovenantofMayors2019;EUCovenantofMayors2019;NAZCA,3,46.8808554,29.2227797,13856,2014,Anenii Noi District,NA,Eastern Europe and Central Asia
Anento,ESP,City,Spain,21,EUCovenantofMayors2019;GlobalCovenantofMayors2019;NAZCA,3,41.06666667,-1.333333333,133,2018,Aragon,NA,Europe
Anfo,ITA,City,Italy,23.83,EUCovenantofMayors2019;GlobalCovenantofMayors2019;NAZCA,3,45.76527778,10.49444444,434,NA,Lombardy,Brescia,Europe
Angeles City,PHL,City,Philippines,60.27,GlobalCovenantofMayors2019;Carbonn2019;NAZCA,3,15.12611,120.59302,470282,NA,Pampanga,,East Asia and the Pacific
Ängelholm,SWE,City,Sweden,12.83,Carbonn2019,1,56.25,12.85,39612,2017,Skåne,NA,Europe
Angera,ITA,City,Italy,17.72,GlobalCovenantofMayors2019;EUCovenantofMayors2019;NAZCA,3,45.7721876,8.5751222,5694,NA,Varese,,Europe
Angers Loire Métropole,FRA,City,France,NA,GlobalCovenantofMayors2019;EUCovenantofMayors2019;NAZCA,3,47.4739884,-0.5515587,283000,NA,Pays de la Loire,Angers,Europe
Angiari,ITA,City,Italy,13.47,EUCovenantofMayors2019;GlobalCovenantofMayors2019;NAZCA,3,45.21666667,11.28333333,2204,NA,Verona,,Europe
Anglès,ESP,City,Spain,16.3,EUCovenantofMayors2019;GlobalCovenantofMayors2019;NAZCA,3,41.95,2.65,5500,2018,Girona,Selva,Europe
Angolo Terme,ITA,City,Italy,30.56,GlobalCovenantofMayors2019;NAZCA,2,45.8910363,10.1460986,2459,NA,Brescia,,Europe
Angossas,CMR,City,Cameroon,NA,GlobalCovenantofMayors2019;NAZCA,2,4.0756573,12.9885553,13605,NA,East Region,Cameroon,Sub-Saharan Africa
Angra dos Reis,BRA,City,Brazil,816.3,CDPCities2018,1,-22.9983,-44.2442,169.511,2018,Rio de Janeiro (State),Rio de Janeiro,Latin America and Caribbean
Angri,ITA,City,Italy,13.77,GlobalCovenantofMayors2019;EUCovenantofMayors2019;NAZCA,3,40.74271,14.571439,32675,NA,Salerno,,Europe
Anguillara Sabazia,ITA,City,Italy,75.24,GlobalCovenantofMayors2019;EUCovenantofMayors2019;NAZCA,3,42.08752,12.27667,18256,NA,Rome,,Europe
Anguillara Veneta,ITA,City,Italy,21.67,GlobalCovenantofMayors2019;EUCovenantofMayors2019;NAZCA,3,45.1393548,11.8877456,4512,NA,Padua,,Europe
Aniene Green Net,ITA,City,Italy,NA,EUCovenantofMayors2019;GlobalCovenantofMayors2019,2,41.9589747,12.5660007,12140,NA,Lazio,,Europe
"Ann Arbor, MI",USA,City,United States of America,74.33,Carbonn2019;GlobalCovenantofMayors2019;CDPCities2018;ClimateMayors;WeAreStillIn2019;WeAreStillIn2019;NAZCA,6,42.28138889,-83.74833333,1177700,2017,Michigan,"Washtenaw County, MI",North America
Anna,ESP,City,Spain,18.6738279,GlobalCovenantofMayors2019;NAZCA,2,39.0204311,-0.646136,2655,2010,Valencia,Canal de Navarrés,Europe
Annecy,FRA,City,France,NA,GlobalCovenantofMayors2019;EUCovenantofMayors2019;NAZCA,3,45.88975045,6.1354651,51119,NA,Haute-Savoie,NA,Europe
Annemasse Les Voirons,FRA,City,France,73.69,GlobalCovenantofMayors2019;NAZCA,2,46.21444,6.353056,29540,2014,Auvergne-Rhône-Alpes,Annemasse,Europe
Annicco,ITA,City,Italy,19.2,GlobalCovenantofMayors2019;EUCovenantofMayors2019;NAZCA,3,45.244572,9.879466,2097,NA,Cremona,,Europe
Annone di Brianza,ITA,City,Italy,5.98,EUCovenantofMayors2019;GlobalCovenantofMayors2019;NAZCA,3,45.78333333,9.333333333,2296,NA,Lecco,,Europe
Annone Veneto,ITA,City,Italy,25.94,GlobalCovenantofMayors2019;EUCovenantofMayors2019;NAZCA,3,45.79551,12.68422,3984,NA,Venice,,Europe
Anogia,GRC,City,Greece,102.6,GlobalCovenantofMayors2019;EUCovenantofMayors2019;NAZCA,3,35.2907782,24.8824614,2507,2011,Crete,Rethymno,Europe
Añon De Moncayo,ESP,City,Spain,64.33,GlobalCovenantofMayors2019;EUCovenantofMayors2019;NAZCA,3,41.778589,-1.7210175,208,2018,Aragon,Tarazona y el Moncayo,Europe
Ans,BEL,City,Belgium,23.35,GlobalCovenantofMayors2019;EUCovenantofMayors2019;NAZCA,3,50.6624326,5.5190612,28131,NA,Liège,Liège,Europe
Ansan,KOR,City,South Korea,149.39,Carbonn2019;GlobalCovenantofMayors2019;NAZCA,3,37.31666667,126.8333333,693546,2018,Gyeonggi-do,Sudogwon,East Asia and the Pacific
Antalya,TUR,City,Turkey,1417,GlobalCovenantofMayors2019;EUCovenantofMayors2019;NAZCA,3,36.9008783,30.6937117,2043432,2014,NA,,Eastern Europe and Central Asia
Antas de Almería,ESP,City,Spain,NA,GlobalCovenantofMayors2019;EUCovenantofMayors2019;NAZCA,3,37.245218,-1.918142,3223,NA,Almería,,Europe
Antella,ESP,City,Spain,17.6,GlobalCovenantofMayors2019;NAZCA,2,39.080713,-0.5909713,1343,2018,Valencia,Ribera Alta,Europe
Antequera,ESP,City,Spain,749.34,GlobalCovenantofMayors2019;EUCovenantofMayors2019;NAZCA,3,37.0183652,-4.5596648,44032,2018,Málaga,NA,Europe
Anthisnes,BEL,City,Belgium,37.08,GlobalCovenantofMayors2019;NAZCA,2,50.481662,5.5225261,4119,NA,Liège,Huy,Europe
Antillo,ITA,City,Italy,43.64,GlobalCovenantofMayors2019;EUCovenantofMayors2019;NAZCA,3,37.977262,15.244786,992,NA,Messina,,Europe
"Antioch, CA",USA,City,United States of America,75.32,Carbonn2019,1,38.005,-121.8058333,108930,2010,California,"Contra Costa County, CA",North America
Antoing,BEL,City,Belgium,31.13,GlobalCovenantofMayors2019;NAZCA,2,50.56727,3.451391,7813,NA,Hainaut,Tournai,Europe
Antonesti,MDA,City,Moldova,NA,GlobalCovenantofMayors2019;NAZCA,2,46.335302,28.216647,1042,2014,Cantemir District,Cantemir,Eastern Europe and Central Asia
Antrona Schieranco,ITA,City,Italy,100.18,EUCovenantofMayors2019;GlobalCovenantofMayors2019;NAZCA,3,46.06666667,8.116666667,465,NA,Verbano-Cusio-Ossola,,Europe
Antwerp,BEL,City,Belgium,204.51,Carbonn2019;EUCovenantofMayors2019;GlobalCovenantofMayors2019;NAZCA,4,51.21777778,4.400277778,502604,NA,Antwerp Province,NA,Europe
Antwerp Province,BEL,Region,Belgium,2867,GlobalCovenantofMayors2019,1,51.2211097,4.3997081,1809412,NA,NA,,Europe
Anversa degli Abruzzi,ITA,City,Italy,32.43,GlobalCovenantofMayors2019;EUCovenantofMayors2019;NAZCA,3,41.9940179,13.8040518,368,NA,Province of L'Aquila,L'Aquila,Europe
Anyang,KOR,City,South Korea,58.46,Carbonn2019,1,37.38333333,126.9333333,614687,2016,Gyeonggi-do,Sudogwon,East Asia and the Pacific
Anykšciai,LTU,City,Lithuania,NA,EUCovenantofMayors2019;GlobalCovenantofMayors2019;NAZCA,3,55.53333333,25.1,32137,2011,Utena County,NA,Europe
Anzi,ITA,City,Italy,43.65,GlobalCovenantofMayors2019;EUCovenantofMayors2019;NAZCA,3,40.516615,15.924571,1811,NA,Basilicata,Potenza,Europe
Anzola dell'Emilia,ITA,City,Italy,36.6,GlobalCovenantofMayors2019;EUCovenantofMayors2019;NAZCA,3,44.546367,11.194608,11992,NA,Bologna,,Europe
Aomori,JPN,City,Japan,825,Carbonn2019,1,40.82233333,140.7307222,298866,2017,Aomori Prefecture,Sannohe,East Asia and the Pacific
Aomori Prefecture,JPN,Region,Japan,9606.26,Carbonn2019,1,40.82466667,140.7406389,1373164,NA,NA,,East Asia and the Pacific
"Apalachicola, FL",USA,City,United States of America,4.9986807,WeAreStillIn2019;ClimateMayors;WeAreStillIn2019,2,29.72527778,-84.9925,2276,2010,Florida,"Franklin County, FL",North America
Aparan,ARM,City,Armenia,3.5,EUCovenantofMayors2019;GlobalCovenantofMayors2019;NAZCA,3,40.58911389,44.35721389,6500,NA,Aragatsotn,,Eastern Europe and Central Asia
Aparecida,BRA,City,Brazil,121.08,CDPCities2018;GlobalCovenantofMayors2019;NAZCA,3,-20.7,-41.6667,36279,2017,São Paulo State,,Latin America and Caribbean
Aparecida de Goiânia,BRA,City,Brazil,290.1,Carbonn2019;GlobalCovenantofMayors2019;CDPCities2018;NAZCA,4,-16.82277778,-49.22555556,521910,2018,Goiás,,Latin America and Caribbean
Apaseo el Grande,MEX,City,Mexico,415.26,GlobalCovenantofMayors2019;NAZCA,2,20.5455014,-100.6878411,92605,NA,Guanajuato,,Latin America and Caribbean
Apeldoorn,NLD,City,Netherlands,341.15,GlobalCovenantofMayors2019;NAZCA,2,52.211157,5.969923,155730,NA,Gelderland,,Europe
Apokoronou,GRC,City,Greece,315.5,GlobalCovenantofMayors2019;EUCovenantofMayors2019;NAZCA,3,35.383333,24.2,12807,NA,Crete,Chania,Europe
Apollosa,ITA,City,Italy,21.12,GlobalCovenantofMayors2019;NAZCA,2,41.092183,14.700951,2725,NA,Benevento,,Europe
"Apopka, FL",USA,City,United States of America,86.6610654,GlobalCovenantofMayors2019;NAZCA,2,28.7414145,-81.5344293,47084,2010,Florida,"Orange County, FL",North America
Appignano,ITA,City,Italy,22.67,EUCovenantofMayors2019;GlobalCovenantofMayors2019;NAZCA,3,43.4,13.2,4212,NA,Macerata,,Europe
Aprica,ITA,City,Italy,20.37,GlobalCovenantofMayors2019;EUCovenantofMayors2019;NAZCA,3,46.152697,10.151656,1576,NA,Sondrio,,Europe
Apricale,ITA,City,Italy,19.94,EUCovenantofMayors2019;GlobalCovenantofMayors2019;NAZCA,3,43.88333333,7.666666667,625,NA,Imperia,,Europe
Aprigliano,ITA,City,Italy,122.43,EUCovenantofMayors2019;GlobalCovenantofMayors2019;NAZCA,3,39.23333333,16.35,2714,NA,Cosenza,,Europe
Aprilia,ITA,City,Italy,178.11,EUCovenantofMayors2019;GlobalCovenantofMayors2019;NAZCA,3,41.58333333,12.65,70349,NA,Latina,,Europe
Aqaba Special Economic Zone Authority,JOR,City,Jordan,NA,EUCovenantofMayors2019;NAZCA,2,29,35,118000,2005,Aqaba Qasabah District,,Middle East and North Africa
Aquila,MEX,City,Mexico,NA,GlobalCovenantofMayors2019;NAZCA,2,18.79577,-97.30922,1924,NA,Veracruz,,Latin America and Caribbean
Aquitaine,FRA,Region,France,41308,Under2Coalition2019,1,44.58333333,0,3300000,2009,NA,,Europe
Aracaju,BRA,City,Brazil,1167.4,CDPCities2018;GlobalCovenantofMayors2019;Carbonn2019;NAZCA,4,-10.9472,-37.0731,641523,2016,São Paulo State,Sergipe,Latin America and Caribbean
Araçatuba,BRA,City,Brazil,1167.4,CDPCities2018;NAZCA,2,-21.2089,-50.4328,190536,2013,São Paulo State,São Paulo,Latin America and Caribbean
Aracena,ESP,City,Spain,184,EUCovenantofMayors2019;GlobalCovenantofMayors2019;NAZCA,3,37.89111111,-6.561111111,7612,2018,Huelva,Sierra de Huelva,Europe
Arad,ROU,City,Romania,46.18,EUCovenantofMayors2019;GlobalCovenantofMayors2019;NAZCA,3,46.16666667,21.31666667,172827,NA,NA,,Europe
Aradeo,ITA,City,Italy,8.58,EUCovenantofMayors2019;GlobalCovenantofMayors2019;NAZCA,3,40.13333333,18.13333333,9827,NA,Lecce,,Europe
Aradippou,CYP,City,Cyprus,NA,GlobalCovenantofMayors2019;EUCovenantofMayors2019;NAZCA,3,34.9527866,33.5899733,19594,2011,Larnaka District,Larnaca,Europe
Aragona,ITA,City,Italy,74.7,GlobalCovenantofMayors2019;NAZCA,2,37.4031776,13.6175534,9493,NA,Agrigento,,Europe
Arahal,ESP,City,Spain,201.09,EUCovenantofMayors2019;GlobalCovenantofMayors2019;NAZCA,3,37.25,-5.533333333,19585,2018,Seville,La Campiña,Europe
Arandas,MEX,City,Mexico,NA,GlobalCovenantofMayors2019;NAZCA,2,20.70549,-102.345154,77116,2005,Jalisco,Los Altos,Latin America and Caribbean
Aranjuez,ESP,City,Spain,201.11,GlobalCovenantofMayors2019;EUCovenantofMayors2019;NAZCA,3,40.0322347,-3.6039678,58000,2018,Madrid,of Madrid,Europe
Araraquara,BRA,City,Brazil,1004,CDPCities2018,1,-21.7946,-48.1766,266508,2015,São Paulo State,São Paulo,Latin America and Caribbean
Ararat,ARM,City,Armenia,NA,Under2Coalition2019,1,40.03333333,44.33333333,260367,NA,NA,,Eastern Europe and Central Asia
Aras De Los Olmos,ESP,City,Spain,76,GlobalCovenantofMayors2019;NAZCA,2,39.9242294,-1.1332321,386,2018,Valencia,Los Serranos,Europe
Arba Minch,ETH,City,Ethiopia,NA,GlobalCovenantofMayors2019;NAZCA,2,6.020605,37.564109,140000,2017,"Southern Nations, Nationalities, and Peoples",Ethiopia,Sub-Saharan Africa
Arboleas,ESP,City,Spain,65,EUCovenantofMayors2019;GlobalCovenantofMayors2019;NAZCA,3,37.35,-2.066666667,3904,2018,Almería,,Europe
Arbolí,ESP,City,Spain,20.8,GlobalCovenantofMayors2019;EUCovenantofMayors2019;NAZCA,3,41.2425941,0.9487676,110,2018,Tarragona,Baix Camp,Europe
Arbúcies,ESP,City,Spain,86.2,GlobalCovenantofMayors2019;EUCovenantofMayors2019;NAZCA,3,41.8160485,2.5140573,6713,2018,Girona,Selva,Europe
Arbus,ITA,City,Italy,269.12,GlobalCovenantofMayors2019;NAZCA,2,39.525839,8.597831,6387,NA,South Sardinia,,Europe
"Arcata, CA",USA,City,United States of America,24.2682063,WeAreStillIn2019;ClimateMayors;WeAreStillIn2019,2,40.86638889,-124.0827778,17974,2010,California,"Humboldt County, CA",North America
Arcene,ITA,City,Italy,4.35,EUCovenantofMayors2019;GlobalCovenantofMayors2019;NAZCA,3,45.58333333,9.616666667,4767,NA,Bergamo,,Europe
Archena,ESP,City,Spain,16.4,GlobalCovenantofMayors2019;NAZCA,2,38.116774,-1.301143,19500,2018,Murcia,Vega Media del Segura,Europe
Árchez,ESP,City,Spain,4.8,EUCovenantofMayors2019;GlobalCovenantofMayors2019;NAZCA,3,36.83888889,-3.990555556,437,2018,Málaga,Axarquía,Europe
Archi,ITA,City,Italy,NA,GlobalCovenantofMayors2019;EUCovenantofMayors2019;NAZCA,3,42.089937,14.381217,2310,NA,Abruzzo,Chieti,Europe
Archidona,ESP,City,Spain,185.59,GlobalCovenantofMayors2019;EUCovenantofMayors2019;NAZCA,3,37.0949676,-4.3909773,8500,2018,Málaga,Comarca of Antequera,Europe
Archipiélago de San Andrés,COL,City,Colombia,NA,CDPCities2018,1,12.5794,-81.6976,120000,2017,NA,,Latin America and Caribbean
Arco,ITA,City,Italy,NA,EUCovenantofMayors2019;GlobalCovenantofMayors2019;NAZCA,3,45.91667,10.88333,17322,2011,Trento,,Europe
Arcola,ITA,City,Italy,5.17998,GlobalCovenantofMayors2019;EUCovenantofMayors2019;NAZCA,3,44.1143821,9.9059673,9914,2010,La Spezia,,Europe
Arcole,ITA,City,Italy,18.87,GlobalCovenantofMayors2019;NAZCA,2,45.357317,11.28472,6263,NA,Verona,,Europe
Arconate,ITA,City,Italy,8.42,GlobalCovenantofMayors2019;EUCovenantofMayors2019;NAZCA,3,45.54197,8.848538,6679,NA,Lombardy,Milan,Europe
Arcore,ITA,City,Italy,9.25,EUCovenantofMayors2019;GlobalCovenantofMayors2019;NAZCA,3,45.63333333,9.316666667,17838,NA,Monza Brianza,Monza and Brianza,Europe
Arcos de la Frontera,ESP,City,Spain,527.54,EUCovenantofMayors2019;GlobalCovenantofMayors2019;NAZCA,3,36.75,-5.8,29905,2018,Cádiz,NA,Europe
Arcos de Valdevez,PRT,City,Portugal,447.6,GlobalCovenantofMayors2019;EUCovenantofMayors2019;NAZCA,3,41.8471981,-8.4178819,22586,2011,Norte,Viana do Castelo,Europe
Arcugnano,ITA,City,Italy,41.57,GlobalCovenantofMayors2019;NAZCA,2,45.500612,11.535509,7024,NA,Vicenza,,Europe
Ardales,ESP,City,Spain,106,GlobalCovenantofMayors2019;EUCovenantofMayors2019;NAZCA,3,36.878757,-4.8464639,2600,2018,Asturias,Málaga,Europe
Ardara,ITA,City,Italy,38.19,EUCovenantofMayors2019;GlobalCovenantofMayors2019;NAZCA,3,40.62277778,8.811388889,810,NA,Sassari,,Europe
Ardeh,LBN,City,Lebanon,NA,GlobalCovenantofMayors2019;NAZCA,2,34.4113373,35.919918,5000,NA,Zgharta District,Zgharta,Middle East and North Africa
"Arden, DE",USA,City,United States of America,NA,WeAreStillIn2019,1,39.80916667,-75.48666667,448,NA,Delaware,"New Castle County, DE",North America
Ardesio,ITA,City,Italy,54.44,GlobalCovenantofMayors2019;NAZCA,2,45.9382,9.931005,1225,NA,Bergamo,,Europe
Ardisa,ESP,City,Spain,27,EUCovenantofMayors2019;GlobalCovenantofMayors2019;NAZCA,3,42.33305556,-1.266944444,85,2018,Aragon,Zaragoza,Europe
"Ardsley, NY",USA,City,United States of America,3.366987,ClimateMayors,1,41.011389,-73.841389,4634,2010,New York State,"Westchester County, NY",North America
Area Adige Delta Po,ITA,City,Italy,NA,GlobalCovenantofMayors2019;EUCovenantofMayors2019,2,45.4708684,11.4963819,33013,NA,Venice,,Europe
Area Alto Polesine,ITA,City,Italy,1789,GlobalCovenantofMayors2019;EUCovenantofMayors2019,2,45.0827517,11.5689043,17299,NA,Venice,,Europe
Area Rovigo Centrale,ITA,City,Italy,NA,EUCovenantofMayors2019;GlobalCovenantofMayors2019,2,45.067567,11.78711,59383,NA,Venice,Padua,Europe
Area San Pietro Di Feletto - Pieve Di Soligo - Refrontolo,ITA,City,Italy,NA,EUCovenantofMayors2019;GlobalCovenantofMayors2019,2,45.9041427,12.1185964,19257,NA,Venice,Treviso,Europe
Areatza,ESP,City,Spain,9.1,EUCovenantofMayors2019;Carbonn2019;GlobalCovenantofMayors2019;NAZCA,4,43.12083333,-2.769444444,1036,2018,Biscay,Arratia-Nerbioi,Europe
Arenales De San Gregorio,ESP,City,Spain,31.19,EUCovenantofMayors2019;GlobalCovenantofMayors2019;NAZCA,3,39.30972222,-3.025555556,703,2018,Ciudad Real,Mancha Alta,Europe
Arenas,ESP,City,Spain,26.3,EUCovenantofMayors2019;GlobalCovenantofMayors2019;NAZCA,3,36.81583333,-4.044722222,1411,2018,Cantabria,La Axarquía,Europe
Arenas del Rey,ESP,City,Spain,116,EUCovenantofMayors2019;GlobalCovenantofMayors2019;NAZCA,3,36.95777778,-3.899722222,2202,2018,Granada,Comarca de Alhama,Europe
Arendal,NOR,City,Norway,30.86,CDPCities2018;Carbonn2019;GlobalCovenantofMayors2019;NAZCA,4,58.4618,8.77245,44630,2017,Aust-Agder,NA,Europe
Arendonk,BEL,City,Belgium,55.38,GlobalCovenantofMayors2019;EUCovenantofMayors2019;NAZCA,3,51.3202315,5.0864557,12894,NA,Antwerp Province,Turnhout,Europe
Arenys de Mar,ESP,City,Spain,6.8,GlobalCovenantofMayors2019;EUCovenantofMayors2019;NAZCA,3,41.5797031,2.5491562,14685,2018,Barcelona Province,Maresme,Europe
Arenys de Munt,ESP,City,Spain,21.3,GlobalCovenantofMayors2019;EUCovenantofMayors2019;NAZCA,3,41.6095429,2.5400513,8192,2018,Barcelona Province,Maresme,Europe
Arenzano,ITA,City,Italy,24.3,GlobalCovenantofMayors2019;EUCovenantofMayors2019;NAZCA,3,44.4025183,8.6831317,11431,NA,Genoa,,Europe
Arequipa,PER,City,Peru,2923.53,Carbonn2019;CDPCities2018,2,-16.38333333,-71.53333333,784651,2015,NA,,Latin America and Caribbean
Arequito,ARG,City,Argentina,503,Race to Zero;NAZCA2020,2,-33.15,-61.466667,1391298,2010,Santa Fe,Caseros,Latin America and Caribbean
Arese,ITA,City,Italy,6.56,EUCovenantofMayors2019;GlobalCovenantofMayors2019;NAZCA,3,45.55,9.066666667,19056,NA,Lombardy,Milan,Europe
Arezzo,ITA,City,Italy,384.7,GlobalCovenantofMayors2019;EUCovenantofMayors2019;NAZCA,3,43.4640246,11.86046188,99434,NA,NA,,Europe
Arganda Del Rey,ESP,City,Spain,79.65,GlobalCovenantofMayors2019;NAZCA,2,40.3007708,-3.4380687,56000,2018,Madrid,of Madrid,Europe
Argelaguer,ESP,City,Spain,0.1256,GlobalCovenantofMayors2019;EUCovenantofMayors2019;NAZCA,3,42.2161,2.641572,430,2018,Girona,Garrotxa,Europe
Argençola,ESP,City,Spain,47.1,EUCovenantofMayors2019;GlobalCovenantofMayors2019;NAZCA,3,41.59833333,1.443611111,250,2018,Barcelona Province,Anoia,Europe
Argentona,ESP,City,Spain,25.4,GlobalCovenantofMayors2019;EUCovenantofMayors2019;NAZCA,3,41.5554326,2.4002787,11944,2018,Barcelona Province,Maresme,Europe
Argithea,GRC,City,Greece,372.9,GlobalCovenantofMayors2019;NAZCA,2,39.355207,21.538589,6084,2011,Thessaly,Karditsa,Europe
Argos Orestiko,GRC,City,Greece,NA,GlobalCovenantofMayors2019;NAZCA,2,40.4531538,21.2598868,11802,2011,West Macedonia,Orestida,Europe
Argos-Mykines,GRC,City,Greece,1002.5,EUCovenantofMayors2019;GlobalCovenantofMayors2019;NAZCA,3,37.61666667,22.71666667,42022,2011,Peloponnese,Argolis,Europe
Ari,ITA,City,Italy,NA,GlobalCovenantofMayors2019;EUCovenantofMayors2019;NAZCA,3,42.29234,14.263011,1319,NA,Chieti Province,Chieti,Europe
Ariano Irpino,ITA,City,Italy,186.74,GlobalCovenantofMayors2019;NAZCA,2,41.154893,15.092276,22517,NA,Avellino,,Europe
Ariany,ESP,City,Spain,23.1286107,GlobalCovenantofMayors2019;NAZCA,2,39.650895,3.112115,872,2018,Baleares,Pla de Mallorca,Europe
Arias,ARG,City,Argentina,NA,GlobalCovenantofMayors2019;Carbonn2019;NAZCA,3,-33.6422087,-62.4038412,7075,NA,Córdoba,,Latin America and Caribbean
Ariccia,ITA,City,Italy,18.59,GlobalCovenantofMayors2019;EUCovenantofMayors2019;NAZCA,3,41.720709,12.6713481,18381,NA,Rome,,Europe
Arielli,ITA,City,Italy,11.72,EUCovenantofMayors2019;GlobalCovenantofMayors2019;NAZCA,3,42.26666667,14.3,1250,NA,Chieti Province,Chieti,Europe
Aristotle,GRC,City,Greece,NA,GlobalCovenantofMayors2019;NAZCA,2,40.470394,23.715681,18861,NA,Central Macedonia,,Europe
Aritzo,ITA,City,Italy,75.58,EUCovenantofMayors2019;GlobalCovenantofMayors2019;NAZCA,3,39.95,9.2,1331,NA,Nuoro,,Europe
Arizona,USA,Region,United States of America,NA,ClimateAlliance2019,1,34,-112,7016270,2017,NA,,North America
Arizzano,ITA,City,Italy,1.6,EUCovenantofMayors2019;GlobalCovenantofMayors2019;NAZCA,3,45.96666667,8.583333333,2080,NA,Verbano-Cusio-Ossola,,Europe
Arjeplogs,SWE,City,Sweden,2.29,EUCovenantofMayors2019;GlobalCovenantofMayors2019;NAZCA,3,66.05,17.88333333,3069,2010,Norrbotten County,Lapland,Europe
Arjona,ESP,City,Spain,154.45,EUCovenantofMayors2019;GlobalCovenantofMayors2019;NAZCA,3,37.935,-4.056944444,5826,2018,Jaén,Campiña,Europe
Arjonilla,ESP,City,Spain,42,EUCovenantofMayors2019;GlobalCovenantofMayors2019;NAZCA,3,37.96666667,-4.1,3837,2018,Jaén,NA,Europe
"Arlington County, VA",USA,City,United States of America,70,WeAreStillIn2019,1,38.880278,-77.108333,234965,NA,Virginia,NA,North America
"Arlington, MA",USA,City,United States of America,25.1747028,WeAreStillIn2019,1,48.18111111,-122.1388889,17926,NA,Massachusetts,"Middlesex County, MA",North America
"Arlington, VA",USA,City,United States of America,2.7194895,GlobalCovenantofMayors2019;CDPCities2018;NAZCA,3,38.8903961,-77.0841584,220400,2010,Virginia,"Arlington County, VA",North America
Arlon,BEL,City,Belgium,118.64,GlobalCovenantofMayors2019;NAZCA,2,49.68514,5.81048,28259,NA,Luxembourg,NA,Europe
Arluno,ITA,City,Italy,12.36,GlobalCovenantofMayors2019;EUCovenantofMayors2019;NAZCA,3,45.50507,8.941541,9815,NA,Lombardy,Milan,Europe
Armamar,PRT,City,Portugal,117.24,EUCovenantofMayors2019;GlobalCovenantofMayors2019;NAZCA,3,41.10944444,-7.692222222,6258,2011,Norte,NA,Europe
Armenia,COL,City,Colombia,140,Carbonn2019,1,40.18333333,44.51666667,296683,2016,Quindío,,Latin America and Caribbean
Armeno,ITA,City,Italy,31.52,EUCovenantofMayors2019;GlobalCovenantofMayors2019;NAZCA,3,45.81666667,8.45,2226,NA,Novara,,Europe
Armilla,ESP,City,Spain,NA,EUCovenantofMayors2019;GlobalCovenantofMayors2019;NAZCA,3,37,-3,15404,NA,Granada,,Europe
Armstrong,ARG,City,Argentina,NA,GlobalCovenantofMayors2019;Carbonn2019;NAZCA,3,-32.7862663,-61.6035038,11484,NA,Santa Fe,"Santa Fe, Argentina",Latin America and Caribbean
Armuña de Almanzora,ESP,City,Spain,8,GlobalCovenantofMayors2019;EUCovenantofMayors2019;NAZCA,3,37.3501535,-2.4151255,333,2018,Almería,Almanzora,Europe
Arnesano,ITA,City,Italy,13.56,EUCovenantofMayors2019;GlobalCovenantofMayors2019;NAZCA,3,40.33333333,18.1,3981,NA,Lecce,,Europe
Arnhem,NLD,City,Netherlands,101.54,GlobalCovenantofMayors2019;NAZCA,2,52.0056642,5.876234508,149271,NA,Gelderland,,Europe
Arnsberg,DEU,City,Germany,8002.34,GlobalCovenantofMayors2019;NAZCA,2,51.4002384,8.0605908,73501,2017,North Rhine-Westphalia,Hochsauerland,Europe
Arnuero,ESP,City,Spain,24.66,GlobalCovenantofMayors2019;NAZCA,2,43.4725591,-3.5664117,2107,2018,Cantabria,Trasmiera,Europe
Aroche,ESP,City,Spain,499,GlobalCovenantofMayors2019;EUCovenantofMayors2019;NAZCA,3,37.9436167,-6.9539588,3400,2018,Huelva,,Europe
Arosio,ITA,City,Italy,2.58,GlobalCovenantofMayors2019;EUCovenantofMayors2019;NAZCA,3,45.716977,9.208043,4964,NA,Como,,Europe
Arouca,PRT,City,Portugal,329.11,GlobalCovenantofMayors2019;NAZCA,2,40.932149,-8.245099,23874,2011,Centro,Aveiro,Europe
Arpaise,ITA,City,Italy,6.66,GlobalCovenantofMayors2019;NAZCA,2,41.021922000000004,14.74626,804,NA,Benevento,,Europe
Arquà Polesine,ITA,City,Italy,19.93,GlobalCovenantofMayors2019;EUCovenantofMayors2019;NAZCA,3,45.0103882,11.7409408,2913,NA,Venice,Rovigo,Europe
Arqua' Petrarca,ITA,City,Italy,12.52,EUCovenantofMayors2019;GlobalCovenantofMayors2019;NAZCA,3,45.27,11.71833333,1856,NA,Venice,Padua,Europe
Arquata Scrivia,ITA,City,Italy,29.24,GlobalCovenantofMayors2019;NAZCA,2,44.680976,8.899976,6412,NA,Alessandria,,Europe
Arquillos,ESP,City,Spain,65,GlobalCovenantofMayors2019;EUCovenantofMayors2019;NAZCA,3,38.1809503,-3.4270553,1967,2018,Jaén,NA,Europe
Arraiján,PAN,City,Panama,65.5,GlobalCovenantofMayors2019;NAZCA,2,8.9422449,-79.6427274,220779,2010,NA,,Latin America and Caribbean
Arre,ITA,City,Italy,NA,EUCovenantofMayors2019;GlobalCovenantofMayors2019;NAZCA,3,45.2163193,11.930495,2202,NA,Padua,,Europe
Arrondissement de Namur,BEL,City,Belgium,NA,EUCovenantofMayors2019;GlobalCovenantofMayors2019,2,50.4665284,4.8661892,109113,NA,Namur,,Europe
Arroyo de la Luz,ESP,City,Spain,12,GlobalCovenantofMayors2019;NAZCA,2,39.48387,-6.581008,6392,2018,Cáceres,NA,Europe
Arroyo de San Serván,ESP,City,Spain,50.1,GlobalCovenantofMayors2019;NAZCA,2,38.85397,-6.453007,4253,2018,Badajoz,Tierra de Mérida Vegas Bajas,Europe
Arroyo del Ojanco,ESP,City,Spain,61,EUCovenantofMayors2019;GlobalCovenantofMayors2019;NAZCA,3,38.31666667,-2.883333333,2490,2018,Jaén,NA,Europe
Arroyomolinos de León,ESP,City,Spain,87,EUCovenantofMayors2019;GlobalCovenantofMayors2019;NAZCA,3,38.01666667,-6.416666667,1040,2018,Huelva,,Europe
Arruda dos Vinhos,PRT,City,Portugal,77.96,EUCovenantofMayors2019;GlobalCovenantofMayors2019;NAZCA,3,38.98333333,-9.066666667,11210,2011,Lisbon,,Europe
Arsago Seprio,ITA,City,Italy,10.51,GlobalCovenantofMayors2019;EUCovenantofMayors2019;NAZCA,3,45.6881584,8.7314516,4888,NA,Varese,,Europe
Arsiè,ITA,City,Italy,64.76,EUCovenantofMayors2019;GlobalCovenantofMayors2019;NAZCA,3,45.98333333,11.75,2495,NA,Belluno,,Europe
Arsita,ITA,City,Italy,34.14,GlobalCovenantofMayors2019;NAZCA,2,42.502602,13.784568,961,NA,Province of Teramo,Teramo,Europe
Arta,GRC,City,Greece,457.2,GlobalCovenantofMayors2019;NAZCA,2,39.158242,20.987684,43166,2011,Epirus,NA,Europe
Artà,ESP,City,Spain,139.7817603,GlobalCovenantofMayors2019,1,39.6935671,3.3374074,5566,2018,Baleares,Llevant,Europe
Arteaga,ARG,City,Argentina,277,GlobalCovenantofMayors2019;Carbonn2019;NAZCA,3,-33.0833,-61.8,3089,2000,Santa Fe,,Latin America and Caribbean
Artegna,ITA,City,Italy,11.22,GlobalCovenantofMayors2019;EUCovenantofMayors2019;NAZCA,3,46.2390964,13.1556513,2884,NA,Udine,,Europe
Artemivsk (Bachmut),UKR,City,Ukraine,NA,GlobalCovenantofMayors2019;EUCovenantofMayors2019;NAZCA,3,48.60083235,37.99400032,80655,NA,Donetsk Oblast,,Eastern Europe and Central Asia
Artena,ITA,City,Italy,54.8,GlobalCovenantofMayors2019;NAZCA,2,41.741883,12.911841,14154,NA,Lazio,Rome,Europe
Artés,ESP,City,Spain,17.9,GlobalCovenantofMayors2019;EUCovenantofMayors2019;NAZCA,3,41.7986735,1.9548856,5433,2018,Barcelona Province,Bages,Europe
Artesa de Lleida,ESP,City,Spain,23.9,GlobalCovenantofMayors2019;NAZCA,2,41.553054,0.703374,1717,2018,Lleida,Segrià,Europe
Artesa de Segre,ESP,City,Spain,175.9,GlobalCovenantofMayors2019;NAZCA,2,41.89566,1.047242,3893,2018,Lleida,Noguera,Europe
Artik,ARM,City,Armenia,7,GlobalCovenantofMayors2019;EUCovenantofMayors2019;NAZCA,3,40.6198428,43.9707866,19500,NA,Shirak,,Eastern Europe and Central Asia
Artogne,ITA,City,Italy,21.02,EUCovenantofMayors2019;GlobalCovenantofMayors2019;NAZCA,3,45.85055556,10.16194444,3608,NA,Brescia,,Europe
Artsyz,UKR,City,Ukraine,119.13954,GlobalCovenantofMayors2019;NAZCA,2,45.99632,29.43169,14859,2015,Artsyz Raion,,Eastern Europe and Central Asia
Arucas,ESP,City,Spain,33.01,GlobalCovenantofMayors2019;NAZCA,2,28.120141,-15.521061,37299,2018,Las Palmas,Gran Canaria,Europe
Arvika,SWE,City,Sweden,10.62,EUCovenantofMayors2019;GlobalCovenantofMayors2019;NAZCA,3,59.65416667,12.59138889,26000,2010,Värmland,NA,Europe
"Arvin, CA",USA,City,United States of America,12.4837518,WeAreStillIn2019;ClimateMayors,2,35.20916667,-118.8283333,21270,2010,California,"Kern County, CA",North America
Arzachena,ITA,City,Italy,230.85,GlobalCovenantofMayors2019;EUCovenantofMayors2019;NAZCA,3,41.079898,9.3876122,13149,NA,Sassari,,Europe
Arzago d’Adda,ITA,City,Italy,9.31,GlobalCovenantofMayors2019;EUCovenantofMayors2019;NAZCA,3,45.4815134,9.5616783,2811,NA,Lombardy,Bergamo,Europe
Arzana,ITA,City,Italy,162.49,EUCovenantofMayors2019;GlobalCovenantofMayors2019;NAZCA,3,39.91666667,9.533333333,2526,NA,Nuoro,,Europe
Arzano,ITA,City,Italy,4.71,GlobalCovenantofMayors2019;EUCovenantofMayors2019;NAZCA,3,40.914411,14.26713,38510,NA,Naples,,Europe
Arzergrande,ITA,City,Italy,13.64,GlobalCovenantofMayors2019;EUCovenantofMayors2019;NAZCA,3,45.2728605,12.053944,4725,NA,Padua,,Europe
Arzignano,ITA,City,Italy,34.19,GlobalCovenantofMayors2019;NAZCA,2,45.519292,11.338594,25844,NA,Vicenza,,Europe
As,BEL,City,Belgium,22.07,GlobalCovenantofMayors2019;EUCovenantofMayors2019;NAZCA,3,51.0005396,5.572202585,7785,NA,Limburg,Hasselt,Europe
Asahikawa,JPN,City,Japan,748,Carbonn2019,1,43.76666667,142.3666667,349316,2011,Hokkaido Prefecture,Hokkaido,East Asia and the Pacific
Asan,KOR,City,South Korea,542.25,Carbonn2019,1,36.78333333,126.9833333,308007,NA,Chungcheong,Hoseo,East Asia and the Pacific
Ascó,ESP,City,Spain,73.6,GlobalCovenantofMayors2019;EUCovenantofMayors2019;NAZCA,3,41.1805311,0.5679989,1602,2018,Tarragona,Ribera d'Ebre,Europe
Ascoli Piceno,ITA,City,Italy,158.02,GlobalCovenantofMayors2019;EUCovenantofMayors2019;NAZCA,3,42.8545996,13.5754669,51203,NA,NA,,Europe
Asenovgrad,BGR,City,Bulgaria,78012,EUCovenantofMayors2019;GlobalCovenantofMayors2019;NAZCA,3,42.01666667,24.86666667,59953,NA,Plovdiv,,Europe
"Asheboro, NC",USA,City,United States of America,40,Carbonn2019,1,35.71527778,-79.81305556,25012,2010,North Carolina,"Randolph County, NC",North America
"Asheville, NC",USA,City,United States of America,117.326547,CDPCities2018;ClimateMayors;Carbonn2019;WeAreStillIn2019;NAZCA,5,35.5951,-82.5515,89121,2016,North Carolina,"Buncombe County, NC",North America
"Ashland, OR",USA,City,United States of America,NA,WeAreStillIn2019,1,42.19138889,-122.7008333,21117,NA,Oregon,"Jackson County, OR",North America
"Ashland, WI",USA,City,United States of America,15.2032413,GlobalCovenantofMayors2019;NAZCA,2,46.592757400000004,-90.8839169,16103,2010,Wisconsin,"Ashland County, WI; Bayfield County, WI",North America
Ashtarak,ARM,City,Armenia,7.5,GlobalCovenantofMayors2019;NAZCA,2,40.2938979,44.3642351,21600,NA,Aragatsotn,,Eastern Europe and Central Asia
Asigliano Veneto,ITA,City,Italy,8.07,EUCovenantofMayors2019;GlobalCovenantofMayors2019;NAZCA,3,45.3,11.45,937,NA,Venice,Vicenza,Europe
Asin,ESP,City,Spain,90,EUCovenantofMayors2019;GlobalCovenantofMayors2019;NAZCA,3,42.28306,-1.04667,110,NA,Zaragoza,,Europe
Askersund,SWE,City,Sweden,2,GlobalCovenantofMayors2019;NAZCA,2,58.8355002,14.92575511,11394,2010,Närke,NA,Europe
Ašmiany,BLR,City,Belarus,NA,GlobalCovenantofMayors2019;EUCovenantofMayors2019;NAZCA,3,54.4266578,25.9458953,31190,NA,Grodno Region,,Eastern Europe and Central Asia
Aso,JPN,City,Japan,376.25,JapanMOEZeroCarbonCities,1,32.948333,131.123889,27039,2017,Kyushu,Kumamoto Prefecture,East Asia and the Pacific
Asola,ITA,City,Italy,73.48,GlobalCovenantofMayors2019;EUCovenantofMayors2019;NAZCA,3,45.221076,10.413579,10127,NA,Mantua,,Europe
Asolo,ITA,City,Italy,25.37,EUCovenantofMayors2019;GlobalCovenantofMayors2019;NAZCA,3,45.8,11.91666667,9311,NA,Treviso,,Europe
Aspa,ESP,City,Spain,NA,GlobalCovenantofMayors2019;NAZCA,2,41.4959831,0.6716572,216,NA,Lleida,Segrià,Europe
Aspe,ESP,City,Spain,69.79,GlobalCovenantofMayors2019;EUCovenantofMayors2019;NAZCA,3,38.3459902,-0.7692124,20309,2018,Alicante,Vinalopó Medio,Europe
"Aspen, CO",USA,City,United States of America,10.0491612,WeAreStillIn2019;ClimateMayors;WeAreStillIn2019;Carbonn2019;GlobalCovenantofMayors2019;NAZCA,5,39.195,-106.8369444,8427,2010,Colorado,"Pitkin County, CO",North America
Aspropygos,GRC,City,Greece,101.98,GlobalCovenantofMayors2019;NAZCA,2,38.0613716,23.5913013,30000,2011,Attica,West Attica,Europe
Assago,ITA,City,Italy,8.05,EUCovenantofMayors2019;GlobalCovenantofMayors2019;NAZCA,3,45.4,9.133333333,8244,NA,Lombardy,Milan,Europe
Asse,BEL,City,Belgium,49.64,EUCovenantofMayors2019;GlobalCovenantofMayors2019;NAZCA,3,50.9,4.2,31748,NA,Flemish Brabant,Halle-Vilvoorde,Europe
Assembly of Regions of Cote d'Ivoire (ARDCI),CIV,Region,Cote d'Ivoire,NA,Under2Coalition2019,1,NA,NA,23740424,NA,NA,,Sub-Saharan Africa
Assemini,ITA,City,Italy,118.17,GlobalCovenantofMayors2019;NAZCA,2,39.21061,9.001842,26979,NA,Sardinia,Cagliari,Europe
Assens,DNK,City,Denmark,4.7,Race to Zero;NAZCA2020,2,55.266667,9.9,6016,NA,Southern Denmark,NA,Europe
Assis Brasil,BRA,City,Brazil,2874.8889,GlobalCovenantofMayors2019;NAZCA,2,-10.9316252,-69.5587859,6795,2007,Acre,,Latin America and Caribbean
Assisi,ITA,City,Italy,145.6325,GlobalCovenantofMayors2019;NAZCA,2,43.070702,12.619597,28415,NA,Perugia,,Europe
Asso,ITA,City,Italy,6.51,GlobalCovenantofMayors2019;EUCovenantofMayors2019;NAZCA,3,45.8606694,9.2697487,3652,NA,Como,,Europe
Associação Transfronteiriça do Lago Alqueva,PRT,City,Portugal,NA,GlobalCovenantofMayors2019,1,38.357588,-7.44108,74024,NA,Alentejo,,Europe
Association des Municipalités du Burkina Faso / Section du Centre-Est,BFA,City,Burkina Faso,NA,GlobalCovenantofMayors2019;NAZCA,2,11.524767,-0.149499,1515518,NA,Centre-Este,,Sub-Saharan Africa
Association Mauritanienne des Communes du Sud (AMCS),MRT,City,Mauritania,NA,GlobalCovenantofMayors2019;NAZCA,2,21.00789,-10.940835,220000,NA,Adrar,,Sub-Saharan Africa
Associazione Intercomunale Conca Tolmezzina,ITA,City,Italy,NA,GlobalCovenantofMayors2019;EUCovenantofMayors2019,2,46.0612941,13.2327677,13510,NA,Udine,,Europe
Associazione Intercomunale Terre Estensi,ITA,City,Italy,NA,EUCovenantofMayors2019;GlobalCovenantofMayors2019,2,44.836,11.6169,141673,NA,Emilia-Romagna,,Europe
Associazione Intercomunale Val Cosa e Val D’Arzino,ITA,City,Italy,NA,EUCovenantofMayors2019;GlobalCovenantofMayors2019,2,45.4749729,10.2862153,4533,2016,Friuli-Venezia Giulia,,Europe
Assolo,ITA,City,Italy,16.37,EUCovenantofMayors2019;GlobalCovenantofMayors2019;NAZCA,3,39.81666667,8.916666667,435,NA,Sardinia,Oristano,Europe
Assoro,ITA,City,Italy,112.15,EUCovenantofMayors2019;GlobalCovenantofMayors2019;NAZCA,3,37.63333333,14.41666667,5337,NA,Sardinia,Enna,Europe
Astana,KAZ,City,Kazakhstan,NA,GlobalCovenantofMayors2019;NAZCA,2,51.160523,71.470356,1029556,2017,NA,Kazakhstan,Eastern Europe and Central Asia
Asti,ITA,City,Italy,151.31,GlobalCovenantofMayors2019;NAZCA,2,44.900542,8.2068876,77061,NA,NA,,Europe
Asunción,PRY,City,Paraguay,1014,GlobalCovenantofMayors2019;CDPCities2018;NAZCA,3,-25.2959915,-57.6311195,515587,2016,Capital District,Capital,Latin America and Caribbean
Atajate,ESP,City,Spain,11,GlobalCovenantofMayors2019;EUCovenantofMayors2019;NAZCA,3,36.6399535,-5.245079,154,2018,Málaga,Serranía de Ronda,Europe
Atalaya,ESP,City,Spain,NA,GlobalCovenantofMayors2019;NAZCA,2,38.334724,-6.474989,318,NA,Badajoz,,Europe
Ataliva,ARG,City,Argentina,NA,CDPCities2018,1,31,61,2500,2010,La Pampa,,Latin America and Caribbean
Ateca,ESP,City,Spain,84,GlobalCovenantofMayors2019;EUCovenantofMayors2019;NAZCA,3,41.3308294,-1.7929077,2099,2018,Aragon,NA,Europe
Ateleta,ITA,City,Italy,41.93,GlobalCovenantofMayors2019;EUCovenantofMayors2019;NAZCA,3,41.85543,14.197516,1157,NA,Province of L'Aquila,L'Aquila,Europe
Atenguillo,MEX,City,Mexico,662.55,GlobalCovenantofMayors2019;NAZCA,2,20.41998,-104.49931,4107,2005,Jalisco,,Latin America and Caribbean
Atessa,ITA,City,Italy,110.98,EUCovenantofMayors2019;GlobalCovenantofMayors2019;NAZCA,3,42.06666667,14.45,10778,NA,Chieti Province,Chieti,Europe
Athens,GRC,City,Greece,38.964,GlobalCovenantofMayors2019;CDPCities2018;C40Cities2019;NAZCA,4,37.9841493,23.7279843,664046,2012,Attica,Central Athens,Europe
"Athens, OH",USA,City,United States of America,25.4596017,ClimateMayors,1,39.329167,-82.096111,25341,2010,Ohio,"Athens County, OH",North America
"Atlanta, GA",USA,City,United States of America,5084.15037,GlobalCovenantofMayors2019;ClimateMayors;WeAreStillIn2019;CDPCities2018;WeAreStillIn2019;Under2Coalition2019;Carbonn2019;NAZCA,7,33.7490987,-84.3901848,450182,2017,Georgia,"Fulton County, GA",North America
Atlatlahucan,MEX,City,Mexico,71,Carbonn2019,1,18.9353236,-98.8997,14708,NA,Morelos,,Latin America and Caribbean
Atotonilco de Tula,MEX,City,Mexico,31,Carbonn2019,1,20.05,-99.18333333,31078,NA,Hidalgo,,Latin America and Caribbean
Atrani,ITA,City,Italy,0.12,GlobalCovenantofMayors2019;NAZCA,2,40.635793,14.60862,965,NA,Salerno,,Europe
Atri,ITA,City,Italy,NA,GlobalCovenantofMayors2019;EUCovenantofMayors2019;NAZCA,3,42.5801368,13.9764121,11260,NA,Province of Teramo,Teramo,Europe
Ats Obiettivozero - Valle Degli Iblei,ITA,City,Italy,NA,GlobalCovenantofMayors2019;EUCovenantofMayors2019,2,37.09428,15.07984,24081,NA,,,Europe
Atsugi,JPN,City,Japan,94,Carbonn2019,1,35.43333333,139.3666667,224462,NA,Kanagawa Prefecture,Aiko,East Asia and the Pacific
