name,iso,entity_type,country,region,area,initiatives_committed,num_commit,lat,lng,population,population_year,state,admin_1
!Kheis,ZAF,City,South Africa,Sub-Saharan Africa,11107,GlobalCovenantofMayors2019;NAZCA,2,-30.4620482,17.9929881,16637,2011,Northern Cape,
A Bola,ESP,City,Spain,Europe,34.9,EUCovenantofMayors2019;GlobalCovenantofMayors2019;NAZCA,3,42.15194444,-7.913888889,1339,2018,Cáceres,Terra de Celanova
A Coruña,ESP,City,Spain,Europe,37.83,GlobalCovenantofMayors2019;Carbonn2019;EUCovenantofMayors2019;NAZCA,4,43.3712091,-8.3958767,247482,2018,NA,
Å empeter-Vrtojba,SVN,City,Slovenia,Europe,15,GlobalCovenantofMayors2019;EUCovenantofMayors2019;NAZCA,3,45.916667,13.65,6269,NA,Šempeter–Vrtojba,
Aachen,DEU,City,Germany,Europe,160.85,GlobalCovenantofMayors2019;EUCovenantofMayors2019;NAZCA,3,50.776351,6.083862,244509,NA,North Rhine-Westphalia,NA
Aalborg,DNK,City,Denmark,Europe,139,EUCovenantofMayors2019;GlobalCovenantofMayors2019;NAZCA,3,57.05,9.916666667,205809,2016,North Denmark Region,NA
Aalst,BEL,City,Belgium,Europe,78.12,EUCovenantofMayors2019;GlobalCovenantofMayors2019;NAZCA,3,50.93333333,4.033333333,83267,NA,East Flanders,NA
Aarhus,DNK,City,Denmark,Europe,468,GlobalCovenantofMayors2019;NAZCA,2,56.1496278,10.2134046,305000,2018,Central Denmark Region,NA
Aarschot,BEL,City,Belgium,Europe,62.52,GlobalCovenantofMayors2019;EUCovenantofMayors2019;NAZCA,3,50.9855815,4.834949915,28760,NA,Flemish Brabant,Leuven
Abaetetuba,BRA,City,Brazil,Latin America and Caribbean,430.9,GlobalCovenantofMayors2019;NAZCA,2,-1.72509,-48.889938,153553,NA,Pará,
Abanilla,ESP,City,Spain,Europe,236.6,GlobalCovenantofMayors2019;NAZCA,2,38.205181,-1.04066,6500,2018,Murcia,Comarca Oriental
Abano Terme,ITA,City,Italy,Europe,21.41,EUCovenantofMayors2019;GlobalCovenantofMayors2019;NAZCA,3,45.36027778,11.79,18206,NA,Padua,
Abanto-Zierbena,ESP,City,Spain,Europe,18.03,GlobalCovenantofMayors2019;EUCovenantofMayors2019;NAZCA,3,43.31184035,-3.089286215,9724,2018,Biscay,Greater Bilbao
Abarán,ESP,City,Spain,Europe,115,EUCovenantofMayors2019;GlobalCovenantofMayors2019;NAZCA,3,38.2,-1.4,13110,2018,Murcia,Santiago
Abasan Al-Kabira,PSE,City,Palestine,Middle East and North Africa,NA,GlobalCovenantofMayors2019;EUCovenantofMayors2019;Carbonn2019;CDPCities2018;NAZCA,5,31.3238491,34.3497101,32000,2017,State of Palestine,Khan Yunis
Abbadia Lariana,ITA,City,Italy,Europe,16.67,EUCovenantofMayors2019;GlobalCovenantofMayors2019;NAZCA,3,45.9,9.333333333,3249,NA,Lecco,
Abbateggio,ITA,City,Italy,Europe,15.4,EUCovenantofMayors2019;GlobalCovenantofMayors2019;NAZCA,3,42.23333333,14.01666667,443,NA,Pescara,
Abbiategrasso,ITA,City,Italy,Europe,47.78,GlobalCovenantofMayors2019;EUCovenantofMayors2019;NAZCA,3,45.400767,8.918542,30000,NA,Lombardy,Milan
Abéché,TCD,City,Chad,Sub-Saharan Africa,NA,GlobalCovenantofMayors2019;NAZCA,2,13.835912,20.843371,200000,2012,Ouaddaï Region,NA
Abegondo,ESP,City,Spain,Europe,83.81,GlobalCovenantofMayors2019;NAZCA,2,43.21912,-8.297905,7509,2018,A Coruña,
Aberdeen,GBR,City,United Kingdom,Europe,NA,GlobalCovenantofMayors2019;EUCovenantofMayors2019;NAZCA,3,57.1452452,-2.0913744,213810,NA,Scotland,United Kingdom
Aberdeenshire,GBR,Region,United Kingdom,Europe,6313,GlobalCovenantofMayors2019,1,57.16666667,-2.666666667,243510,NA,NA,
Abertura,ESP,City,Spain,Europe,NA,GlobalCovenantofMayors2019;NAZCA,2,39.24395,-5.8147,456,NA,Cáceres,
Abidjan,CIV,City,Cote d'Ivoire,Sub-Saharan Africa,422,C40Cities2019;GlobalCovenantofMayors2019;NAZCA,3,5.316666667,-4.033333333,3677115,NA,NA,
"Abington, PA",USA,City,United States of America,North America,25.122903,CDPCities2018,1,40.1241,-75.1195,55310,2010,Pennsylvania,"Montgomery County, PA"
Abla,ESP,City,Spain,Europe,45.24,GlobalCovenantofMayors2019;EUCovenantofMayors2019;NAZCA,3,37.1416926,-2.7792317,1505,2018,Almería,
Aboisso,CIV,City,Cote d'Ivoire,Sub-Saharan Africa,NA,GlobalCovenantofMayors2019;NAZCA,2,5.474511,-3.203076,63332,2014,Comoé,Sud-Comoe
Abrantes,PRT,City,Portugal,Europe,714.69,GlobalCovenantofMayors2019;EUCovenantofMayors2019;NAZCA,3,39.440102950000004,-8.128236307,19132,2011,Centro,Santarém
Abrera,ESP,City,Spain,Europe,19.9,EUCovenantofMayors2019;GlobalCovenantofMayors2019;NAZCA,3,41.51666667,1.9,11521,2018,Barcelona Province,Baix Llobregat
Abriola,ITA,City,Italy,Europe,97.19,GlobalCovenantofMayors2019;EUCovenantofMayors2019;NAZCA,3,40.5078822,15.8137603,1617,NA,Potenza,
Abrucena,ESP,City,Spain,Europe,83,GlobalCovenantofMayors2019;EUCovenantofMayors2019;NAZCA,3,37.1332098,-2.7974819,1358,2018,Almería,
Abruzzo,ITA,Region,Italy,Europe,10763,Under2Coalition2019;NAZCA,2,42.36611111,12.39444444,1326513,2016,NA,
Abuja,NGA,City,Nigeria,Sub-Saharan Africa,1769,CDPCities2018,1,9.07647,7.39857,2440000,2017,Federal Capital Territory,
Aburrá Valley,COL,City,Colombia,Latin America and Caribbean,1152,Carbonn2019;NAZCA,2,6,-75,3591963,NA,Antioquia,
Acate,ITA,City,Italy,Europe,102.47,EUCovenantofMayors2019;GlobalCovenantofMayors2019;NAZCA,3,37.03388889,14.49416667,10432,NA,Ragusa,
Accadia,ITA,City,Italy,Europe,30.74,EUCovenantofMayors2019;GlobalCovenantofMayors2019;NAZCA,3,41.16666667,15.33333333,2470,NA,Foggia,
Accettura,ITA,City,Italy,Europe,90.37,EUCovenantofMayors2019;GlobalCovenantofMayors2019;NAZCA,3,40.48333333,16.15,2020,NA,Matera,
Acciano,ITA,City,Italy,Europe,32.22,EUCovenantofMayors2019;GlobalCovenantofMayors2019;NAZCA,3,42.18333333,13.73333333,339,NA,Province of L'Aquila,
Accra,GHA,City,Ghana,Sub-Saharan Africa,225.67,GlobalCovenantofMayors2019;C40Cities2019;CDPCities2018;NAZCA,4,5.5600141,-0.2057436,1986580,2017,Greater Accra Region,
Acered,ESP,City,Spain,Europe,30,GlobalCovenantofMayors2019;EUCovenantofMayors2019;NAZCA,3,41.1704796,-1.6042984,243,2018,Zaragoza,NA
Acerenza,ITA,City,Italy,Europe,77.64,EUCovenantofMayors2019;GlobalCovenantofMayors2019;NAZCA,3,40.79690278,15.94068056,2623,NA,Potenza,
Acharnes,GRC,City,Greece,Europe,149.96,GlobalCovenantofMayors2019;NAZCA,2,38.08522,23.738064,80121,2011,Attica,East Attica
Aci Bonaccorsi,ITA,City,Italy,Europe,1.72,GlobalCovenantofMayors2019;NAZCA,2,37.595517,15.109543,3272,NA,Sicily,Catania
Aci Castello,ITA,City,Italy,Europe,8.71,GlobalCovenantofMayors2019;EUCovenantofMayors2019;NAZCA,3,37.5542111,15.14856,18080,NA,Catania,
Aci Catena,ITA,City,Italy,Europe,8.53,GlobalCovenantofMayors2019;NAZCA,2,37.606435,15.141924,29662,NA,Sicily,Catania
Aci Sant'Antonio,ITA,City,Italy,Europe,14.33,GlobalCovenantofMayors2019;EUCovenantofMayors2019;NAZCA,3,37.6064186,15.1260733,17479,NA,Catania,
Acigné,FRA,City,France,Europe,NA,GlobalCovenantofMayors2019;NAZCA,2,48.13368,-1.53385,5246,2016,Brittany,Liffré
Acireale,ITA,City,Italy,Europe,40.43,GlobalCovenantofMayors2019;EUCovenantofMayors2019;NAZCA,3,37.6127773,15.1658804,53122,NA,Catania,
Acquanegra sul Chiese,ITA,City,Italy,Europe,28.01,EUCovenantofMayors2019;GlobalCovenantofMayors2019;NAZCA,3,45.16666667,10.43333333,3016,NA,Mantua,
Acquapendente,ITA,City,Italy,Europe,131.61,GlobalCovenantofMayors2019;NAZCA,2,42.747723,11.86302,5619,NA,Viterbo,
Acquappesa,ITA,City,Italy,Europe,14.45,EUCovenantofMayors2019;GlobalCovenantofMayors2019;NAZCA,3,39.5,15.95,1882,NA,Cosenza,
Acquarica del capo,ITA,City,Italy,Europe,18.7,GlobalCovenantofMayors2019;NAZCA,2,39.907845,18.231821,4951,NA,Lecce,
Acquaviva Collecroce,ITA,City,Italy,Europe,28.6,EUCovenantofMayors2019;GlobalCovenantofMayors2019;NAZCA,3,41.86666667,14.75,674,NA,Campobasso,
Acquaviva delle Fonti,ITA,City,Italy,Europe,132.03,EUCovenantofMayors2019;GlobalCovenantofMayors2019;NAZCA,3,40.9,16.85,21000,NA,Bari,
Acquaviva Platani,ITA,City,Italy,Europe,14.63,EUCovenantofMayors2019;GlobalCovenantofMayors2019;NAZCA,3,37.56666667,13.7,1033,NA,Caltanissetta,
Acquedolci,ITA,City,Italy,Europe,12.93,EUCovenantofMayors2019;NAZCA,2,38.05,14.58333333,5500,2015,Messina,
Acre,BRA,Region,Brazil,Latin America and Caribbean,152581,Under2Coalition2019;NAZCA,2,-9.116666667,-70.51666667,790101,2014,NA,
Acri,ITA,City,Italy,Europe,200.63,GlobalCovenantofMayors2019;NAZCA,2,39.488691,16.382857,21195,NA,Cosenza,
"Acton, MA",USA,City,United States of America,North America,NA,WeAreStillIn2019,1,42.485,-71.43333333,219292,NA,Massachusetts,"Middlesex County, MA"
Adachi,JPN,City,Japan,East Asia and the Pacific,53,Carbonn2019,1,35.78333333,139.8,669143,2015,Tokyo Metropolis,Tokyo
"Adams County, CO",USA,City,United States of America,North America,NA,Carbonn2019,1,38.79388889,-83.54361111,45913,2017,Colorado,
"Adams, MA",USA,City,United States of America,North America,59.310771,GlobalCovenantofMayors2019;NAZCA,2,39.839827,-104.193092,498187,2010,Massachusetts,"Berkshire County, MA"
Adamuz,ESP,City,Spain,Europe,334,EUCovenantofMayors2019;GlobalCovenantofMayors2019;NAZCA,3,38.01666667,-4.516666667,4476,2018,Córdoba,Alto Guadalquivir
Addis Ababa,ETH,City,Ethiopia,Sub-Saharan Africa,527,C40Cities2019;CDPCities2018;GlobalCovenantofMayors2019;NAZCA,4,9.03,38.74,3103374,2013,NA,Ethiopia
Adeje,ESP,City,Spain,Europe,105.95,GlobalCovenantofMayors2019;NAZCA,2,28.1219416,-16.7241892,46667,2018,Santa Cruz de Tenerife,Tenerife
Adelaide,AUS,City,Australia,East Asia and the Pacific,3257.7,Carbonn2019;GlobalCovenantofMayors2019;CDPCities2018;NAZCA,4,-34.92888889,138.6011111,23916,2017,South Australia,
Ademuz,ESP,City,Spain,Europe,100.42,GlobalCovenantofMayors2019;NAZCA,2,40.0632676,-1.2862303,1092,2018,Valencia,Rincón de Ademuz
Adjud,ROU,City,Romania,Europe,59.1,GlobalCovenantofMayors2019;NAZCA,2,46.096196,27.18219,17585,2011,Vrancea County,Vrancea
Administration commmunale de Seneffe,BEL,City,Belgium,Europe,NA,GlobalCovenantofMayors2019;NAZCA,2,50.52964,4.256984,11161,NA,Wallonia,Charleroi
Administration communale d'Estinnes,BEL,City,Belgium,Europe,NA,GlobalCovenantofMayors2019;NAZCA,2,50.516667,4.25,2475,2018,Wallonia,Thuin
Administration Communale de Tellin,BEL,City,Belgium,Europe,56.64,EUCovenantofMayors2019;GlobalCovenantofMayors2019;NAZCA,3,50.081667,5.218333,2468,NA,Luxembourg,Neufchâteau
Ador,ESP,City,Spain,Europe,13.8,GlobalCovenantofMayors2019;NAZCA,2,38.9177071,-0.2249926,1374,2018,Valencia,Safor
Adra,ESP,City,Spain,Europe,83.22,EUCovenantofMayors2019;GlobalCovenantofMayors2019;NAZCA,3,37.66666667,14.83333333,23195,NA,Almería,
Adrano,ITA,City,Italy,Europe,83.22,GlobalCovenantofMayors2019;EUCovenantofMayors2019;NAZCA,3,37.661966,14.8333672,35519,NA,Catania,
Ærø,DNK,City,Denmark,Europe,NA,CDPCities2018;GlobalCovenantofMayors2019;EUCovenantofMayors2019;NAZCA,4,54.8914,10.4047,6180,2017,South Denmark Region,Southern Denmark
Affi,ITA,City,Italy,Europe,9.88,GlobalCovenantofMayors2019;EUCovenantofMayors2019;NAZCA,3,45.5540914,10.7764241,1942,NA,Verona,
Afragola,ITA,City,Italy,Europe,17.91,GlobalCovenantofMayors2019;NAZCA,2,40.923039,14.309304,63674,NA,Naples,
Agadir,MAR,City,Morocco,Middle East and North Africa,NA,EUCovenantofMayors2019;GlobalCovenantofMayors2019;NAZCA,3,30.43333333,-9.6,450000,2014,Agadir-Ida Ou Tanane,
Agaete,ESP,City,Spain,Europe,45.5,GlobalCovenantofMayors2019;NAZCA,2,28.100259,-15.699674,5558,2018,Las Palmas,Gran Canaria
Agência de energia MédioTejo21,PRT,City,Portugal,Europe,NA,GlobalCovenantofMayors2019;EUCovenantofMayors2019,2,39.53604175,-8.332223294,219465,NA,Santarém,
Àger,ESP,City,Spain,Europe,160.6,GlobalCovenantofMayors2019;EUCovenantofMayors2019;NAZCA,3,42.0000879,0.7632247,590,2018,Lleida,Noguera
Agerola,ITA,City,Italy,Europe,19.83,GlobalCovenantofMayors2019;EUCovenantofMayors2019;NAZCA,3,40.637707,14.538839,7500,NA,Naples,
Aggregazione BERNEZZO,ITA,City,Italy,Europe,NA,GlobalCovenantofMayors2019;EUCovenantofMayors2019,2,44.3886068,7.4332093,5631,NA,Cuneo,
Aggregazione Castelletto Stura,ITA,City,Italy,Europe,NA,GlobalCovenantofMayors2019;EUCovenantofMayors2019,2,44.4417886,7.638649,9322,NA,Cuneo,
Aggregazione Ceva,ITA,City,Italy,Europe,NA,GlobalCovenantofMayors2019;EUCovenantofMayors2019,2,44.386254,8.029079,6678,NA,Cuneo,
Aggregazione Diano D'alba,ITA,City,Italy,Europe,NA,EUCovenantofMayors2019;GlobalCovenantofMayors2019,2,44.6515358,8.0252513,5643,NA,Cuneo,
Aggregazione Dro-Roc-Vil,ITA,City,Italy,Europe,27,GlobalCovenantofMayors2019;EUCovenantofMayors2019,2,45.961111,10.911111,4030,NA,Trento,
Aggregazione Garessio,ITA,City,Italy,Europe,NA,GlobalCovenantofMayors2019;EUCovenantofMayors2019,2,44.202931,8.0192528,5155,NA,Cuneo,
Aggregazione Genola,ITA,City,Italy,Europe,NA,GlobalCovenantofMayors2019;EUCovenantofMayors2019,2,44.588936,7.66453,2661,NA,Cuneo,
Aggregazione MARENE,ITA,City,Italy,Europe,NA,GlobalCovenantofMayors2019;EUCovenantofMayors2019,2,44.6615577,7.7270091,5359,NA,Cuneo,
Aggregazione Niella Belbo,ITA,City,Italy,Europe,NA,GlobalCovenantofMayors2019;EUCovenantofMayors2019,2,44.51376,8.08048,7835,NA,Cuneo,
Aggregazione Robilante-Roccavione,ITA,City,Italy,Europe,NA,GlobalCovenantofMayors2019;EUCovenantofMayors2019,2,44.2945397,7.509191,5203,NA,Cuneo,
Aggregazione Saliceto,ITA,City,Italy,Europe,NA,GlobalCovenantofMayors2019;EUCovenantofMayors2019,2,44.41439,8.16987,5018,NA,Cuneo,
Aggregazione Sommariva del Bosco,ITA,City,Italy,Europe,NA,GlobalCovenantofMayors2019;EUCovenantofMayors2019,2,44.768741,7.78533,21367,NA,Cuneo,
Aggregazione Vicoforte,ITA,City,Italy,Europe,NA,EUCovenantofMayors2019;GlobalCovenantofMayors2019,2,44.3744419,7.8725517,8567,NA,Cuneo,
Aggregazione Villanova Mondovì,ITA,City,Italy,Europe,NA,GlobalCovenantofMayors2019,1,44.348514,7.767477,10206,NA,Cuneo,
Aghios Nikolaos,GRC,City,Greece,Europe,NA,GlobalCovenantofMayors2019;EUCovenantofMayors2019;NAZCA,3,36.8243276,22.2811442,27074,2011,Crete,
Agia,GRC,City,Greece,Europe,NA,EUCovenantofMayors2019;GlobalCovenantofMayors2019;NAZCA,3,39.03333333,26.41666667,14121,NA,Nomos Larisis,
Agia Paraskevi,GRC,City,Greece,Europe,7.935,GlobalCovenantofMayors2019;EUCovenantofMayors2019;NAZCA,3,39.2475388,26.2711986,59704,2011,Attica,
Agia Varvara,GRC,City,Greece,Europe,2.425,EUCovenantofMayors2019;GlobalCovenantofMayors2019;NAZCA,3,38,23.65,26490,2011,Attica,West Athens
Agioi Anargyroi-Kamatero,GRC,City,Greece,Europe,9.15,EUCovenantofMayors2019;GlobalCovenantofMayors2019;NAZCA,3,38.03333333,23.71666667,55191,2011,Attica,West Athens
Agios Athanasios,CYP,City,Cyprus,Europe,NA,GlobalCovenantofMayors2019;EUCovenantofMayors2019;NAZCA,3,34.7093395,33.0504749,15500,2011,Limassol District,Limassol
Agios Dimitrios,GRC,City,Greece,Europe,4.949,EUCovenantofMayors2019;GlobalCovenantofMayors2019;Carbonn2019;NAZCA,4,37.93333333,23.73333333,70000,2011,Attica,South Athens
Agira,ITA,City,Italy,Europe,164.08,GlobalCovenantofMayors2019;NAZCA,2,37.661603,14.51201,8500,NA,Enna,
Aglandjia,CYP,City,Cyprus,Europe,NA,GlobalCovenantofMayors2019;NAZCA,2,35.1523806,33.3977301,22000,2011,Nicosia District,Nicosia
Agna,ITA,City,Italy,Europe,18.8,GlobalCovenantofMayors2019;EUCovenantofMayors2019;NAZCA,3,45.1702381,11.9603017,3405,NA,Parma,Padua
Agnone,ITA,City,Italy,Europe,96.85,GlobalCovenantofMayors2019;EUCovenantofMayors2019;NAZCA,3,41.8095612,14.3770463,5253,NA,Isernia,
Agnosine,ITA,City,Italy,Europe,13.55,EUCovenantofMayors2019;GlobalCovenantofMayors2019;NAZCA,3,45.65,10.35,1875,NA,Brescia,
Agona East,GHA,City,Ghana,Sub-Saharan Africa,NA,GlobalCovenantofMayors2019;NAZCA,2,5.603215,-0.791323,101522,NA,Central Region,
Agost,ESP,City,Spain,Europe,66.64,GlobalCovenantofMayors2019;EUCovenantofMayors2019;NAZCA,3,38.436906,-0.6396686,4752,2018,Alicante,Campo de Alicante
Agrafa,GRC,City,Greece,Europe,920.3,GlobalCovenantofMayors2019;NAZCA,2,39.1359953,21.6494392,14365,2011,Central Greece,Evrytania
Agramunt,ESP,City,Spain,Europe,79.6,GlobalCovenantofMayors2019;EUCovenantofMayors2019;NAZCA,3,41.7876693,1.0986828,5735,2018,Lleida,Urgell
Agrate Brianza,ITA,City,Italy,Europe,11.22,EUCovenantofMayors2019;GlobalCovenantofMayors2019;NAZCA,3,45.58333333,9.35,15035,NA,Monza Brianza,Monza and Brianza
Agres,ESP,City,Spain,Europe,25.8,GlobalCovenantofMayors2019;EUCovenantofMayors2019;NAZCA,3,38.7799007,-0.5157277,583,2018,Alicante,Comtat
Agrigento,ITA,City,Italy,Europe,245.32,GlobalCovenantofMayors2019;NAZCA,2,37.309407,13.585982,57000,NA,NA,
Agrinio,GRC,City,Greece,Europe,1229.33,GlobalCovenantofMayors2019;NAZCA,2,38.6247709,21.4095037,92608,2011,West Greece,Aetolia-Acarnania
Agrón,ESP,City,Spain,Europe,27,EUCovenantofMayors2019;GlobalCovenantofMayors2019;NAZCA,3,37.03,-3.829166667,342,2018,Granada,Comarca de Alhama
Agropoli,ITA,City,Italy,Europe,32.77,GlobalCovenantofMayors2019;EUCovenantofMayors2019,2,40.346905,14.996553,35823,NA,Salerno,
Agros,CYP,City,Cyprus,Europe,NA,GlobalCovenantofMayors2019;EUCovenantofMayors2019;NAZCA,3,34.916667,33.016667,804,2011,Limassol District,
Aguadulce,ESP,City,Spain,Europe,50.4,EUCovenantofMayors2019;GlobalCovenantofMayors2019;NAZCA,3,8.24,-80.54,2169,2010,Almería,
Aguascalientes,MEX,City,Mexico,Latin America and Caribbean,385,Carbonn2019;Under2Coalition2019,2,21.876,-102.296,934424,NA,NA,
Águeda,PRT,City,Portugal,Europe,335.27,CDPCities2018;GlobalCovenantofMayors2019;EUCovenantofMayors2019;NAZCA,4,40.5753,-8.44582,47729,2011,Centro,Aveiro
Aguilar de Segarra,ESP,City,Spain,Europe,43.3,GlobalCovenantofMayors2019;EUCovenantofMayors2019;NAZCA,3,41.7394902,1.6316676,257,2018,Barcelona Province,Bages
Águilas,ESP,City,Spain,Europe,251.77,GlobalCovenantofMayors2019;EUCovenantofMayors2019;NAZCA,3,37.4099628,-1.5804921,34828,2018,Murcia,Alto Guadalentín
Agullana,ESP,City,Spain,Europe,27.7,EUCovenantofMayors2019;GlobalCovenantofMayors2019;NAZCA,3,42.4,2.85,900,2018,Girona,Alt Empordà
Agullent,ESP,City,Spain,Europe,16.2,GlobalCovenantofMayors2019;NAZCA,2,38.8233412,-0.5473744,2395,2018,Valencia,Vall d'Albaida
Ahillones,ESP,City,Spain,Europe,21.5,GlobalCovenantofMayors2019;NAZCA,2,38.259139,-5.865061,1001,2018,Badajoz,Campiña Sur
Ahmedabad,IND,City,India,South Asia,464,Carbonn2019,1,23.03333333,72.58333333,5570585,2011,Gujarat,NA
Aichi Prefecture,JPN,Region,Japan,East Asia and the Pacific,5165,Carbonn2019,1,35.18018889,136.9135083,7507553,2016,NA,
Aicurzio,ITA,City,Italy,Europe,2.47,EUCovenantofMayors2019;GlobalCovenantofMayors2019;NAZCA,3,45.63333333,9.416666667,2087,NA,Monza Brianza,Monza and Brianza
Aidone,ITA,City,Italy,Europe,210.78,GlobalCovenantofMayors2019;NAZCA,2,37.415915,14.445496,5023,NA,Enna,
Aielli,ITA,City,Italy,Europe,37.52,GlobalCovenantofMayors2019;EUCovenantofMayors2019;NAZCA,3,42.08083,13.590599,1448,NA,Province of L'Aquila,L'Aquila
Aiello Calabro,ITA,City,Italy,Europe,38.51,GlobalCovenantofMayors2019;EUCovenantofMayors2019;NAZCA,3,39.1174689,16.1666633,2017,NA,Cosenza,
Aiello del Sabato,ITA,City,Italy,Europe,10.87,GlobalCovenantofMayors2019;NAZCA,2,40.884294,14.816278,4050,NA,Avellino,
Aielo De Rugat,ESP,City,Spain,Europe,7.66,GlobalCovenantofMayors2019;NAZCA,2,38.8820867,-0.3442155,200,2018,Valencia,Vall d'Albaida
Aigaleo,GRC,City,Greece,Europe,6.45,GlobalCovenantofMayors2019;EUCovenantofMayors2019;NAZCA,3,37.9928313,23.68159021,120000,2011,Attica,West Athens
Aigialeia,GRC,City,Greece,Europe,723.1,GlobalCovenantofMayors2019;EUCovenantofMayors2019;NAZCA,3,38.140844,22.25179945,49872,2011,West Greece,Achaea
Aiguafreda,ESP,City,Spain,Europe,7.9,GlobalCovenantofMayors2019;EUCovenantofMayors2019;NAZCA,3,41.7692525,2.2517162,2505,2018,Barcelona Province,Vallès Oriental
Aiguamúrcia,ESP,City,Spain,Europe,73.2,EUCovenantofMayors2019;GlobalCovenantofMayors2019;NAZCA,3,41.32888889,1.358888889,909,2018,Tarragona,Alt Camp
Aiguaviva,ESP,City,Spain,Europe,13.9,GlobalCovenantofMayors2019;EUCovenantofMayors2019;NAZCA,3,41.9381188,2.7626201,765,2018,Girona,Gironès
Aigües,ESP,City,Spain,Europe,18.47,GlobalCovenantofMayors2019;EUCovenantofMayors2019;NAZCA,3,38.500265,-0.3634257,984,2018,Valencia,Alacantí
Ailano,ITA,City,Italy,Europe,16.06,GlobalCovenantofMayors2019;NAZCA,2,41.391372,14.207422,1384,NA,Caserta,
Ainzón,ESP,City,Spain,Europe,40,GlobalCovenantofMayors2019;EUCovenantofMayors2019;NAZCA,3,41.8160689,-1.5196969,1214,2018,Zaragoza,NA
Aipromades Lago de Chapala,MEX,City,Mexico,Latin America and Caribbean,385.58,GlobalCovenantofMayors2019;NAZCA,2,20.305278,-103.184722,50738,NA,Jalisco,
Airasca,ITA,City,Italy,Europe,15.74,GlobalCovenantofMayors2019;NAZCA,2,44.917111,7.489349,3808,NA,Cuneo,Turin
Airola,ITA,City,Italy,Europe,14.9,GlobalCovenantofMayors2019;NAZCA,2,41.0610225,14.5584304,8140,NA,Benevento,
Airuno,ITA,City,Italy,Europe,4.29,GlobalCovenantofMayors2019;EUCovenantofMayors2019;NAZCA,3,45.75388,9.424247,2994,NA,Lecco,
Aitona,ESP,City,Spain,Europe,66.9,GlobalCovenantofMayors2019;NAZCA,2,41.4939531,0.4591083,2456,2018,Lleida,Segrià
Aiud,ROU,City,Romania,Europe,142.52,GlobalCovenantofMayors2019;EUCovenantofMayors2019;NAZCA,3,46.3108411,23.7188503,28934,2011,Alba County,Alba
"Ajax, ON",CAN,City,Canada,North America,67.07,CDPCities2018;Carbonn2019,2,43.8509,-79.0204,119677,2016,Ontario,"Durham, ON"
Ajuntament D'Argelaguer,ESP,City,Spain,Europe,NA,EUCovenantofMayors2019,1,42,2.641429901,430,2015,Girona,Garrotxa
Ajuntament d'Espinelves,ESP,City,Spain,Europe,NA,GlobalCovenantofMayors2019;EUCovenantofMayors2019;NAZCA,3,41.8686935,2.4177195,201,NA,Girona,Osona
Akashi,JPN,City,Japan,East Asia and the Pacific,49,Carbonn2019,1,34.65,135,290776,2017,Hyogo Prefecture,
Akatsi North,GHA,City,Ghana,Sub-Saharan Africa,NA,GlobalCovenantofMayors2019;NAZCA,2,6.36419,0.85461,40738,NA,Volta,Akatsi South
Akershus,NOR,City,Norway,Europe,4579,Under2Coalition2019,1,60,11,615000,2017,NA,Ås
Akhaltsikhe,GEO,City,Georgia,Eastern Europe and Central Asia,NA,EUCovenantofMayors2019;GlobalCovenantofMayors2019;NAZCA,3,41.63888889,42.98611111,19200,2014,Samtskhe-Javakheti,
Akhmeta,GEO,City,Georgia,Eastern Europe and Central Asia,NA,GlobalCovenantofMayors2019;NAZCA,2,42.03852,45.206841,34154,NA,Kakheti,Georgia
Akhtala,ARM,City,Armenia,Eastern Europe and Central Asia,4.3,GlobalCovenantofMayors2019;NAZCA,2,41.150494,44.763959,2753,NA,Lori,
Akita City,JPN,City,Japan,East Asia and the Pacific,906,Carbonn2019,1,39.72002778,140.1025833,320909,2016,Akita Prefecture,
Akita Prefecture,JPN,Region,Japan,East Asia and the Pacific,11636,Carbonn2019,1,39.71861111,140.1025,1026983,NA,NA,
Akmene,LTU,City,Lithuania,Europe,NA,EUCovenantofMayors2019;GlobalCovenantofMayors2019;NAZCA,3,56.31666667,22.9,25729,2011,Šiauliai County,NA
Aksakovo,BGR,City,Bulgaria,Europe,NA,GlobalCovenantofMayors2019;EUCovenantofMayors2019;NAZCA,3,43.2586259,27.8173611,8600,2009,Varna,
Aksu,KAZ,City,Kazakhstan,Eastern Europe and Central Asia,NA,GlobalCovenantofMayors2019;NAZCA,2,52.04072,76.93376,69354,NA,Tarbagatay District,Pavlodar Region
Akureyri,ISL,City,Iceland,Europe,138,GlobalCovenantofMayors2019;CDPCities2018;NAZCA,3,65.6825696,-18.0913026,18340,2019,Northeastern Region,
Aladren,ESP,City,Spain,Europe,21,GlobalCovenantofMayors2019;EUCovenantofMayors2019;NAZCA,3,41.249166,-1.1560465,67,2018,Zaragoza,Aladrén
Alájar,ESP,City,Spain,Europe,41,GlobalCovenantofMayors2019;EUCovenantofMayors2019;NAZCA,3,37.8746137,-6.66506,802,2018,Huelva,Alajar
"Alameda County, CA",USA,City,United States of America,North America,NA,WeAreStillIn2019,1,37.65,-121.9166667,1666753,NA,California,
"Alameda, CA",USA,City,United States of America,North America,27.0394956,WeAreStillIn2019;ClimateMayors;WeAreStillIn2019;GlobalCovenantofMayors2019;CDPCities2018;NAZCA,5,37.75611111,-122.2744444,78906,2010,California,"Alameda County, CA"
"Alameda, Spain",ESP,City,Spain,Europe,64.74975,EUCovenantofMayors2019;GlobalCovenantofMayors2019;NAZCA,3,37.2,-4.65,5426,2018,Málaga,Antequera
Aland,FIN,Region,Finland,Europe,1580,CompactofStatesRegions2018;NAZCA,2,60,20,29489,2017,NA,
Alange,ESP,City,Spain,Europe,160,GlobalCovenantofMayors2019;NAZCA,2,38.78588,-6.244232,1971,2018,Badajoz,Tierra de Mérida Vegas Bajas
Alanis de la Sierra,ESP,City,Spain,Europe,NA,EUCovenantofMayors2019;GlobalCovenantofMayors2019;NAZCA,3,37.3601614,-5.9788488,1900,NA,Seville,
Alanno,ITA,City,Italy,Europe,32.53,EUCovenantofMayors2019;GlobalCovenantofMayors2019;NAZCA,3,42.3,13.96666667,3679,NA,Pescara,
Alano di Piave,ITA,City,Italy,Europe,36.52,GlobalCovenantofMayors2019;EUCovenantofMayors2019;NAZCA,3,45.907803,11.9081948,2881,NA,Belluno,
Alaquàs,ESP,City,Spain,Europe,3.9,GlobalCovenantofMayors2019;NAZCA,2,39.4572928,-0.4609799,29965,2018,Valencia,Horta Oest
Alàs i Cerc,ESP,City,Spain,Europe,57.7,GlobalCovenantofMayors2019;NAZCA,2,42.324487,1.540233,400,2018,Lleida,Alt Urgell
Alassio,ITA,City,Italy,Europe,17.25,EUCovenantofMayors2019;GlobalCovenantofMayors2019;NAZCA,3,44,8.166666667,12000,NA,Savona,
Alaverdi,ARM,City,Armenia,Eastern Europe and Central Asia,18,GlobalCovenantofMayors2019;NAZCA,2,41.0958608,44.6459522,16400,2017,Lori,
Alba,ITA,City,Italy,Europe,28748,GlobalCovenantofMayors2019;EUCovenantofMayors2019;NAZCA,3,44.691542,8.025636,31531,2017,Cuneo,
Alba Adriatica,ITA,City,Italy,Europe,9.6,GlobalCovenantofMayors2019;EUCovenantofMayors2019;NAZCA,3,42.8343422,13.927816,12522,NA,Abruzzo,Teramo
Alba Iulia,ROU,City,Romania,Europe,103.65,Carbonn2019;GlobalCovenantofMayors2019;EUCovenantofMayors2019;NAZCA,4,46.06694444,23.57,63536,2011,Alba County,Alba
Albagés,ESP,City,Spain,Europe,25.7,GlobalCovenantofMayors2019;EUCovenantofMayors2019;NAZCA,3,41.7317684,1.8151935,425,2018,Lleida,
Albagiara,ITA,City,Italy,Europe,8.87,GlobalCovenantofMayors2019;NAZCA,2,39.786857,8.861913,278,NA,Oristano,
Albaida,ESP,City,Spain,Europe,89.78,GlobalCovenantofMayors2019;NAZCA,2,38.838669,-0.5181894,5987,2018,Baleares,Vall d'Albaida
Albairate,ITA,City,Italy,Europe,14.98,EUCovenantofMayors2019;GlobalCovenantofMayors2019;NAZCA,3,45.41666667,8.933333333,4148,NA,Lombardy,Milan
Albal,ESP,City,Spain,Europe,38,GlobalCovenantofMayors2019;NAZCA,2,39.3956438,-0.415082,16029,2018,Cáceres,Horta Sud
Albala,ESP,City,Spain,Europe,38,GlobalCovenantofMayors2019;NAZCA,2,39.255502,-6.190489,744,2018,Cáceres,Albalá
Albalat de la Ribera,ESP,City,Spain,Europe,14.29,GlobalCovenantofMayors2019;NAZCA,2,39.2012627,-0.3866467,3485,2018,Valencia,Ribera Baixa
Albalat Dels Sorells,ESP,City,Spain,Europe,4.62,GlobalCovenantofMayors2019;NAZCA,2,39.5436955,-0.3461911,3937,2018,Valencia,Horta Nord
Albánchez de Mágina,ESP,City,Spain,Europe,39,EUCovenantofMayors2019;GlobalCovenantofMayors2019;NAZCA,3,37.79166667,-3.45,1326,2018,Jaén,Albanchez de Mágina
Albanella,ITA,City,Italy,Europe,40.23,GlobalCovenantofMayors2019;NAZCA,2,40.478163,15.114332,6519,NA,Salerno,
Albano di Lucania,ITA,City,Italy,Europe,55.87,GlobalCovenantofMayors2019;EUCovenantofMayors2019;NAZCA,3,40.587058,16.037129,1502,NA,Potenza,
Albano Laziale,ITA,City,Italy,Europe,23.8,GlobalCovenantofMayors2019;EUCovenantofMayors2019;NAZCA,3,41.7288894,12.6582689,38997,NA,Rome,
Albano Sant'Alessandro,ITA,City,Italy,Europe,5.35,EUCovenantofMayors2019;GlobalCovenantofMayors2019;NAZCA,3,45.68333333,9.75,8075,NA,Bergamo,
"Albany, CA",USA,City,United States of America,North America,4.6360821,ClimateMayors;Carbonn2019,2,37.886944,-122.297778,18969,2010,California,"Alameda County, CA"
"Albany, NY",USA,City,United States of America,North America,55.3998861,GlobalCovenantofMayors2019;CDPCities2018;ClimateMayors;WeAreStillIn2019;WeAreStillIn2019;NAZCA,5,42.6511674,-73.7549679,98566,2016,New York State,"Albany County, NY"
"Albany, OR",USA,City,United States of America,North America,3.2374875,ClimateMayors,1,44.630278,-123.096111,53211,2010,Oregon,"Linn County, OR"
Albanyà,ESP,City,Spain,Europe,94.4,EUCovenantofMayors2019;GlobalCovenantofMayors2019;NAZCA,3,42.30694444,2.723055556,150,2018,Girona,Alt Empordà
Albaredo d'Adige,ITA,City,Italy,Europe,28.25,GlobalCovenantofMayors2019;NAZCA,2,45.316997,11.276161,5179,NA,Verona,
Albaretto Della Torre,ITA,City,Italy,Europe,4.59,GlobalCovenantofMayors2019;NAZCA,2,44.59681,8.06451,5952,NA,Cuneo,
Albatàrrec,ESP,City,Spain,Europe,10.5,EUCovenantofMayors2019;GlobalCovenantofMayors2019;NAZCA,3,41.575,0.606388889,2090,2018,Lleida,Segrià
Albatera,ESP,City,Spain,Europe,66327,GlobalCovenantofMayors2019;EUCovenantofMayors2019;NAZCA,3,38.1794357,-0.8700719,11767,2018,Teruel,Vega Baja del Segura
"Albemarle County, VA",USA,City,United States of America,North America,1880,WeAreStillIn2019,1,38.03333333,-78.56666667,98970,NA,Virginia,
Albenga,ITA,City,Italy,Europe,36.58,EUCovenantofMayors2019;GlobalCovenantofMayors2019;NAZCA,3,44.05,8.216666667,25000,NA,Savona,
Albergaria-a-Velha,PRT,City,Portugal,Europe,158.83,EUCovenantofMayors2019;GlobalCovenantofMayors2019;NAZCA,3,40.69333333,-8.481111111,25252,2011,Centro,Aveiro
Alberic,ESP,City,Spain,Europe,NA,GlobalCovenantofMayors2019;NAZCA,2,39.1164369,-0.5201837,10826,NA,Valencia,Ribera Alta
Alberite De San Juan,ESP,City,Spain,Europe,11.23,EUCovenantofMayors2019;GlobalCovenantofMayors2019;NAZCA,3,41.81666667,-1.466666667,99,2018,Zaragoza,Alberite de San Juan
Alberobello,ITA,City,Italy,Europe,0.1052,GlobalCovenantofMayors2019;NAZCA,2,40.786413,17.240936,11300,NA,Bari,
Alberona,ITA,City,Italy,Europe,49.75,EUCovenantofMayors2019;GlobalCovenantofMayors2019;NAZCA,3,41.43333333,15.11666667,1010,NA,Foggia,
Alberta,CAN,Region,Canada,North America,640081,CompactofStatesRegions2018;NAZCA,2,54.4,-115,4318772,2018,NA,
Albertslund,DNK,City,Denmark,Europe,NA,GlobalCovenantofMayors2019;EUCovenantofMayors2019;NAZCA,3,55.6586018,12.3562849,27880,NA,Capital Region,Copenhagen
Albesa,ESP,City,Spain,Europe,37.6,EUCovenantofMayors2019;GlobalCovenantofMayors2019;NAZCA,3,41.75388889,0.661666667,1652,2018,Lleida,Noguera
Albeta,ESP,City,Spain,Europe,2.65,GlobalCovenantofMayors2019;EUCovenantofMayors2019;NAZCA,3,41.8272224,-1.4926769,149,2018,Zaragoza,NA
Albiate,ITA,City,Italy,Europe,2.86,EUCovenantofMayors2019;GlobalCovenantofMayors2019;NAZCA,3,45.66666667,9.25,5216,NA,Monza Brianza,Monza and Brianza
Albignasego,ITA,City,Italy,Europe,21.16,EUCovenantofMayors2019;GlobalCovenantofMayors2019;NAZCA,3,45.35,11.86666667,25000,NA,Padua,
Albinea,ITA,City,Italy,Europe,43.89,GlobalCovenantofMayors2019;EUCovenantofMayors2019;NAZCA,3,44.6201821,10.6019259,8755,NA,Reggio Emilia,
Albino,ITA,City,Italy,Europe,31.81,GlobalCovenantofMayors2019;EUCovenantofMayors2019;NAZCA,3,45.7608142,9.7968303,17807,NA,Bergamo,
Albinyana,ESP,City,Spain,Europe,19.4,GlobalCovenantofMayors2019;EUCovenantofMayors2019;NAZCA,3,41.2454739,1.486748,2354,2018,Tarragona,Baix Penedès
Albiolo,ITA,City,Italy,Europe,2.84,GlobalCovenantofMayors2019;EUCovenantofMayors2019;NAZCA,3,45.805577,8.939235,2739,NA,Como,
Albisola Superiore,ITA,City,Italy,Europe,28.68,EUCovenantofMayors2019;GlobalCovenantofMayors2019;NAZCA,3,44.33944444,8.526944444,10485,NA,Savona,
Alboloduy,ESP,City,Spain,Europe,70,GlobalCovenantofMayors2019;EUCovenantofMayors2019;NAZCA,3,37.0327593,-2.6209782,745,2018,Almería,
Albolote,ESP,City,Spain,Europe,79,EUCovenantofMayors2019;GlobalCovenantofMayors2019;NAZCA,3,37.23055556,-3.656944444,18088,2018,Granada,NA
Albonese,ITA,City,Italy,Europe,4.33,GlobalCovenantofMayors2019;EUCovenantofMayors2019;NAZCA,3,45.2944385,8.706322,559,NA,Pavia,
Albons,ESP,City,Spain,Europe,11.1,GlobalCovenantofMayors2019;EUCovenantofMayors2019;NAZCA,3,42.1043559,3.0852797,740,2018,Girona,Baix Empordà
Alborache,ESP,City,Spain,Europe,27.33,GlobalCovenantofMayors2019;NAZCA,2,39.3929025,-0.774052,1136,2018,Valencia,Hoya de Buñol
Alboraya,ESP,City,Spain,Europe,8.3,GlobalCovenantofMayors2019;NAZCA,2,39.5009954,-0.3494799,23572,2018,Valencia,Horta Nord
Albosaggia,ITA,City,Italy,Europe,34.35,GlobalCovenantofMayors2019;EUCovenantofMayors2019;NAZCA,3,46.1472316,9.8531698,3188,NA,Sondrio,
Albox,ESP,City,Spain,Europe,168,EUCovenantofMayors2019;GlobalCovenantofMayors2019;NAZCA,3,37.38333333,-2.133333333,11271,2018,Almería,
Albudeite,ESP,City,Spain,Europe,17.02,GlobalCovenantofMayors2019;NAZCA,2,38.026663,-1.3866538,1423,2018,Murcia,Río Mula
Albuixech,ESP,City,Spain,Europe,4.4,GlobalCovenantofMayors2019;NAZCA,2,39.5449181,-0.3241613,3920,2018,Valencia,Horta Nord
Albuñol,ESP,City,Spain,Europe,63,GlobalCovenantofMayors2019;EUCovenantofMayors2019;NAZCA,3,36.7912927,-3.2016737,6270,2018,Granada,Costa Tropical
"Albuquerque, NM",USA,City,United States of America,North America,NA,WeAreStillIn2019,1,35.11083333,-106.61,558545,NA,New Mexico,"Bernalillo County, NM"
"Alburqueque, Spain",ESP,City,Spain,Europe,723,GlobalCovenantofMayors2019;NAZCA,2,39.219167,-7.001111,5340,2018,Badajoz,
Alcalá De Ebro,ESP,City,Spain,Europe,9.9,GlobalCovenantofMayors2019;EUCovenantofMayors2019;NAZCA,3,41.8140364,-1.1940809,283,2018,Zaragoza,Alcalá de Ebro
Alcalá de Guadaíra,ESP,City,Spain,Europe,284.61,GlobalCovenantofMayors2019;EUCovenantofMayors2019;NAZCA,3,37.3397709,-5.8408395,72100,2018,Seville,
Alcalá de los Gazules,ESP,City,Spain,Europe,479.59,EUCovenantofMayors2019;GlobalCovenantofMayors2019;NAZCA,3,36.46666667,-5.716666667,5619,2018,Cádiz,La Janda
Alcala De Moncayo,ESP,City,Spain,Europe,13.69,GlobalCovenantofMayors2019;EUCovenantofMayors2019;NAZCA,3,41.7862357,-1.6969471,205,2018,Zaragoza,Tarazona y el Moncayo
Alcalá del Valle,ESP,City,Spain,Europe,46.89,GlobalCovenantofMayors2019;EUCovenantofMayors2019;NAZCA,3,36.905066,-5.1726099,5300,2018,Cádiz,Sierra de Cádiz
Alcalá la Real,ESP,City,Spain,Europe,262,EUCovenantofMayors2019;GlobalCovenantofMayors2019;NAZCA,3,37.45,-3.916666667,22129,2018,Jaén,Sierra Sur de Jaén
Alcalalí,ESP,City,Spain,Europe,14.4,GlobalCovenantofMayors2019;EUCovenantofMayors2019;NAZCA,3,38.7503504,-0.0399998,1350,2018,Valencia,Marina Alta
Alcamo,ITA,City,Italy,Europe,130.9,EUCovenantofMayors2019;GlobalCovenantofMayors2019;NAZCA,3,37.97777778,12.96388889,46238,NA,Trapani,
Alcantarilla,ESP,City,Spain,Europe,16,GlobalCovenantofMayors2019;NAZCA,2,37.969517,-1.219342,40774,2018,Murcia,Huerta de Murcia
Alcàntera de Xúquer,ESP,City,Spain,Europe,3.3,GlobalCovenantofMayors2019;NAZCA,2,39.0694393,-0.5601547,1350,2018,Valencia,Ribera Alta
Alcara li Fusi,ITA,City,Italy,Europe,62.94,EUCovenantofMayors2019;GlobalCovenantofMayors2019;NAZCA,3,38.01666667,14.7,2473,NA,Sicily,Messina
Alcarràs,ESP,City,Spain,Europe,114.3,GlobalCovenantofMayors2019;EUCovenantofMayors2019;NAZCA,3,41.5630062,0.5245393,9100,2018,Lleida,Segrià
Alcasser,ESP,City,Spain,Europe,9.01,GlobalCovenantofMayors2019;NAZCA,2,39.3677124,-0.444674,9615,2018,Valencia,Horta Sud
Alcaudete,ESP,City,Spain,Europe,238,EUCovenantofMayors2019;GlobalCovenantofMayors2019;NAZCA,3,37.58333333,-4.1,11164,2018,Jaén,Sierra Sur de Jaén
Alcázar de San Juan,ESP,City,Spain,Europe,666.78,EUCovenantofMayors2019;GlobalCovenantofMayors2019;NAZCA,3,39.40555556,-3.205555556,31992,2018,Ciudad Real,
Alchevsk,UKR,City,Ukraine,Eastern Europe and Central Asia,55,GlobalCovenantofMayors2019;NAZCA,2,48.47134,38.813441,110529,2013,Luhansk Oblast,
Alcocer de Planes,ESP,City,Spain,Europe,4.39,EUCovenantofMayors2019;GlobalCovenantofMayors2019;NAZCA,3,38.79444444,-0.4025,238,2018,Alicante,Comtat
Alcochete,PRT,City,Portugal,Europe,128.36,GlobalCovenantofMayors2019;EUCovenantofMayors2019;NAZCA,3,38.7488526,-8.973300657,17569,2011,Lisbon,Setúbal
Alcoi,ESP,City,Spain,Europe,129.86,EUCovenantofMayors2019;GlobalCovenantofMayors2019;NAZCA,3,38.69833333,-0.473611111,59675,2018,Valencia,Alcoià
Alcolea,ESP,City,Spain,Europe,67,EUCovenantofMayors2019;GlobalCovenantofMayors2019;NAZCA,3,36.96666667,-2.95,966,2018,Almería,
Alcolea del Río,ESP,City,Spain,Europe,NA,EUCovenantofMayors2019;GlobalCovenantofMayors2019;NAZCA,3,37.5180353,-5.9800362,9317,2005,Seville,
Alcoleja,ESP,City,Spain,Europe,14.56,GlobalCovenantofMayors2019;EUCovenantofMayors2019;NAZCA,3,38.6755861,-0.3311341,191,2018,Valencia,Comtat
Alcoletge,ESP,City,Spain,Europe,16.7,GlobalCovenantofMayors2019;NAZCA,2,41.6472222,0.6944444,3285,2018,Lleida,
Alcollarín,ESP,City,Spain,Europe,79,GlobalCovenantofMayors2019;NAZCA,2,39.245057,-5.737223,433,2018,Cáceres,NA
Alconchel,ESP,City,Spain,Europe,294.9,GlobalCovenantofMayors2019;NAZCA,2,38.517011,-7.070012,1876,2018,Badajoz,Llanos de Olivenza
Alcóntar,ESP,City,Spain,Europe,94,EUCovenantofMayors2019;GlobalCovenantofMayors2019;NAZCA,3,37.33333333,-2.583333333,647,2018,Almería,
Alcorcón,ESP,City,Spain,Europe,33.7,EUCovenantofMayors2019;GlobalCovenantofMayors2019;NAZCA,3,40.35,-3.833333333,167997,2018,Madrid,of Madrid
Alcover,ESP,City,Spain,Europe,460,EUCovenantofMayors2019;GlobalCovenantofMayors2019;NAZCA,3,41.26666667,1.166666667,5131,2018,Tarragona,Alt Camp
Alcublas,ESP,City,Spain,Europe,43.5,GlobalCovenantofMayors2019;NAZCA,2,39.7979196,-0.7025735,690,2018,Valencia,Los Serranos
Alcudia,ESP,City,Spain,Europe,60.05,GlobalCovenantofMayors2019;NAZCA,2,39.853267,3.124024,22942,2018,Baleares,Raiguer
Aldaia,ESP,City,Spain,Europe,16.1,GlobalCovenantofMayors2019;NAZCA,2,39.4647207,-0.4607809,31246,2018,Valencia,Horta Oest
Aldehuela De Liestos,ESP,City,Spain,Europe,38.12,GlobalCovenantofMayors2019;EUCovenantofMayors2019;NAZCA,3,41.0642215,-1.7005881,51,2018,Aragon,Aldehuela de Liestos
Aldeire,ESP,City,Spain,Europe,67,EUCovenantofMayors2019;GlobalCovenantofMayors2019;NAZCA,3,37.15,-3.066666667,696,2018,Granada,NA
Aldeno,ITA,City,Italy,Europe,8.97,GlobalCovenantofMayors2019;EUCovenantofMayors2019;NAZCA,3,45.9767795,11.0908573,3053,NA,Trentino,
Aldover,ESP,City,Spain,Europe,20.2,GlobalCovenantofMayors2019;NAZCA,2,40.8800537,0.5000194,918,2018,Tarragona,Baix Ebre
Aledo,ESP,City,Spain,Europe,49.74,GlobalCovenantofMayors2019;NAZCA,2,37.794985,-1.573546,1053,2018,Murcia,Bajo Guadalentín
Alella,ESP,City,Spain,Europe,9.6,EUCovenantofMayors2019;GlobalCovenantofMayors2019;NAZCA,3,41.495,2.296111111,9397,2018,Barcelona Province,Maresme
Alenquer,PRT,City,Portugal,Europe,304.22,GlobalCovenantofMayors2019;NAZCA,2,39.0574,-9.006365,42000,2011,Lisbon,
Alento Montestella,ITA,City,Italy,Europe,NA,GlobalCovenantofMayors2019;EUCovenantofMayors2019,2,40.2374011,15.0487682,15104,NA,Campania,
Alessandria,ITA,City,Italy,Europe,203.57,GlobalCovenantofMayors2019;EUCovenantofMayors2019;NAZCA,3,44.9129225,8.615321,85438,NA,NA,
Alessandria della Rocca,ITA,City,Italy,Europe,62.24,EUCovenantofMayors2019;GlobalCovenantofMayors2019;NAZCA,3,37.56666667,13.45,3082,NA,Agrigento,
Alessano,ITA,City,Italy,Europe,28.69,GlobalCovenantofMayors2019;EUCovenantofMayors2019;NAZCA,3,39.8896785,18.3312082,6552,NA,Lecce,
Ålesund,NOR,City,Norway,Europe,93.17,EUCovenantofMayors2019;GlobalCovenantofMayors2019;NAZCA,3,62.47777778,6.190277778,42317,2017,Møre og Romsdal,NA
Alexandria,GRC,City,Greece,Europe,2679,GlobalCovenantofMayors2019;EUCovenantofMayors2019;NAZCA,3,37.9506108,23.7029521,41604,2018,Central Macedonia,
"Alexandria, VA",USA,City,United States of America,North America,38.6685507,ClimateMayors;WeAreStillIn2019;WeAreStillIn2019,2,38.804722,-77.047222,153511,2010,Virginia,
Alexandroupolis,GRC,City,Greece,Europe,1217,EUCovenantofMayors2019;GlobalCovenantofMayors2019;NAZCA,3,40.85,25.86666667,72750,2011,East Macedonia and Thrace,Evros
Alexânia,BRA,City,Brazil,Latin America and Caribbean,847.891,GlobalCovenantofMayors2019;NAZCA,2,-16.0887,-48.5017,30000,2007,Goiás,
Alezio,ITA,City,Italy,Europe,16.79,EUCovenantofMayors2019;GlobalCovenantofMayors2019;NAZCA,3,40.06666667,18.05,5547,NA,Lecce,
Alfacar,ESP,City,Spain,Europe,16,GlobalCovenantofMayors2019;EUCovenantofMayors2019;NAZCA,3,37.2383551,-3.566372,5508,2018,Granada,NA
Alfafar,ESP,City,Spain,Europe,16,GlobalCovenantofMayors2019;NAZCA,2,39.4200749,-0.3891354,20772,2018,Granada,Horta Sud
Alfafara,ESP,City,Spain,Europe,19.78,GlobalCovenantofMayors2019;EUCovenantofMayors2019;NAZCA,3,38.7732651,-0.554559,418,2018,Alicante,Comtat
Alfajarín,ESP,City,Spain,Europe,137,EUCovenantofMayors2019;GlobalCovenantofMayors2019;NAZCA,3,41.61666667,-0.7,2215,2018,Aragon,NA
Alfamen,ESP,City,Spain,Europe,102,EUCovenantofMayors2019;GlobalCovenantofMayors2019;NAZCA,3,41.43333333,-1.25,1577,2018,Zaragoza,Campo de Cariñena
Alfândega da Fé,PRT,City,Portugal,Europe,321.95,Carbonn2019;GlobalCovenantofMayors2019;NAZCA,3,41.35555556,-6.945,5104,2011,Norte,Bragança
Alfara De Carles,ESP,City,Spain,Europe,63.9,GlobalCovenantofMayors2019;NAZCA,2,40.8729772,0.4005288,395,2018,Tarragona,Baix Ebre
Alfara De La Baronia,ESP,City,Spain,Europe,11.71,GlobalCovenantofMayors2019;NAZCA,2,39.762781,-0.355419,535,2018,Valencia,Camp de Morvedre
Alfara Del Patriarca,ESP,City,Spain,Europe,1.98,GlobalCovenantofMayors2019;NAZCA,2,39.544129,-0.3856584,3228,2018,Valencia,Horta Nord
Alfarnate,ESP,City,Spain,Europe,33.66987,EUCovenantofMayors2019;GlobalCovenantofMayors2019;NAZCA,3,36.98333333,-4.25,1362,2018,Málaga,Axarquía Costa del Sol
Alfarnatejo,ESP,City,Spain,Europe,20.71992,GlobalCovenantofMayors2019;EUCovenantofMayors2019;NAZCA,3,36.9790514,-4.2726473,404,2018,Málaga,Axarquía Costa del Sol
Alfarp,ESP,City,Spain,Europe,20.6,GlobalCovenantofMayors2019;NAZCA,2,39.2767351,-0.560509,1553,2018,Valencia,Ribera Alta
Alfarràs,ESP,City,Spain,Europe,11.4,GlobalCovenantofMayors2019;NAZCA,2,41.8311403,0.5692934,2923,2018,Lleida,Segrià
Alfarrasí,ESP,City,Spain,Europe,6.4,GlobalCovenantofMayors2019;NAZCA,2,38.903726,-0.4961549,1309,2018,Valencia,Vall d'Albaida
Alfauir,ESP,City,Spain,Europe,6.2,GlobalCovenantofMayors2019;NAZCA,2,38.9283659,-0.2516594,451,2018,Valencia,Safor
Alfedena,ITA,City,Italy,Europe,39.96,GlobalCovenantofMayors2019;EUCovenantofMayors2019;NAZCA,3,41.73424,14.03253,791,NA,Province of L'Aquila,L'Aquila
Alfianello,ITA,City,Italy,Europe,13.75,GlobalCovenantofMayors2019;EUCovenantofMayors2019;NAZCA,3,45.266975,10.148172,2445,NA,Brescia,
Alfonsine,ITA,City,Italy,Europe,106.79,GlobalCovenantofMayors2019;EUCovenantofMayors2019;NAZCA,3,44.5053302,12.0410437,12411,NA,Ravenna,
Alforja,ESP,City,Spain,Europe,38.2,GlobalCovenantofMayors2019;EUCovenantofMayors2019;NAZCA,3,41.2099763,0.9750606,1857,2018,Tarragona,Baix Camp
Alforque,ESP,City,Spain,Europe,10,GlobalCovenantofMayors2019;EUCovenantofMayors2019;NAZCA,3,41.3298767,-0.3852708,86,2018,Zaragoza,
Algaida,ESP,City,Spain,Europe,89.78,EUCovenantofMayors2019;GlobalCovenantofMayors2019;NAZCA,3,39.55833333,2.891666667,5367,2018,Baleares,Pla de Mallorca
Algámitas,ESP,City,Spain,Europe,20.42,GlobalCovenantofMayors2019;EUCovenantofMayors2019;NAZCA,3,37.0163821,-5.1488475,1330,2018,Seville,Sierra Sur de Sevilla
Algar,ESP,City,Spain,Europe,175.6,EUCovenantofMayors2019;GlobalCovenantofMayors2019;NAZCA,3,-33.39111111,-71.69277778,1540,NA,Málaga,
Algar De Palancia,ESP,City,Spain,Europe,13.2,GlobalCovenantofMayors2019;NAZCA,2,39.7810953,-0.3674639,503,2018,Valencia,Camp de Morvedre
Algarinejo,ESP,City,Spain,Europe,93,EUCovenantofMayors2019;GlobalCovenantofMayors2019;NAZCA,3,37.31666667,-4.15,4184,2018,Granada,NA
Algarrobo,ESP,City,Spain,Europe,10.35996,GlobalCovenantofMayors2019;EUCovenantofMayors2019;NAZCA,3,36.7732439,-4.0399306,6144,2018,Málaga,Axarquía Costa del Sol
Algatocín,ESP,City,Spain,Europe,20,EUCovenantofMayors2019;GlobalCovenantofMayors2019;NAZCA,3,36.57277778,-5.275555556,951,2018,Málaga,Serranía de Ronda
Algeciras,ESP,City,Spain,Europe,86,EUCovenantofMayors2019;GlobalCovenantofMayors2019;NAZCA,3,36.1275,-5.453888889,115333,2018,Cádiz,Campo de Gibraltar
Algemesí,ESP,City,Spain,Europe,41.5,GlobalCovenantofMayors2019;NAZCA,2,39.1907907,-0.4357531,27808,2018,Valencia,Ribera Alta
Algerri,ESP,City,Spain,Europe,54.3,GlobalCovenantofMayors2019;EUCovenantofMayors2019;NAZCA,3,41.8151794,0.6371437,437,2018,Lleida,Noguera
Alghero,ITA,City,Italy,Europe,225.4,EUCovenantofMayors2019;GlobalCovenantofMayors2019;NAZCA,3,40.55,8.316666667,43945,2018,Sassari,SS
Algimia De Alfara,ESP,City,Spain,Europe,14.4,GlobalCovenantofMayors2019;NAZCA,2,39.7536043,-0.362999,1047,2018,Valencia,Camp de Morvedre
Alginet,ESP,City,Spain,Europe,24.1,GlobalCovenantofMayors2019;NAZCA,2,39.2651129,-0.4716911,13068,2018,Valencia,Ribera Alta
Algua,ITA,City,Italy,Europe,8.32,EUCovenantofMayors2019;GlobalCovenantofMayors2019;NAZCA,3,45.83333333,9.716666667,722,NA,Bergamo,
Alguazas,ESP,City,Spain,Europe,23.74,GlobalCovenantofMayors2019;NAZCA,2,38.052566,-1.249398,9146,2018,Murcia,Vega Media del Segura
Algueña,ESP,City,Spain,Europe,18.43,EUCovenantofMayors2019;GlobalCovenantofMayors2019;NAZCA,3,38.33777778,-1.003611111,1457,2018,Valencia,Vinalopó Mitjà
Alhama de Almería,ESP,City,Spain,Europe,26,EUCovenantofMayors2019;GlobalCovenantofMayors2019;NAZCA,3,36.95,-2.566666667,3587,2018,Almería,Alpujarra Almeriense
Alhama de Aragón,ESP,City,Spain,Europe,31,EUCovenantofMayors2019;GlobalCovenantofMayors2019;NAZCA,3,41.3,-1.9,1146,2018,Aragon,NA
Alhama de Granada,ESP,City,Spain,Europe,433.5,GlobalCovenantofMayors2019;EUCovenantofMayors2019;NAZCA,3,37.0028286,-3.9891095,6214,2018,Granada,Alhama
Alhama de Murcia,ESP,City,Spain,Europe,311.55,GlobalCovenantofMayors2019;EUCovenantofMayors2019;NAZCA,3,37.8515173,-1.4264423,20915,2018,Murcia,Bajo Guadalentín
Alhaurín de la Torre,ESP,City,Spain,Europe,83,EUCovenantofMayors2019;GlobalCovenantofMayors2019;NAZCA,3,36.66666667,-4.55,37446,2018,Málaga,Valle del Guadalhorce
Alhaurin el Grande,ESP,City,Spain,Europe,73.1,EUCovenantofMayors2019;GlobalCovenantofMayors2019;NAZCA,3,36.63305556,-4.683055556,21776,2018,Málaga,
Alhendín,ESP,City,Spain,Europe,51,GlobalCovenantofMayors2019;EUCovenantofMayors2019;NAZCA,3,37.1081077,-3.64366,5200,2018,Granada,Empire of Alhendín
Alì Terme,ITA,City,Italy,Europe,6.27,GlobalCovenantofMayors2019;NAZCA,2,38.005064,15.42269,2567,NA,Sicily,Messina
Alia,ITA,City,Italy,Europe,NA,EUCovenantofMayors2019;GlobalCovenantofMayors2019;NAZCA,3,37.779948,13.713856,3806,NA,Palermo,
Aliano,ITA,City,Italy,Europe,98.41,GlobalCovenantofMayors2019;EUCovenantofMayors2019;NAZCA,3,40.3138266,16.2299609,1110,NA,Basilicata,Matera
Aliartou - Thespieon,GRC,City,Greece,Europe,108.152,GlobalCovenantofMayors2019;EUCovenantofMayors2019;NAZCA,3,38.3,23.15,4793,NA,Boeotia,
Alicante,ESP,City,Spain,Europe,201.27,GlobalCovenantofMayors2019;EUCovenantofMayors2019;NAZCA,3,38.353738,-0.4901845,334678,2018,NA,Alacantí
Alife,ITA,City,Italy,Europe,64.32,EUCovenantofMayors2019;GlobalCovenantofMayors2019;NAZCA,3,41.33333333,14.33333333,7613,NA,Caserta,
Alijó,PRT,City,Portugal,Europe,297.6,EUCovenantofMayors2019;GlobalCovenantofMayors2019;NAZCA,3,41.27611111,-7.475,11840,2011,Norte,Vila Real
Alimena,ITA,City,Italy,Europe,59.7,EUCovenantofMayors2019;GlobalCovenantofMayors2019;NAZCA,3,37.7,14.11666667,2087,NA,Sicily,Palermo
Aliminusa,ITA,City,Italy,Europe,13.68,EUCovenantofMayors2019;GlobalCovenantofMayors2019;NAZCA,3,37.86666667,13.78333333,1269,NA,Palermo,
Alimos,GRC,City,Greece,Europe,5.909,EUCovenantofMayors2019;GlobalCovenantofMayors2019;NAZCA,3,37.91666667,23.71666667,42000,2011,Attica,Cythirians
Alió,ESP,City,Spain,Europe,7.2,EUCovenantofMayors2019;GlobalCovenantofMayors2019;NAZCA,3,41.3,1.3,432,2018,Tarragona,Alt Camp
Aliseda,ESP,City,Spain,Europe,81,GlobalCovenantofMayors2019;NAZCA,2,39.4247,-6.691883,1951,2018,Cáceres,
Aljaraque,ESP,City,Spain,Europe,34,GlobalCovenantofMayors2019;EUCovenantofMayors2019;NAZCA,3,37.2664912,-7.0246858,17960,2018,Huelva,
Alken,BEL,City,Belgium,Europe,28.14,GlobalCovenantofMayors2019;EUCovenantofMayors2019;NAZCA,3,50.8754731,5.3079873,11242,NA,Limburg,Tongeren
Alkmaar,NLD,City,Netherlands,Europe,29.26,GlobalCovenantofMayors2019;NAZCA,2,52.632381,4.753375,288000,2016,North Holland,
"Allentown, PA",USA,City,United States of America,North America,749.802105,ClimateMayors;WeAreStillIn2019;WeAreStillIn2019,2,40.601667,-75.477222,120443,2010,Pennsylvania,"Lehigh County, PA"
Alliance of Peaking Pioneer Cities (APPC),CHN,Region,China,East Asia and the Pacific,NA,Under2Coalition2019,1,NA,NA,NA,NA,NA,
Alliste,ITA,City,Italy,Europe,23.53,GlobalCovenantofMayors2019;NAZCA,2,39.947527,18.086225,6719,NA,Lecce,
Allumiere,ITA,City,Italy,Europe,92.17,EUCovenantofMayors2019;GlobalCovenantofMayors2019;NAZCA,3,42.15,11.9,4293,NA,Rome,
Almacelles,ESP,City,Spain,Europe,49,EUCovenantofMayors2019;GlobalCovenantofMayors2019;NAZCA,3,41.7325,0.440277778,6961,2018,Lleida,Segrià
Almáchar,ESP,City,Spain,Europe,14.3,EUCovenantofMayors2019;GlobalCovenantofMayors2019;NAZCA,3,36.8,-4.233333333,1898,2018,Málaga,Axarquía
Almada,PRT,City,Portugal,Europe,70.21,GlobalCovenantofMayors2019;EUCovenantofMayors2019;Carbonn2019;NAZCA,4,38.6803861,-9.1559562,174030,2011,Lisbon,Setúbal
Almadén de la Plata,ESP,City,Spain,Europe,NA,GlobalCovenantofMayors2019;EUCovenantofMayors2019;NAZCA,3,37.8736407,-6.0804953,1696,NA,Seville,
Almargen,ESP,City,Spain,Europe,165,EUCovenantofMayors2019;GlobalCovenantofMayors2019;NAZCA,3,37,-5.016666667,2106,2018,Málaga,Comarca of Antequera
Almàssera,ESP,City,Spain,Europe,2.7,GlobalCovenantofMayors2019;NAZCA,2,39.5118213,-0.3562373,7514,2018,Valencia,Horta Nord
Almassora,ESP,City,Spain,Europe,33,GlobalCovenantofMayors2019;EUCovenantofMayors2019;NAZCA,3,39.9435743,-0.0634782,24963,2018,Castellón,Plana Alta
Almè,ITA,City,Italy,Europe,2,EUCovenantofMayors2019;GlobalCovenantofMayors2019;NAZCA,3,45.73333333,9.616666667,5631,NA,Bergamo,
Almegíjar,ESP,City,Spain,Europe,30,EUCovenantofMayors2019;GlobalCovenantofMayors2019;NAZCA,3,36.9,-3.3,435,2018,Granada,Alpujarra Granadina
Almenar,ESP,City,Spain,Europe,66.6,GlobalCovenantofMayors2019;NAZCA,2,41.7943506,0.5695395,3502,2018,Lleida,Segrià
Almendral,ESP,City,Spain,Europe,67,GlobalCovenantofMayors2019;NAZCA,2,38.613437,-6.821032,1354,2018,Badajoz,Llanos de Olivenza
Almenno San Bartolomeo,ITA,City,Italy,Europe,10.61,EUCovenantofMayors2019;GlobalCovenantofMayors2019;NAZCA,3,45.75,9.583333333,5388,NA,Bergamo,
Almenno San Salvatore,ITA,City,Italy,Europe,4.73,GlobalCovenantofMayors2019;EUCovenantofMayors2019;NAZCA,3,45.7499556,9.5963684,5789,NA,Bergamo,
Almensilla,ESP,City,Spain,Europe,NA,GlobalCovenantofMayors2019;EUCovenantofMayors2019;NAZCA,3,37.3100014,-6.1130522,5096,NA,Seville,
Almere,NLD,City,Netherlands,Europe,129.6,EUCovenantofMayors2019;GlobalCovenantofMayors2019;NAZCA,3,52.36666667,5.216666667,193156,2017,Flevoland,
Almería,ESP,City,Spain,Europe,296.21,EUCovenantofMayors2019;GlobalCovenantofMayors2019;NAZCA,3,36.84027778,-2.468055556,175000,2018,NA,Comarca de Almería
Almese,ITA,City,Italy,Europe,17.88,GlobalCovenantofMayors2019;EUCovenantofMayors2019;NAZCA,3,45.1168763,7.39455,6378,NA,Turin,
Älmhults,SWE,City,Sweden,Europe,8.78,GlobalCovenantofMayors2019;EUCovenantofMayors2019;NAZCA,3,56.55,14.116667,15570,2010,Småland,NA
Almiserà,ESP,City,Spain,Europe,7.4,GlobalCovenantofMayors2019;NAZCA,2,38.9153082,-0.286036,276,2018,Valencia,Safor
Almócita,ESP,City,Spain,Europe,30,GlobalCovenantofMayors2019;EUCovenantofMayors2019;NAZCA,3,37.003137,-2.7904478,158,2018,Almería,
Almoharín,ESP,City,Spain,Europe,97,GlobalCovenantofMayors2019;NAZCA,2,39.175874,-6.042773,2082,2018,Cáceres,NA
Almoines,ESP,City,Spain,Europe,2.1,GlobalCovenantofMayors2019;NAZCA,2,38.9434696,-0.1809756,2302,2018,Valencia,Safor
Almonacid De La Cuba,ESP,City,Spain,Europe,55,GlobalCovenantofMayors2019;EUCovenantofMayors2019;NAZCA,3,41.2795006,-0.7923988,270,2018,Aragon,Campo de Belchite
Almonacid De La Sierra,ESP,City,Spain,Europe,54,EUCovenantofMayors2019;GlobalCovenantofMayors2019;NAZCA,3,41.4,-1.316666667,824,2018,Aragon,Almonacid de la Sierra
Almonaster la Real,ESP,City,Spain,Europe,322,EUCovenantofMayors2019;GlobalCovenantofMayors2019;NAZCA,3,37.87333333,-6.786111111,1848,2018,Huelva,NA
Almonte,ESP,City,Spain,Europe,859.2,EUCovenantofMayors2019;GlobalCovenantofMayors2019;NAZCA,3,39.68416667,-6.46,21782,NA,Huelva,
Almopia,GRC,City,Greece,Europe,985.8,GlobalCovenantofMayors2019;NAZCA,2,41.039781,22.09533,29354,2011,Central Macedonia,Pella
Almoradí,ESP,City,Spain,Europe,42.72,GlobalCovenantofMayors2019;EUCovenantofMayors2019;NAZCA,3,38.1096544,-0.7919255,19601,2018,Valencia,Vega Baja del Segura
Almoster,ESP,City,Spain,Europe,6,EUCovenantofMayors2019;GlobalCovenantofMayors2019;NAZCA,3,41.2,1.116666667,1396,2018,Tarragona,Bajo Campo
Almudaina,ESP,City,Spain,Europe,8.82,GlobalCovenantofMayors2019;EUCovenantofMayors2019;NAZCA,3,38.7611112,-0.3539786,112,2018,Alicante,Comtat
Almussafes,ESP,City,Spain,Europe,10.77,GlobalCovenantofMayors2019;NAZCA,2,39.2924334,-0.4138576,8744,2018,Valencia,Ribera Baixa
Almyros,GRC,City,Greece,Europe,905.4,EUCovenantofMayors2019;GlobalCovenantofMayors2019;NAZCA,3,39.18,22.76,18614,2011,Magnesia,
Alonte,ITA,City,Italy,Europe,11.15,GlobalCovenantofMayors2019;NAZCA,2,45.364644,11.428491,1663,NA,Vicenza,
Alor Gajah,MYS,City,Malaysia,East Asia and the Pacific,635.84,Carbonn2019,1,2.383333333,102.2166667,198400,NA,Melaka,NA
Álora,ESP,City,Spain,Europe,79.26,GlobalCovenantofMayors2019;NAZCA,2,36.839681,-4.707062,13499,2018,Málaga,Valle del Guadalhorce
Alosno,ESP,City,Spain,Europe,193,EUCovenantofMayors2019;GlobalCovenantofMayors2019;NAZCA,3,37.55,-7.116666667,4381,2018,Huelva,Andévalo
Alozaina,ESP,City,Spain,Europe,33.85,GlobalCovenantofMayors2019;EUCovenantofMayors2019;NAZCA,3,36.7278925,-4.8564749,2236,2018,Málaga,Comarca of Antequera
Alp,ESP,City,Spain,Europe,NA,GlobalCovenantofMayors2019;NAZCA,2,42.372845,1.886116,1747,NA,Girona,Cerdanya
Alpa Corral,ARG,City,Argentina,Latin America and Caribbean,NA,GlobalCovenantofMayors2019;NAZCA,2,-32.69138,-64.7213,1200,NA,Córdoba,
Alpago,ITA,City,Italy,Europe,80.34,GlobalCovenantofMayors2019;EUCovenantofMayors2019,2,46.1306681,12.3548944,7299,NA,Venice,Belluno
Alpandeire,ESP,City,Spain,Europe,31.3,EUCovenantofMayors2019;GlobalCovenantofMayors2019;NAZCA,3,36.63444444,-5.202777778,271,2018,Málaga,Serranía de Ronda
Alpens,ESP,City,Spain,Europe,13.8,EUCovenantofMayors2019;GlobalCovenantofMayors2019;NAZCA,3,42.11666667,2.1,311,2018,Barcelona Province,Osona
Alpicat,ESP,City,Spain,Europe,15.3,EUCovenantofMayors2019;GlobalCovenantofMayors2019;NAZCA,3,41.66666667,0.55,6203,2018,Lleida,Segrià
Alpignano,ITA,City,Italy,Europe,11.92,EUCovenantofMayors2019;GlobalCovenantofMayors2019;NAZCA,3,45.1,7.516666667,16993,NA,Turin,
Alpuente,ESP,City,Spain,Europe,138.3,GlobalCovenantofMayors2019;NAZCA,2,39.8759884,-1.0137761,640,2018,Valencia,Los Serranos
Alquería de Aznar,ESP,City,Spain,Europe,1.08,EUCovenantofMayors2019;GlobalCovenantofMayors2019;NAZCA,3,38.77277778,-0.425833333,527,2018,Valencia,Comtat
Alsace,FRA,Region,France,Europe,NA,Under2Coalition2019,1,48.66666667,7,1872949,NA,NA,
Alseno,ITA,City,Italy,Europe,55.27,EUCovenantofMayors2019;GlobalCovenantofMayors2019;NAZCA,3,44.9,9.966666667,4977,NA,Piacenza,
Alta Gracia,ARG,City,Argentina,Latin America and Caribbean,NA,GlobalCovenantofMayors2019;NAZCA,2,-27.5095304,-58.8264294,48506,NA,Córdoba,
Altafulla,ESP,City,Spain,Europe,7,EUCovenantofMayors2019;GlobalCovenantofMayors2019;NAZCA,3,41.14333333,1.376944444,4928,2018,Tarragona,Tarragonès
Altare-Cosseria,ITA,City,Italy,Europe,NA,GlobalCovenantofMayors2019;EUCovenantofMayors2019,2,44.3352858,8.3180253,3249,NA,Liguria,Savona
Altavilla Milicia,ITA,City,Italy,Europe,23.78,GlobalCovenantofMayors2019;EUCovenantofMayors2019;NAZCA,3,38.037851,13.54835,7791,NA,Palermo,
Altavilla Silentina,ITA,City,Italy,Europe,52.48,GlobalCovenantofMayors2019;EUCovenantofMayors2019;NAZCA,3,40.5302405,15.1310307,7029,NA,Salerno,
Altavilla Vicentina,ITA,City,Italy,Europe,16.72,GlobalCovenantofMayors2019;EUCovenantofMayors2019;NAZCA,3,45.5084288,11.4706863,12084,NA,Vicenza,
Altea,ESP,City,Spain,Europe,34.43,EUCovenantofMayors2019;GlobalCovenantofMayors2019;NAZCA,3,38.59861111,-0.0519,21739,2018,Alicante,Marina Baixa
Alter do Chão,PRT,City,Portugal,Europe,362.07,EUCovenantofMayors2019;GlobalCovenantofMayors2019;NAZCA,3,39.18333333,-7.65,3591,2011,Alentejo,Portalegre
Altilia,ITA,City,Italy,Europe,10.56,EUCovenantofMayors2019;GlobalCovenantofMayors2019;NAZCA,3,39.13333333,16.25,779,NA,Cosenza,
Altino,ITA,City,Italy,Europe,15.33,EUCovenantofMayors2019;GlobalCovenantofMayors2019;NAZCA,3,42.1,14.33333333,2823,NA,Chieti Province,
Altivole,ITA,City,Italy,Europe,21.95,GlobalCovenantofMayors2019;EUCovenantofMayors2019;NAZCA,3,45.7540029,11.9553621,6828,NA,Treviso,
Alto,ITA,City,Italy,Europe,40.0671453,GlobalCovenantofMayors2019;NAZCA,2,46.433666,11.16933,113,2010,Cuneo,
Alto Agordino,ITA,City,Italy,Europe,NA,GlobalCovenantofMayors2019;EUCovenantofMayors2019;NAZCA,3,46.2683053,12.036373,3869,NA,Venice,Belluno
Alto Alegre,BRA,City,Brazil,Latin America and Caribbean,25567,GlobalCovenantofMayors2019;NAZCA,2,-21.623976,-50.203844,4164,2015,Roraima,
Alto e Medio Metauro,ITA,City,Italy,Europe,590.82,GlobalCovenantofMayors2019;EUCovenantofMayors2019,2,43.668333,12.524167,41375,NA,Marche,
Altofonte,ITA,City,Italy,Europe,35.44,GlobalCovenantofMayors2019;NAZCA,2,38.044476,13.298103,10438,NA,Sicily,Palermo
"Alton, IL",USA,City,United States of America,North America,43,Carbonn2019;GlobalCovenantofMayors2019;CDPCities2018;NAZCA,4,38.90055556,-90.15972222,26581,2010,Illinois,"Madison County, IL"
Altötting,DEU,City,Germany,Europe,23.43,GlobalCovenantofMayors2019;EUCovenantofMayors2019;NAZCA,3,48.2268085,12.6757914,13000,NA,Bavaria,NA
Altura,ESP,City,Spain,Europe,7.3037718,GlobalCovenantofMayors2019;NAZCA,2,39.850792,-0.512944,3920,2010,Castellón,
Alvaiázere,PRT,City,Portugal,Europe,160.48,GlobalCovenantofMayors2019;EUCovenantofMayors2019;NAZCA,3,39.8161333,-8.402046067,8112,2011,Centro,Leiria
Alvarado,MEX,City,Mexico,Latin America and Caribbean,840.63,GlobalCovenantofMayors2019;NAZCA,2,18.76648,-95.7573,56927,2005,Veracruz,NA
Alvesta,SWE,City,Sweden,Europe,6.1,GlobalCovenantofMayors2019;EUCovenantofMayors2019;NAZCA,3,56.86382675,14.44793099,18757,2010,Småland,NA
Alvignano,ITA,City,Italy,Europe,38.13,EUCovenantofMayors2019;GlobalCovenantofMayors2019;NAZCA,3,41.25,14.33333333,4885,NA,Caserta,
Älvsbyn,SWE,City,Sweden,Europe,6.35,EUCovenantofMayors2019;GlobalCovenantofMayors2019;NAZCA,3,65.68333333,21.01666667,8274,2010,Norrbotten County,NA
Alzano Lombardo,ITA,City,Italy,Europe,13.68,EUCovenantofMayors2019;GlobalCovenantofMayors2019;NAZCA,3,45.73333333,9.733333333,13757,NA,Bergamo,
Alzira,ESP,City,Spain,Europe,110.4,GlobalCovenantofMayors2019;NAZCA,2,39.1512424,-0.4346132,44518,2018,Valencia,Ribera Alta
Amacuzac,MEX,City,Mexico,Latin America and Caribbean,125,Carbonn2019,1,18,-99,17021,NA,Morelos,
Amadora,PRT,City,Portugal,Europe,23.78,GlobalCovenantofMayors2019;NAZCA,2,38.75776,-9.224547,172350,2011,Lisbon,
Amami,JPN,City,Japan,East Asia and the Pacific,308.15,Carbonn2019,1,28.31666667,129.45,44561,2016,Kagoshima Prefecture,Kagoshima
Amares,PRT,City,Portugal,Europe,81.95,EUCovenantofMayors2019;GlobalCovenantofMayors2019;NAZCA,3,41.61666667,-8.333333333,19000,2011,Norte,Braga
Amaroussion,GRC,City,Greece,Europe,12.938,GlobalCovenantofMayors2019;EUCovenantofMayors2019;NAZCA,3,38.0455,23.7689,72480,2011,Attica,North Athens
Amato,ITA,City,Italy,Europe,20.93,EUCovenantofMayors2019;GlobalCovenantofMayors2019;NAZCA,3,38.93333333,16.46666667,861,NA,Reggio Calabria,Catanzaro
Amay,BEL,City,Belgium,Europe,27.61,GlobalCovenantofMayors2019;NAZCA,2,50.5497761,5.3240992,14145,NA,Liège,Huy
"Amazonas, Brazil",BRA,Region,Brazil,Latin America and Caribbean,1570745.7,Under2Coalition2019;NAZCA,2,-5,-63,4063614,2010,NA,
"Amazonas, Peru",PER,Region,Peru,Latin America and Caribbean,39249.13,CompactofStatesRegions2018;Under2Coalition2019;NAZCA,3,-6.216666667,-77.85,424952,2017,NA,
Ambivere,ITA,City,Italy,Europe,3.28,EUCovenantofMayors2019;GlobalCovenantofMayors2019;NAZCA,3,45.71666667,9.55,2371,NA,Bergamo,
"Ambler, PA",USA,City,United States of America,North America,23.2581102,WeAreStillIn2019;ClimateMayors;WeAreStillIn2019,2,67.085,-157.8602778,6506,2010,Pennsylvania,
Ameglia,ITA,City,Italy,Europe,14.17,EUCovenantofMayors2019;GlobalCovenantofMayors2019;NAZCA,3,44.06666667,9.95,4520,NA,La Spezia,
Amel,BEL,City,Belgium,Europe,125.15,GlobalCovenantofMayors2019;NAZCA,2,50.3543055,6.1705559,5500,NA,Liège,Verviers
Amendolara,ITA,City,Italy,Europe,60.91,GlobalCovenantofMayors2019;EUCovenantofMayors2019;NAZCA,3,39.9524383,16.5822838,3107,NA,Cosenza,
Ameno,ITA,City,Italy,Europe,10,GlobalCovenantofMayors2019;EUCovenantofMayors2019;NAZCA,3,45.7886563,8.4413106,878,NA,Novara,
Amer,ESP,City,Spain,Europe,NA,EUCovenantofMayors2019;GlobalCovenantofMayors2019;NAZCA,3,42.0092186,2.6030327,2300,NA,Girona,Selva
"Amesville, OH",USA,City,United States of America,North America,0.5697978,ClimateMayors,1,39.401389,-81.955,157,2010,Ohio,"Athens County, OH"
Amezketa,ESP,City,Spain,Europe,NA,EUCovenantofMayors2019;GlobalCovenantofMayors2019;NAZCA,3,43.04916667,-2.088055556,994,2018,Biscay,Tolosaldea
Amiens,FRA,City,France,Europe,NA,GlobalCovenantofMayors2019;NAZCA,2,49.8941708,2.2956951,132727,NA,Hauts-de-France,NA
Amiens Métropole,FRA,City,France,Europe,NA,GlobalCovenantofMayors2019;NAZCA,2,49.87267,2.313818,177345,NA,Hauts-de-France,Amiens
Amman,JOR,City,Jordan,Middle East and North Africa,1680,CDPCities2018;Carbonn2019;C40Cities2019;GlobalCovenantofMayors2019;NAZCA,5,31.9454,35.9284,3800000,2017,Amman Governorate,
Ampelokipi - Menemeni,GRC,City,Greece,Europe,8.82,EUCovenantofMayors2019;GlobalCovenantofMayors2019;NAZCA,3,40.65,22.91666667,52127,2011,Central Macedonia,Ampelokipoi-Menemeni
Amposta,ESP,City,Spain,Europe,138.3,EUCovenantofMayors2019;GlobalCovenantofMayors2019;NAZCA,3,40.71055556,0.580833333,21197,2018,Tarragona,Montsià
Ampuero,ESP,City,Spain,Europe,32.34,GlobalCovenantofMayors2019;NAZCA,2,43.3440563,-3.4151481,4228,2018,Cantabria,Asón valley
Amsterdam,NLD,City,Netherlands,Europe,219.32,C40Cities2019;EUCovenantofMayors2019;GlobalCovenantofMayors2019;NAZCA,4,52.36666667,4.9,731289,2015,North Holland,
Amurrio,ESP,City,Spain,Europe,96.36,Carbonn2019;GlobalCovenantofMayors2019;EUCovenantofMayors2019;NAZCA,4,43.05277778,-3.001388889,10260,2018,Alava,Aiaraldea
Amuwo-Odofin,NGA,City,Nigeria,Sub-Saharan Africa,179,Carbonn2019,1,6.45,3.266666667,386060,NA,Lagos State,Lagos
Amynteo,GRC,City,Greece,Europe,589.4,EUCovenantofMayors2019;GlobalCovenantofMayors2019;NAZCA,3,40.683333,21.683333,16973,NA,West Macedonia,
Anacapri,ITA,City,Italy,Europe,6.47,EUCovenantofMayors2019;GlobalCovenantofMayors2019;NAZCA,3,40.55,14.21666667,6684,NA,Naples,
Anadia,PRT,City,Portugal,Europe,216.63,EUCovenantofMayors2019;GlobalCovenantofMayors2019;NAZCA,3,40,-8,29150,NA,Centro,Aveiro
Ancarano,ITA,City,Italy,Europe,13.92,GlobalCovenantofMayors2019;EUCovenantofMayors2019;NAZCA,3,42.836048,13.739392,1921,NA,Province of Teramo,Teramo
"Anchorage, AK",USA,City,United States of America,North America,204.091212,GlobalCovenantofMayors2019;ClimateMayors;WeAreStillIn2019;WeAreStillIn2019;CDPCities2018;NAZCA,5,61.2163129,-149.8948522,301010,2010,Alaska,
Ancona,ITA,City,Italy,Europe,124.84,GlobalCovenantofMayors2019;Carbonn2019;EUCovenantofMayors2019;NAZCA,4,43.6170137,13.5170982,100507,NA,NA,
Andalo,ITA,City,Italy,Europe,11.38,EUCovenantofMayors2019;GlobalCovenantofMayors2019;NAZCA,3,46.16666667,11.00444444,1042,NA,Trento,Trentino
Andalusia,ESP,Region,Spain,Europe,NA,Under2Coalition2019;CompactofStatesRegions2018;NAZCA,3,37.38333333,-5.983333333,8394426,2014,NA,
"Anderson, SC",USA,City,United States of America,North America,37.813854,ClimateMayors;WeAreStillIn2019;WeAreStillIn2019,2,34.514444,-82.648889,27181,NA,South Carolina,"Anderson County, SC"
Andilla,ESP,City,Spain,Europe,142.8,GlobalCovenantofMayors2019;NAZCA,2,39.8357785,-0.8143659,400,2018,Valencia,Los Serranos
Andora,ITA,City,Italy,Europe,31.8,GlobalCovenantofMayors2019;EUCovenantofMayors2019;NAZCA,3,43.9519286,8.1456487,6767,NA,Savona,
Andrano,ITA,City,Italy,Europe,15.71,EUCovenantofMayors2019;GlobalCovenantofMayors2019;NAZCA,3,39.98333333,18.38333333,30997,2017,Lecce,
Andratx,ESP,City,Spain,Europe,81.46,EUCovenantofMayors2019;GlobalCovenantofMayors2019;NAZCA,3,39.57083333,2.421388889,12149,2018,Baleares,NA
Andravida - Killini,GRC,City,Greece,Europe,355.5,GlobalCovenantofMayors2019;NAZCA,2,37.968307,21.26082,26333,2011,West Greece,Andravida-Kyllini
Andretta,ITA,City,Italy,Europe,43.65,GlobalCovenantofMayors2019;NAZCA,2,40.940363,15.327022,2089,NA,Avellino,
Andria,ITA,City,Italy,Europe,402.89,GlobalCovenantofMayors2019;EUCovenantofMayors2019;NAZCA,3,41.227674,16.2947553,100217,NA,Barletta-Andria-Trani - Andria - Trani,Barletta-Andria-Trani
Andrieseni,ROU,City,Romania,Europe,NA,GlobalCovenantofMayors2019;NAZCA,2,47.52795,27.285696,4420,2002,Ia<U+0219>i County,
Andújar,ESP,City,Spain,Europe,9649,EUCovenantofMayors2019;GlobalCovenantofMayors2019;NAZCA,3,38.03333333,-4.05,38769,2018,Jaén,Campiña de Jaén
Aneby,SWE,City,Sweden,Europe,3.37,GlobalCovenantofMayors2019;NAZCA,2,57.838521,14.817802,6776,2010,Småland,NA
Aného,TGO,City,Togo,Sub-Saharan Africa,NA,GlobalCovenantofMayors2019;NAZCA,2,6.24081,1.63335,25000,NA,Maritime,
Anela,ITA,City,Italy,Europe,36.89,GlobalCovenantofMayors2019;EUCovenantofMayors2019;NAZCA,3,40.44176,9.057427,699,NA,Sassari,
Anenii Noi,MDA,City,Moldova,Eastern Europe and Central Asia,NA,GlobalCovenantofMayors2019;EUCovenantofMayors2019;NAZCA,3,46.8808554,29.2227797,13856,2014,Anenii Noi District,NA
Anento,ESP,City,Spain,Europe,21,EUCovenantofMayors2019;GlobalCovenantofMayors2019;NAZCA,3,41.06666667,-1.333333333,133,2018,Aragon,NA
Anfo,ITA,City,Italy,Europe,23.83,EUCovenantofMayors2019;GlobalCovenantofMayors2019;NAZCA,3,45.76527778,10.49444444,434,NA,Lombardy,Brescia
Angeles City,PHL,City,Philippines,East Asia and the Pacific,60.27,GlobalCovenantofMayors2019;Carbonn2019;NAZCA,3,15.12611,120.59302,470282,NA,Pampanga,
Ängelholm,SWE,City,Sweden,Europe,12.83,Carbonn2019,1,56.25,12.85,39612,2017,Skåne,NA
Angera,ITA,City,Italy,Europe,17.72,GlobalCovenantofMayors2019;EUCovenantofMayors2019;NAZCA,3,45.7721876,8.5751222,5694,NA,Varese,
Angers Loire Métropole,FRA,City,France,Europe,NA,GlobalCovenantofMayors2019;EUCovenantofMayors2019;NAZCA,3,47.4739884,-0.5515587,283000,NA,Pays de la Loire,Angers
Angiari,ITA,City,Italy,Europe,13.47,EUCovenantofMayors2019;GlobalCovenantofMayors2019;NAZCA,3,45.21666667,11.28333333,2204,NA,Verona,
Anglès,ESP,City,Spain,Europe,16.3,EUCovenantofMayors2019;GlobalCovenantofMayors2019;NAZCA,3,41.95,2.65,5500,2018,Girona,Selva
Angolo Terme,ITA,City,Italy,Europe,30.56,GlobalCovenantofMayors2019;NAZCA,2,45.8910363,10.1460986,2459,NA,Brescia,
Angossas,CMR,City,Cameroon,Sub-Saharan Africa,NA,GlobalCovenantofMayors2019;NAZCA,2,4.0756573,12.9885553,13605,NA,East Region,Cameroon
Angra dos Reis,BRA,City,Brazil,Latin America and Caribbean,816.3,CDPCities2018,1,-22.9983,-44.2442,169.511,2010,Rio de Janeiro (State),Rio de Janeiro
Angri,ITA,City,Italy,Europe,13.77,GlobalCovenantofMayors2019;EUCovenantofMayors2019;NAZCA,3,40.74271,14.571439,32675,NA,Salerno,
Anguillara Sabazia,ITA,City,Italy,Europe,75.24,GlobalCovenantofMayors2019;EUCovenantofMayors2019;NAZCA,3,42.08752,12.27667,18256,NA,Rome,
Anguillara Veneta,ITA,City,Italy,Europe,21.67,GlobalCovenantofMayors2019;EUCovenantofMayors2019;NAZCA,3,45.1393548,11.8877456,4512,NA,Padua,
Aniene Green Net,ITA,City,Italy,Europe,NA,EUCovenantofMayors2019;GlobalCovenantofMayors2019,2,41.9589747,12.5660007,12140,NA,Lazio,
"Ann Arbor, MI",USA,City,United States of America,North America,74.33,Carbonn2019;GlobalCovenantofMayors2019;CDPCities2018;ClimateMayors;WeAreStillIn2019;WeAreStillIn2019;NAZCA,6,42.28138889,-83.74833333,1177700,2017,Michigan,"Washtenaw County, MI"
Anna,ESP,City,Spain,Europe,18.6738279,GlobalCovenantofMayors2019;NAZCA,2,39.0204311,-0.646136,2655,2010,Valencia,Canal de Navarrés
Annecy,FRA,City,France,Europe,NA,GlobalCovenantofMayors2019;EUCovenantofMayors2019;NAZCA,3,45.88975045,6.1354651,51119,NA,Haute-Savoie,NA
Annemasse Les Voirons,FRA,City,France,Europe,73.69,GlobalCovenantofMayors2019;NAZCA,2,46.21444,6.353056,29540,2014,Auvergne-Rhône-Alpes,Annemasse
Annicco,ITA,City,Italy,Europe,19.2,GlobalCovenantofMayors2019;EUCovenantofMayors2019;NAZCA,3,45.244572,9.879466,2097,NA,Cremona,
Annone di Brianza,ITA,City,Italy,Europe,5.98,EUCovenantofMayors2019;GlobalCovenantofMayors2019;NAZCA,3,45.78333333,9.333333333,2296,NA,Lecco,
Annone Veneto,ITA,City,Italy,Europe,25.94,GlobalCovenantofMayors2019;EUCovenantofMayors2019;NAZCA,3,45.79551,12.68422,3984,NA,Venice,
Anogia,GRC,City,Greece,Europe,102.6,GlobalCovenantofMayors2019;EUCovenantofMayors2019;NAZCA,3,35.2907782,24.8824614,2507,2011,Crete,Rethymno
Añon De Moncayo,ESP,City,Spain,Europe,64.33,GlobalCovenantofMayors2019;EUCovenantofMayors2019;NAZCA,3,41.778589,-1.7210175,208,2018,Aragon,Tarazona y el Moncayo
Ans,BEL,City,Belgium,Europe,23.35,GlobalCovenantofMayors2019;EUCovenantofMayors2019;NAZCA,3,50.6624326,5.5190612,28131,NA,Liège,Liège
Ansan,KOR,City,South Korea,East Asia and the Pacific,149.39,Carbonn2019;GlobalCovenantofMayors2019;NAZCA,3,37.31666667,126.8333333,693546,2018,Gyeonggi-do,Sudogwon
Antalya,TUR,City,Turkey,Eastern Europe and Central Asia,1417,GlobalCovenantofMayors2019;EUCovenantofMayors2019;NAZCA,3,36.9008783,30.6937117,2043432,2014,NA,
Antas de Almería,ESP,City,Spain,Europe,NA,GlobalCovenantofMayors2019;EUCovenantofMayors2019;NAZCA,3,37.245218,-1.918142,3223,NA,Almería,
Antella,ESP,City,Spain,Europe,17.6,GlobalCovenantofMayors2019;NAZCA,2,39.080713,-0.5909713,1343,2018,Valencia,Ribera Alta
Antequera,ESP,City,Spain,Europe,749.34,GlobalCovenantofMayors2019;EUCovenantofMayors2019;NAZCA,3,37.0183652,-4.5596648,44032,2018,Málaga,NA
Anthisnes,BEL,City,Belgium,Europe,37.08,GlobalCovenantofMayors2019;NAZCA,2,50.481662,5.5225261,4119,NA,Liège,Huy
Antillo,ITA,City,Italy,Europe,43.64,GlobalCovenantofMayors2019;EUCovenantofMayors2019;NAZCA,3,37.977262,15.244786,992,NA,Messina,
"Antioch, CA",USA,City,United States of America,North America,75.32,Carbonn2019,1,38.005,-121.8058333,108930,2010,California,"Contra Costa County, CA"
Antoing,BEL,City,Belgium,Europe,31.13,GlobalCovenantofMayors2019;NAZCA,2,50.56727,3.451391,7813,NA,Hainaut,Tournai
Antonesti,MDA,City,Moldova,Eastern Europe and Central Asia,NA,GlobalCovenantofMayors2019;NAZCA,2,46.335302,28.216647,1042,2014,Cantemir District,Cantemir
Antrona Schieranco,ITA,City,Italy,Europe,100.18,EUCovenantofMayors2019;GlobalCovenantofMayors2019;NAZCA,3,46.06666667,8.116666667,465,NA,Verbano-Cusio-Ossola,
Antwerp,BEL,City,Belgium,Europe,204.51,Carbonn2019;EUCovenantofMayors2019;GlobalCovenantofMayors2019;NAZCA,4,51.21777778,4.400277778,502604,NA,Antwerp Province,NA
Antwerp Province,BEL,Region,Belgium,Europe,2867,GlobalCovenantofMayors2019,1,51.2211097,4.3997081,1809412,NA,NA,
Anversa degli Abruzzi,ITA,City,Italy,Europe,32.43,GlobalCovenantofMayors2019;EUCovenantofMayors2019;NAZCA,3,41.9940179,13.8040518,368,NA,Province of L'Aquila,L'Aquila
Anyang,KOR,City,South Korea,East Asia and the Pacific,58.46,Carbonn2019,1,37.38333333,126.9333333,614687,2016,Gyeonggi-do,Sudogwon
Anykšciai,LTU,City,Lithuania,Europe,NA,EUCovenantofMayors2019;GlobalCovenantofMayors2019;NAZCA,3,55.53333333,25.1,32137,2011,Utena County,NA
Anzi,ITA,City,Italy,Europe,43.65,GlobalCovenantofMayors2019;EUCovenantofMayors2019;NAZCA,3,40.516615,15.924571,1811,NA,Basilicata,Potenza
Anzola dell'Emilia,ITA,City,Italy,Europe,36.6,GlobalCovenantofMayors2019;EUCovenantofMayors2019;NAZCA,3,44.546367,11.194608,11992,NA,Bologna,
Aomori,JPN,City,Japan,East Asia and the Pacific,825,Carbonn2019,1,40.82233333,140.7307222,298866,2017,Aomori Prefecture,Sannohe
Aomori Prefecture,JPN,Region,Japan,East Asia and the Pacific,9606.26,Carbonn2019,1,40.82466667,140.7406389,1373164,NA,NA,
"Apalachicola, FL",USA,City,United States of America,North America,4.9986807,WeAreStillIn2019;ClimateMayors;WeAreStillIn2019,2,29.72527778,-84.9925,2276,2010,Florida,"Franklin County, FL"
Aparan,ARM,City,Armenia,Eastern Europe and Central Asia,3.5,EUCovenantofMayors2019;GlobalCovenantofMayors2019;NAZCA,3,40.58911389,44.35721389,6500,NA,Aragatsotn,
Aparecida,BRA,City,Brazil,Latin America and Caribbean,121.08,CDPCities2018;GlobalCovenantofMayors2019;NAZCA,3,-20.7,-41.6667,36279,2017,São Paulo State,
Aparecida de Goiânia,BRA,City,Brazil,Latin America and Caribbean,290.1,Carbonn2019;GlobalCovenantofMayors2019;CDPCities2018;NAZCA,4,-16.82277778,-49.22555556,521910,2018,Goiás,
Apaseo el Grande,MEX,City,Mexico,Latin America and Caribbean,415.26,GlobalCovenantofMayors2019;NAZCA,2,20.5455014,-100.6878411,92605,NA,Guanajuato,
Apeldoorn,NLD,City,Netherlands,Europe,341.15,GlobalCovenantofMayors2019;NAZCA,2,52.211157,5.969923,155730,NA,Gelderland,
Apokoronou,GRC,City,Greece,Europe,315.5,GlobalCovenantofMayors2019;EUCovenantofMayors2019;NAZCA,3,35.383333,24.2,12807,NA,Crete,Chania
Apollosa,ITA,City,Italy,Europe,21.12,GlobalCovenantofMayors2019;NAZCA,2,41.092183,14.700951,2725,NA,Benevento,
"Apopka, FL",USA,City,United States of America,North America,86.6610654,GlobalCovenantofMayors2019;NAZCA,2,28.7414145,-81.5344293,47084,2010,Florida,"Orange County, FL"
Appignano,ITA,City,Italy,Europe,22.67,EUCovenantofMayors2019;GlobalCovenantofMayors2019;NAZCA,3,43.4,13.2,4212,NA,Macerata,
Aprica,ITA,City,Italy,Europe,20.37,GlobalCovenantofMayors2019;EUCovenantofMayors2019;NAZCA,3,46.152697,10.151656,1576,NA,Sondrio,
Apricale,ITA,City,Italy,Europe,19.94,EUCovenantofMayors2019;GlobalCovenantofMayors2019;NAZCA,3,43.88333333,7.666666667,625,NA,Imperia,
Aprigliano,ITA,City,Italy,Europe,122.43,EUCovenantofMayors2019;GlobalCovenantofMayors2019;NAZCA,3,39.23333333,16.35,2714,NA,Cosenza,
Aprilia,ITA,City,Italy,Europe,178.11,EUCovenantofMayors2019;GlobalCovenantofMayors2019;NAZCA,3,41.58333333,12.65,70349,NA,Latina,
Aqaba Special Economic Zone Authority,JOR,City,Jordan,Middle East and North Africa,NA,EUCovenantofMayors2019;NAZCA,2,29,35,118000,2005,Aqaba Qasabah District,
Aquila,MEX,City,Mexico,Latin America and Caribbean,NA,GlobalCovenantofMayors2019;NAZCA,2,18.79577,-97.30922,1924,NA,Veracruz,
Aquitaine,FRA,Region,France,Europe,41308,Under2Coalition2019,1,44.58333333,0,3300000,2009,NA,
Aracaju,BRA,City,Brazil,Latin America and Caribbean,1167.4,CDPCities2018;GlobalCovenantofMayors2019;Carbonn2019;NAZCA,4,-10.9472,-37.0731,641523,2016,São Paulo State,Sergipe
Araçatuba,BRA,City,Brazil,Latin America and Caribbean,1167.4,CDPCities2018;NAZCA,2,-21.2089,-50.4328,194.874,2017,São Paulo State,São Paulo
Aracena,ESP,City,Spain,Europe,184,EUCovenantofMayors2019;GlobalCovenantofMayors2019;NAZCA,3,37.89111111,-6.561111111,7612,2018,Huelva,Sierra de Huelva
Arad,ROU,City,Romania,Europe,46.18,EUCovenantofMayors2019;GlobalCovenantofMayors2019;NAZCA,3,46.16666667,21.31666667,172827,NA,NA,
Aradeo,ITA,City,Italy,Europe,8.58,EUCovenantofMayors2019;GlobalCovenantofMayors2019;NAZCA,3,40.13333333,18.13333333,9827,NA,Lecce,
Aradippou,CYP,City,Cyprus,Europe,NA,GlobalCovenantofMayors2019;EUCovenantofMayors2019;NAZCA,3,34.9527866,33.5899733,19594,2011,Larnaka District,Larnaca
Aragona,ITA,City,Italy,Europe,74.7,GlobalCovenantofMayors2019;NAZCA,2,37.4031776,13.6175534,9493,NA,Agrigento,
Arahal,ESP,City,Spain,Europe,201.09,EUCovenantofMayors2019;GlobalCovenantofMayors2019;NAZCA,3,37.25,-5.533333333,19585,2018,Seville,La Campiña
Arandas,MEX,City,Mexico,Latin America and Caribbean,NA,GlobalCovenantofMayors2019;NAZCA,2,20.70549,-102.345154,77116,2005,Jalisco,Los Altos
Aranjuez,ESP,City,Spain,Europe,201.11,GlobalCovenantofMayors2019;EUCovenantofMayors2019;NAZCA,3,40.0322347,-3.6039678,58000,2018,Madrid,of Madrid
Araraquara,BRA,City,Brazil,Latin America and Caribbean,1004,CDPCities2018,1,-21.7946,-48.1766,230.77,2017,São Paulo State,São Paulo
Ararat,ARM,City,Armenia,Eastern Europe and Central Asia,NA,Under2Coalition2019,1,40.03333333,44.33333333,260367,NA,NA,
Aras De Los Olmos,ESP,City,Spain,Europe,76,GlobalCovenantofMayors2019;NAZCA,2,39.9242294,-1.1332321,386,2018,Valencia,Los Serranos
Arba Minch,ETH,City,Ethiopia,Sub-Saharan Africa,NA,GlobalCovenantofMayors2019;NAZCA,2,6.020605,37.564109,140000,2017,"Southern Nations, Nationalities, and Peoples",Ethiopia
Arboleas,ESP,City,Spain,Europe,65,EUCovenantofMayors2019;GlobalCovenantofMayors2019;NAZCA,3,37.35,-2.066666667,3904,2018,Almería,
Arbolí,ESP,City,Spain,Europe,20.8,GlobalCovenantofMayors2019;EUCovenantofMayors2019;NAZCA,3,41.2425941,0.9487676,110,2018,Tarragona,Baix Camp
Arbúcies,ESP,City,Spain,Europe,86.2,GlobalCovenantofMayors2019;EUCovenantofMayors2019;NAZCA,3,41.8160485,2.5140573,6713,2018,Girona,Selva
Arbus,ITA,City,Italy,Europe,269.12,GlobalCovenantofMayors2019;NAZCA,2,39.525839,8.597831,6387,NA,South Sardinia,
"Arcata, CA",USA,City,United States of America,North America,24.2682063,WeAreStillIn2019;ClimateMayors;WeAreStillIn2019,2,40.86638889,-124.0827778,17974,2010,California,"Humboldt County, CA"
Arcene,ITA,City,Italy,Europe,4.35,EUCovenantofMayors2019;GlobalCovenantofMayors2019;NAZCA,3,45.58333333,9.616666667,4767,NA,Bergamo,
Archena,ESP,City,Spain,Europe,16.4,GlobalCovenantofMayors2019;NAZCA,2,38.116774,-1.301143,19500,2018,Murcia,Vega Media del Segura
Árchez,ESP,City,Spain,Europe,4.8,EUCovenantofMayors2019;GlobalCovenantofMayors2019;NAZCA,3,36.83888889,-3.990555556,437,2018,Málaga,Axarquía
Archi,ITA,City,Italy,Europe,NA,GlobalCovenantofMayors2019;EUCovenantofMayors2019;NAZCA,3,42.089937,14.381217,2310,NA,Abruzzo,Chieti
Archidona,ESP,City,Spain,Europe,185.59,GlobalCovenantofMayors2019;EUCovenantofMayors2019;NAZCA,3,37.0949676,-4.3909773,8500,2018,Málaga,Comarca of Antequera
Archipiélago de San Andrés,COL,City,Colombia,Latin America and Caribbean,NA,CDPCities2018,1,12.5794,-81.6976,120000,2017,NA,
Arco,ITA,City,Italy,Europe,NA,EUCovenantofMayors2019;GlobalCovenantofMayors2019;NAZCA,3,12.99,79.31388889,17322,2011,Trento,
Arcola,ITA,City,Italy,Europe,5.17998,GlobalCovenantofMayors2019;EUCovenantofMayors2019;NAZCA,3,44.1143821,9.9059673,9914,2010,La Spezia,
Arcole,ITA,City,Italy,Europe,18.87,GlobalCovenantofMayors2019;NAZCA,2,45.357317,11.28472,6263,NA,Verona,
Arconate,ITA,City,Italy,Europe,8.42,GlobalCovenantofMayors2019;EUCovenantofMayors2019;NAZCA,3,45.54197,8.848538,6679,NA,Lombardy,Milan
Arcore,ITA,City,Italy,Europe,9.25,EUCovenantofMayors2019;GlobalCovenantofMayors2019;NAZCA,3,45.63333333,9.316666667,17838,NA,Monza Brianza,Monza and Brianza
Arcos de la Frontera,ESP,City,Spain,Europe,527.54,EUCovenantofMayors2019;GlobalCovenantofMayors2019;NAZCA,3,36.75,-5.8,29905,2018,Cádiz,NA
Arcos de Valdevez,PRT,City,Portugal,Europe,447.6,GlobalCovenantofMayors2019;EUCovenantofMayors2019;NAZCA,3,41.8471981,-8.4178819,22586,2011,Norte,Viana do Castelo
Arcugnano,ITA,City,Italy,Europe,41.57,GlobalCovenantofMayors2019;NAZCA,2,45.500612,11.535509,7024,NA,Vicenza,
Ardales,ESP,City,Spain,Europe,106,GlobalCovenantofMayors2019;EUCovenantofMayors2019;NAZCA,3,36.878757,-4.8464639,2600,2018,Asturias,Málaga
Ardara,ITA,City,Italy,Europe,38.19,EUCovenantofMayors2019;GlobalCovenantofMayors2019;NAZCA,3,40.62277778,8.811388889,810,NA,Sassari,
Ardeh,LBN,City,Lebanon,Middle East and North Africa,NA,GlobalCovenantofMayors2019;NAZCA,2,34.4113373,35.919918,5000,NA,Zgharta District,Zgharta
"Arden, DE",USA,City,United States of America,North America,NA,WeAreStillIn2019,1,39.80916667,-75.48666667,448,NA,Delaware,"New Castle County, DE"
Ardesio,ITA,City,Italy,Europe,54.44,GlobalCovenantofMayors2019;NAZCA,2,45.9382,9.931005,1225,NA,Bergamo,
Ardisa,ESP,City,Spain,Europe,27,EUCovenantofMayors2019;GlobalCovenantofMayors2019;NAZCA,3,42.33305556,-1.266944444,85,2018,Aragon,Zaragoza
"Ardsley, NY",USA,City,United States of America,North America,3.366987,ClimateMayors,1,41.011389,-73.841389,4634,2010,New York State,"Westchester County, NY"
Area Adige Delta Po,ITA,City,Italy,Europe,NA,GlobalCovenantofMayors2019;EUCovenantofMayors2019,2,45.4708684,11.4963819,33013,NA,Venice,
Area Alto Polesine,ITA,City,Italy,Europe,1789,GlobalCovenantofMayors2019;EUCovenantofMayors2019,2,45.0827517,11.5689043,247164,NA,Venice,
Area Rovigo Centrale,ITA,City,Italy,Europe,NA,EUCovenantofMayors2019;GlobalCovenantofMayors2019,2,45.067567,11.78711,59383,NA,Venice,Padua
Area San Pietro Di Feletto - Pieve Di Soligo - Refrontolo,ITA,City,Italy,Europe,NA,EUCovenantofMayors2019;GlobalCovenantofMayors2019,2,45.9041427,12.1185964,19257,NA,Venice,Treviso
Areatza,ESP,City,Spain,Europe,9.1,EUCovenantofMayors2019;Carbonn2019;GlobalCovenantofMayors2019;NAZCA,4,43.12083333,-2.769444444,1036,2018,Biscay,Arratia-Nerbioi
Arenales De San Gregorio,ESP,City,Spain,Europe,31.19,EUCovenantofMayors2019;GlobalCovenantofMayors2019;NAZCA,3,39.30972222,-3.025555556,703,2018,Ciudad Real,Mancha Alta
Arenas,ESP,City,Spain,Europe,26.3,EUCovenantofMayors2019;GlobalCovenantofMayors2019;NAZCA,3,36.81583333,-4.044722222,1411,2018,Cantabria,La Axarquía
Arenas del Rey,ESP,City,Spain,Europe,116,EUCovenantofMayors2019;GlobalCovenantofMayors2019;NAZCA,3,36.95777778,-3.899722222,2202,2018,Granada,Comarca de Alhama
Arendal,NOR,City,Norway,Europe,30.86,CDPCities2018;Carbonn2019;GlobalCovenantofMayors2019;NAZCA,4,58.4618,8.77245,44630,2017,Aust-Agder,NA
Arendonk,BEL,City,Belgium,Europe,55.38,GlobalCovenantofMayors2019;EUCovenantofMayors2019;NAZCA,3,51.3202315,5.0864557,12894,NA,Antwerp Province,Turnhout
Arenys de Mar,ESP,City,Spain,Europe,6.8,GlobalCovenantofMayors2019;EUCovenantofMayors2019;NAZCA,3,41.5797031,2.5491562,14685,2018,Barcelona Province,Maresme
Arenys de Munt,ESP,City,Spain,Europe,21.3,GlobalCovenantofMayors2019;EUCovenantofMayors2019;NAZCA,3,41.6095429,2.5400513,8192,2018,Barcelona Province,Maresme
Arenzano,ITA,City,Italy,Europe,24.3,GlobalCovenantofMayors2019;EUCovenantofMayors2019;NAZCA,3,44.4025183,8.6831317,11431,NA,Genoa,
Arequipa,PER,City,Peru,Latin America and Caribbean,2923.53,Carbonn2019;CDPCities2018,2,-16.38333333,-71.53333333,784651,2015,NA,
Arese,ITA,City,Italy,Europe,6.56,EUCovenantofMayors2019;GlobalCovenantofMayors2019;NAZCA,3,45.55,9.066666667,19056,NA,Lombardy,Milan
Arezzo,ITA,City,Italy,Europe,384.7,GlobalCovenantofMayors2019;EUCovenantofMayors2019;NAZCA,3,43.4640246,11.86046188,99434,NA,NA,
Arganda Del Rey,ESP,City,Spain,Europe,79.65,GlobalCovenantofMayors2019;NAZCA,2,40.3007708,-3.4380687,56000,2018,Madrid,of Madrid
Argelaguer,ESP,City,Spain,Europe,0.1256,GlobalCovenantofMayors2019;EUCovenantofMayors2019;NAZCA,3,42.2161,2.641572,430,2018,Girona,Garrotxa
Argençola,ESP,City,Spain,Europe,47.1,EUCovenantofMayors2019;GlobalCovenantofMayors2019;NAZCA,3,41.59833333,1.443611111,250,2018,Barcelona Province,Anoia
Argentona,ESP,City,Spain,Europe,25.4,GlobalCovenantofMayors2019;EUCovenantofMayors2019;NAZCA,3,41.5554326,2.4002787,11944,2018,Barcelona Province,Maresme
Argithea,GRC,City,Greece,Europe,372.9,GlobalCovenantofMayors2019;NAZCA,2,39.355207,21.538589,6084,2011,Thessaly,Karditsa
Argos-Mykines,GRC,City,Greece,Europe,1002.5,EUCovenantofMayors2019;GlobalCovenantofMayors2019;NAZCA,3,37.61666667,22.71666667,42022,2011,Peloponnese,Argolis
Argos Orestiko,GRC,City,Greece,Europe,NA,GlobalCovenantofMayors2019;NAZCA,2,40.4531538,21.2598868,11802,2011,West Macedonia,Orestida
Ari,ITA,City,Italy,Europe,NA,GlobalCovenantofMayors2019;EUCovenantofMayors2019;NAZCA,3,42.29234,14.263011,1319,NA,Chieti Province,Chieti
Ariano Irpino,ITA,City,Italy,Europe,186.74,GlobalCovenantofMayors2019;NAZCA,2,41.154893,15.092276,22517,NA,Avellino,
Ariany,ESP,City,Spain,Europe,23.1286107,GlobalCovenantofMayors2019;NAZCA,2,39.650895,3.112115,872,2018,Baleares,Pla de Mallorca
Arias,ARG,City,Argentina,Latin America and Caribbean,NA,GlobalCovenantofMayors2019;Carbonn2019;NAZCA,3,-33.6422087,-62.4038412,7075,NA,Córdoba,
Ariccia,ITA,City,Italy,Europe,18.59,GlobalCovenantofMayors2019;EUCovenantofMayors2019;NAZCA,3,41.720709,12.6713481,18381,NA,Rome,
Arielli,ITA,City,Italy,Europe,11.72,EUCovenantofMayors2019;GlobalCovenantofMayors2019;NAZCA,3,42.26666667,14.3,1250,NA,Chieti Province,Chieti
Aristotle,GRC,City,Greece,Europe,NA,GlobalCovenantofMayors2019;NAZCA,2,40.470394,23.715681,18861,NA,Central Macedonia,
Aritzo,ITA,City,Italy,Europe,75.58,EUCovenantofMayors2019;GlobalCovenantofMayors2019;NAZCA,3,39.95,9.2,1331,NA,Nuoro,
Arizona,USA,Region,United States of America,North America,NA,ClimateAlliance2019,1,34,-112,7016270,2017,NA,
Arizzano,ITA,City,Italy,Europe,1.6,EUCovenantofMayors2019;GlobalCovenantofMayors2019;NAZCA,3,45.96666667,8.583333333,2080,NA,Verbano-Cusio-Ossola,
Arjeplogs,SWE,City,Sweden,Europe,2.29,EUCovenantofMayors2019;GlobalCovenantofMayors2019;NAZCA,3,66.05,17.88333333,3069,2010,Norrbotten County,Lapland
Arjona,ESP,City,Spain,Europe,154.45,EUCovenantofMayors2019;GlobalCovenantofMayors2019;NAZCA,3,37.935,-4.056944444,5826,2018,Jaén,Campiña
Arjonilla,ESP,City,Spain,Europe,42,EUCovenantofMayors2019;GlobalCovenantofMayors2019;NAZCA,3,37.96666667,-4.1,3837,2018,Jaén,NA
"Arlington County, VA",USA,City,United States of America,North America,70,WeAreStillIn2019,1,38.880278,-77.108333,234965,NA,Virginia,NA
"Arlington, MA",USA,City,United States of America,North America,25.1747028,WeAreStillIn2019,1,48.18111111,-122.1388889,17926,NA,Massachusetts,"Middlesex County, MA"
"Arlington, VA",USA,City,United States of America,North America,2.7194895,GlobalCovenantofMayors2019;CDPCities2018;NAZCA,3,38.8903961,-77.0841584,220400,2010,Virginia,"Arlington County, VA"
Arlon,BEL,City,Belgium,Europe,118.64,GlobalCovenantofMayors2019;NAZCA,2,49.68514,5.81048,28259,NA,Luxembourg,NA
Arluno,ITA,City,Italy,Europe,12.36,GlobalCovenantofMayors2019;EUCovenantofMayors2019;NAZCA,3,45.50507,8.941541,9815,NA,Lombardy,Milan
Armamar,PRT,City,Portugal,Europe,117.24,EUCovenantofMayors2019;GlobalCovenantofMayors2019;NAZCA,3,41.10944444,-7.692222222,6258,2011,Norte,NA
Armenia,COL,City,Colombia,Latin America and Caribbean,140,Carbonn2019,1,40.18333333,44.51666667,296683,2016,Quindío,
Armeno,ITA,City,Italy,Europe,31.52,EUCovenantofMayors2019;GlobalCovenantofMayors2019;NAZCA,3,45.81666667,8.45,2226,NA,Novara,
Armilla,ESP,City,Spain,Europe,NA,EUCovenantofMayors2019;GlobalCovenantofMayors2019;NAZCA,3,37,-3,15404,NA,Granada,
Armstrong,ARG,City,Argentina,Latin America and Caribbean,NA,GlobalCovenantofMayors2019;Carbonn2019;NAZCA,3,-32.7862663,-61.6035038,11484,NA,Santa Fe,"Santa Fe, Argentina"
Armuña de Almanzora,ESP,City,Spain,Europe,8,GlobalCovenantofMayors2019;EUCovenantofMayors2019;NAZCA,3,37.3501535,-2.4151255,333,2018,Almería,Almanzora
Arnesano,ITA,City,Italy,Europe,13.56,EUCovenantofMayors2019;GlobalCovenantofMayors2019;NAZCA,3,40.33333333,18.1,3981,NA,Lecce,
Arnhem,NLD,City,Netherlands,Europe,101.54,GlobalCovenantofMayors2019;NAZCA,2,52.0056642,5.876234508,149271,NA,Gelderland,
Arnsberg,DEU,City,Germany,Europe,8002.34,GlobalCovenantofMayors2019;NAZCA,2,51.4002384,8.0605908,73501,2017,North Rhine-Westphalia,Hochsauerland
Arnuero,ESP,City,Spain,Europe,24.66,GlobalCovenantofMayors2019;NAZCA,2,43.4725591,-3.5664117,2107,2018,Cantabria,Trasmiera
Aroche,ESP,City,Spain,Europe,499,GlobalCovenantofMayors2019;EUCovenantofMayors2019;NAZCA,3,37.9436167,-6.9539588,3400,2018,Huelva,
Arosio,ITA,City,Italy,Europe,2.58,GlobalCovenantofMayors2019;EUCovenantofMayors2019;NAZCA,3,45.716977,9.208043,4964,NA,Como,
Arouca,PRT,City,Portugal,Europe,329.11,GlobalCovenantofMayors2019;NAZCA,2,40.932149,-8.245099,23874,2011,Centro,Aveiro
Arpaise,ITA,City,Italy,Europe,6.66,GlobalCovenantofMayors2019;NAZCA,2,41.021922000000004,14.74626,804,NA,Benevento,
Arqua' Petrarca,ITA,City,Italy,Europe,12.52,EUCovenantofMayors2019;GlobalCovenantofMayors2019;NAZCA,3,45.27,11.71833333,1856,NA,Venice,Padua
Arquà Polesine,ITA,City,Italy,Europe,19.93,GlobalCovenantofMayors2019;EUCovenantofMayors2019;NAZCA,3,45.0103882,11.7409408,2913,NA,Venice,Rovigo
Arquata Scrivia,ITA,City,Italy,Europe,29.24,GlobalCovenantofMayors2019;NAZCA,2,44.680976,8.899976,6412,NA,Alessandria,
Arquillos,ESP,City,Spain,Europe,65,GlobalCovenantofMayors2019;EUCovenantofMayors2019;NAZCA,3,38.1809503,-3.4270553,1967,2018,Jaén,NA
Arraiján,PAN,City,Panama,Latin America and Caribbean,65.5,GlobalCovenantofMayors2019;NAZCA,2,8.9422449,-79.6427274,220779,2010,NA,
Arre,ITA,City,Italy,Europe,NA,EUCovenantofMayors2019;GlobalCovenantofMayors2019;NAZCA,3,45.2163193,11.930495,2202,NA,Padua,
Arrondissement de Namur,BEL,City,Belgium,Europe,NA,EUCovenantofMayors2019;GlobalCovenantofMayors2019,2,50.4665284,4.8661892,109113,NA,Namur,
Arroyo de la Luz,ESP,City,Spain,Europe,12,GlobalCovenantofMayors2019;NAZCA,2,39.48387,-6.581008,6392,2018,Cáceres,NA
Arroyo de San Serván,ESP,City,Spain,Europe,50.1,GlobalCovenantofMayors2019;NAZCA,2,38.85397,-6.453007,4253,2018,Badajoz,Tierra de Mérida Vegas Bajas
Arroyo del Ojanco,ESP,City,Spain,Europe,61,EUCovenantofMayors2019;GlobalCovenantofMayors2019;NAZCA,3,38.31666667,-2.883333333,2490,2018,Jaén,NA
Arroyomolinos de León,ESP,City,Spain,Europe,87,EUCovenantofMayors2019;GlobalCovenantofMayors2019;NAZCA,3,38.01666667,-6.416666667,1040,2018,Huelva,
Arruda dos Vinhos,PRT,City,Portugal,Europe,77.96,EUCovenantofMayors2019;GlobalCovenantofMayors2019;NAZCA,3,38.98333333,-9.066666667,11210,2011,Lisbon,
Arsago Seprio,ITA,City,Italy,Europe,10.51,GlobalCovenantofMayors2019;EUCovenantofMayors2019;NAZCA,3,45.6881584,8.7314516,4888,NA,Varese,
Arsiè,ITA,City,Italy,Europe,64.76,EUCovenantofMayors2019;GlobalCovenantofMayors2019;NAZCA,3,45.98333333,11.75,2495,NA,Belluno,
Arsita,ITA,City,Italy,Europe,34.14,GlobalCovenantofMayors2019;NAZCA,2,42.502602,13.784568,961,NA,Province of Teramo,Teramo
Arta,GRC,City,Greece,Europe,457.2,GlobalCovenantofMayors2019;NAZCA,2,39.158242,20.987684,43166,2011,Epirus,NA
Artà,ESP,City,Spain,Europe,139.7817603,GlobalCovenantofMayors2019,1,39.6935671,3.3374074,5566,2018,Baleares,Llevant
Arteaga,ARG,City,Argentina,Latin America and Caribbean,277,GlobalCovenantofMayors2019;Carbonn2019;NAZCA,3,-33.0833,-61.8,3089,2000,Santa Fe,
Artegna,ITA,City,Italy,Europe,11.22,GlobalCovenantofMayors2019;EUCovenantofMayors2019;NAZCA,3,46.2390964,13.1556513,2884,NA,Udine,
Artemivsk (Bachmut),UKR,City,Ukraine,Eastern Europe and Central Asia,NA,GlobalCovenantofMayors2019;EUCovenantofMayors2019;NAZCA,3,48.60083235,37.99400032,80655,NA,Donetsk Oblast,
Artena,ITA,City,Italy,Europe,54.8,GlobalCovenantofMayors2019;NAZCA,2,41.741883,12.911841,14154,NA,Lazio,Rome
Artés,ESP,City,Spain,Europe,17.9,GlobalCovenantofMayors2019;EUCovenantofMayors2019;NAZCA,3,41.7986735,1.9548856,5433,2018,Barcelona Province,Bages
Artesa de Lleida,ESP,City,Spain,Europe,23.9,GlobalCovenantofMayors2019;NAZCA,2,41.553054,0.703374,1717,2018,Lleida,Segrià
Artesa de Segre,ESP,City,Spain,Europe,175.9,GlobalCovenantofMayors2019;NAZCA,2,41.89566,1.047242,3893,2018,Lleida,Noguera
Artik,ARM,City,Armenia,Eastern Europe and Central Asia,7,GlobalCovenantofMayors2019;EUCovenantofMayors2019;NAZCA,3,40.6198428,43.9707866,19500,NA,Shirak,
Artogne,ITA,City,Italy,Europe,21.02,EUCovenantofMayors2019;GlobalCovenantofMayors2019;NAZCA,3,45.85055556,10.16194444,3608,NA,Brescia,
Artsyz,UKR,City,Ukraine,Eastern Europe and Central Asia,119.13954,GlobalCovenantofMayors2019;NAZCA,2,45.99632,29.43169,14859,2015,Artsyz Raion,
Arucas,ESP,City,Spain,Europe,33.01,GlobalCovenantofMayors2019;NAZCA,2,28.120141,-15.521061,37299,2018,Las Palmas,Gran Canaria
Arvika,SWE,City,Sweden,Europe,10.62,EUCovenantofMayors2019;GlobalCovenantofMayors2019;NAZCA,3,59.65416667,12.59138889,26000,2010,Värmland,NA
"Arvin, CA",USA,City,United States of America,North America,12.4837518,WeAreStillIn2019;ClimateMayors,2,35.20916667,-118.8283333,21270,2010,California,"Kern County, CA"
Arzachena,ITA,City,Italy,Europe,230.85,GlobalCovenantofMayors2019;EUCovenantofMayors2019;NAZCA,3,41.079898,9.3876122,13149,NA,Sassari,
Arzago d’Adda,ITA,City,Italy,Europe,9.31,GlobalCovenantofMayors2019;EUCovenantofMayors2019;NAZCA,3,45.4815134,9.5616783,2811,NA,Lombardy,Bergamo
Arzana,ITA,City,Italy,Europe,162.49,EUCovenantofMayors2019;GlobalCovenantofMayors2019;NAZCA,3,39.91666667,9.533333333,2526,NA,Nuoro,
Arzano,ITA,City,Italy,Europe,4.71,GlobalCovenantofMayors2019;EUCovenantofMayors2019;NAZCA,3,40.914411,14.26713,38510,NA,Naples,
Arzergrande,ITA,City,Italy,Europe,13.64,GlobalCovenantofMayors2019;EUCovenantofMayors2019;NAZCA,3,45.2728605,12.053944,4725,NA,Padua,
Arzignano,ITA,City,Italy,Europe,34.19,GlobalCovenantofMayors2019;NAZCA,2,45.519292,11.338594,25844,NA,Vicenza,
As,BEL,City,Belgium,Europe,22.07,GlobalCovenantofMayors2019;EUCovenantofMayors2019;NAZCA,3,51.0005396,5.572202585,7785,NA,Limburg,Hasselt
Asahikawa,JPN,City,Japan,East Asia and the Pacific,748,Carbonn2019,1,43.76666667,142.3666667,349316,2011,Hokkaido Prefecture,Hokkaido
Asan,KOR,City,South Korea,East Asia and the Pacific,542.25,Carbonn2019,1,36.78333333,126.9833333,308007,NA,Chungcheong,Hoseo
Ascó,ESP,City,Spain,Europe,73.6,GlobalCovenantofMayors2019;EUCovenantofMayors2019;NAZCA,3,41.1805311,0.5679989,1602,2018,Tarragona,Ribera d'Ebre
Ascoli Piceno,ITA,City,Italy,Europe,158.02,GlobalCovenantofMayors2019;EUCovenantofMayors2019;NAZCA,3,42.8545996,13.5754669,51203,NA,NA,
Asenovgrad,BGR,City,Bulgaria,Europe,78012,EUCovenantofMayors2019;GlobalCovenantofMayors2019;NAZCA,3,42.01666667,24.86666667,59953,NA,Plovdiv,
"Asheboro, NC",USA,City,United States of America,North America,40,Carbonn2019,1,35.71527778,-79.81305556,25012,2010,North Carolina,"Randolph County, NC"
"Asheville, NC",USA,City,United States of America,North America,117.326547,CDPCities2018;ClimateMayors;Carbonn2019;WeAreStillIn2019;NAZCA,5,35.5951,-82.5515,89121,2016,North Carolina,"Buncombe County, NC"
"Ashland, OR",USA,City,United States of America,North America,NA,WeAreStillIn2019,1,42.19138889,-122.7008333,21117,NA,Oregon,"Jackson County, OR"
"Ashland, WI",USA,City,United States of America,North America,15.2032413,GlobalCovenantofMayors2019;NAZCA,2,46.592757400000004,-90.8839169,16103,2010,Wisconsin,"Ashland County, WI; Bayfield County, WI"
Ashtarak,ARM,City,Armenia,Eastern Europe and Central Asia,7.5,GlobalCovenantofMayors2019;NAZCA,2,40.2938979,44.3642351,21600,NA,Aragatsotn,
Asigliano Veneto,ITA,City,Italy,Europe,8.07,EUCovenantofMayors2019;GlobalCovenantofMayors2019;NAZCA,3,45.3,11.45,937,NA,Venice,Vicenza
Asin,ESP,City,Spain,Europe,90,EUCovenantofMayors2019;GlobalCovenantofMayors2019;NAZCA,3,57,86.13333333,110,NA,Zaragoza,
Askersund,SWE,City,Sweden,Europe,2,GlobalCovenantofMayors2019;NAZCA,2,58.8355002,14.92575511,11394,2010,Närke,NA
Ašmiany,BLR,City,Belarus,Eastern Europe and Central Asia,NA,GlobalCovenantofMayors2019;EUCovenantofMayors2019;NAZCA,3,54.4266578,25.9458953,31190,NA,Grodno Region,
Asola,ITA,City,Italy,Europe,73.48,GlobalCovenantofMayors2019;EUCovenantofMayors2019;NAZCA,3,45.221076,10.413579,10127,NA,Mantua,
Asolo,ITA,City,Italy,Europe,25.37,EUCovenantofMayors2019;GlobalCovenantofMayors2019;NAZCA,3,45.8,11.91666667,9311,NA,Treviso,
Aspa,ESP,City,Spain,Europe,NA,GlobalCovenantofMayors2019;NAZCA,2,41.4959831,0.6716572,216,NA,Lleida,Segrià
Aspe,ESP,City,Spain,Europe,69.79,GlobalCovenantofMayors2019;EUCovenantofMayors2019;NAZCA,3,38.3459902,-0.7692124,20309,2018,Alicante,Vinalopó Medio
"Aspen, CO",USA,City,United States of America,North America,10.0491612,WeAreStillIn2019;ClimateMayors;WeAreStillIn2019;Carbonn2019;GlobalCovenantofMayors2019;NAZCA,5,39.195,-106.8369444,8427,2010,Colorado,"Pitkin County, CO"
Aspropygos,GRC,City,Greece,Europe,101.98,GlobalCovenantofMayors2019;NAZCA,2,38.0613716,23.5913013,30000,2011,Attica,West Attica
Assago,ITA,City,Italy,Europe,8.05,EUCovenantofMayors2019;GlobalCovenantofMayors2019;NAZCA,3,45.4,9.133333333,8244,NA,Lombardy,Milan
Asse,BEL,City,Belgium,Europe,49.64,EUCovenantofMayors2019;GlobalCovenantofMayors2019;NAZCA,3,50.9,4.2,31748,NA,Flemish Brabant,Halle-Vilvoorde
Assembly of Regions of Cote d'Ivoire (ARDCI),CIV,Region,Cote d'Ivoire,Sub-Saharan Africa,NA,Under2Coalition2019,1,NA,NA,23740424,NA,NA,
Assemini,ITA,City,Italy,Europe,118.17,GlobalCovenantofMayors2019;NAZCA,2,39.21061,9.001842,26979,NA,Sardinia,Cagliari
Assis Brasil,BRA,City,Brazil,Latin America and Caribbean,2874.8889,GlobalCovenantofMayors2019;NAZCA,2,-10.9316252,-69.5587859,6795,2007,Acre,
Assisi,ITA,City,Italy,Europe,145.6325,GlobalCovenantofMayors2019;NAZCA,2,43.070702,12.619597,28415,NA,Perugia,
Asso,ITA,City,Italy,Europe,6.51,GlobalCovenantofMayors2019;EUCovenantofMayors2019;NAZCA,3,45.8606694,9.2697487,3652,NA,Como,
Associação Transfronteiriça do Lago Alqueva,PRT,City,Portugal,Europe,NA,GlobalCovenantofMayors2019,1,38.357588,-7.44108,74024,NA,Alentejo,
Association des Municipalités du Burkina Faso / Section du Centre-Est,BFA,City,Burkina Faso,Sub-Saharan Africa,NA,GlobalCovenantofMayors2019;NAZCA,2,11.524767,-0.149499,1515518,NA,Centre-Este,
Association Mauritanienne des Communes du Sud (AMCS),MRT,City,Mauritania,Sub-Saharan Africa,NA,GlobalCovenantofMayors2019;NAZCA,2,21.00789,-10.940835,220000,NA,Adrar,
Associazione Intercomunale Conca Tolmezzina,ITA,City,Italy,Europe,NA,GlobalCovenantofMayors2019;EUCovenantofMayors2019,2,46.0612941,13.2327677,13510,NA,Udine,
Associazione Intercomunale Terre Estensi,ITA,City,Italy,Europe,NA,EUCovenantofMayors2019;GlobalCovenantofMayors2019,2,44.836,11.6169,141673,NA,Emilia-Romagna,
Associazione Intercomunale Val Cosa e Val D’Arzino,ITA,City,Italy,Europe,NA,EUCovenantofMayors2019;GlobalCovenantofMayors2019,2,45.4749729,10.2862153,4533,2016,Friuli-Venezia Giulia,
Assolo,ITA,City,Italy,Europe,16.37,EUCovenantofMayors2019;GlobalCovenantofMayors2019;NAZCA,3,39.81666667,8.916666667,435,NA,Sardinia,Oristano
Assoro,ITA,City,Italy,Europe,112.15,EUCovenantofMayors2019;GlobalCovenantofMayors2019;NAZCA,3,37.63333333,14.41666667,5337,NA,Sardinia,Enna
Astana,KAZ,City,Kazakhstan,Eastern Europe and Central Asia,NA,GlobalCovenantofMayors2019;NAZCA,2,51.160523,71.470356,1029556,2017,NA,Kazakhstan
Asti,ITA,City,Italy,Europe,151.31,GlobalCovenantofMayors2019;NAZCA,2,44.900542,8.2068876,77061,NA,NA,
Asunción,PRY,City,Paraguay,Latin America and Caribbean,1014,GlobalCovenantofMayors2019;CDPCities2018;NAZCA,3,-25.2959915,-57.6311195,515587,2016,Capital District,Capital
Atajate,ESP,City,Spain,Europe,11,GlobalCovenantofMayors2019;EUCovenantofMayors2019;NAZCA,3,36.6399535,-5.245079,154,2018,Málaga,Serranía de Ronda
Atalaya,ESP,City,Spain,Europe,NA,GlobalCovenantofMayors2019;NAZCA,2,38.334724,-6.474989,318,NA,Badajoz,
Ataliva,ARG,City,Argentina,Latin America and Caribbean,NA,CDPCities2018,1,31,61,2500,2010,La Pampa,
Ateca,ESP,City,Spain,Europe,84,GlobalCovenantofMayors2019;EUCovenantofMayors2019;NAZCA,3,41.3308294,-1.7929077,2099,2018,Aragon,NA
Ateleta,ITA,City,Italy,Europe,41.93,GlobalCovenantofMayors2019;EUCovenantofMayors2019;NAZCA,3,41.85543,14.197516,1157,NA,Province of L'Aquila,L'Aquila
Atenguillo,MEX,City,Mexico,Latin America and Caribbean,662.55,GlobalCovenantofMayors2019;NAZCA,2,20.41998,-104.49931,4107,2005,Jalisco,
Atessa,ITA,City,Italy,Europe,110.98,EUCovenantofMayors2019;GlobalCovenantofMayors2019;NAZCA,3,42.06666667,14.45,10778,NA,Chieti Province,Chieti
Athens,GRC,City,Greece,Europe,38.964,GlobalCovenantofMayors2019;CDPCities2018;C40Cities2019;NAZCA,4,37.9841493,23.7279843,664046,2012,Attica,Central Athens
"Athens, OH",USA,City,United States of America,North America,25.4596017,ClimateMayors,1,39.329167,-82.096111,25341,2010,Ohio,"Athens County, OH"
"Atlanta, GA",USA,City,United States of America,North America,5084.15037,GlobalCovenantofMayors2019;ClimateMayors;WeAreStillIn2019;CDPCities2018;WeAreStillIn2019;Under2Coalition2019;Carbonn2019;NAZCA,7,33.7490987,-84.3901848,450182,2017,Georgia,"Fulton County, GA"
Atlatlahucan,MEX,City,Mexico,Latin America and Caribbean,71,Carbonn2019,1,18.9353236,-98.8997,14708,NA,Morelos,
Atotonilco de Tula,MEX,City,Mexico,Latin America and Caribbean,31,Carbonn2019,1,20.05,-99.18333333,31078,NA,Hidalgo,
Atrani,ITA,City,Italy,Europe,0.12,GlobalCovenantofMayors2019;NAZCA,2,40.635793,14.60862,965,NA,Salerno,
Atri,ITA,City,Italy,Europe,NA,GlobalCovenantofMayors2019;EUCovenantofMayors2019;NAZCA,3,42.5801368,13.9764121,11260,NA,Province of Teramo,Teramo
Ats Obiettivozero - Valle Degli Iblei,ITA,City,Italy,Europe,NA,GlobalCovenantofMayors2019;EUCovenantofMayors2019,2,37.09428,15.07984,24081,NA,,
Atsugi,JPN,City,Japan,East Asia and the Pacific,94,Carbonn2019,1,35.43333333,139.3666667,224462,NA,Kanagawa Prefecture,Aiko
Attert,BEL,City,Belgium,Europe,70.94,EUCovenantofMayors2019;GlobalCovenantofMayors2019;NAZCA,3,49.75,5.783333333,5191,NA,Luxembourg,Arlon
Attica,GRC,Region,Greece,Europe,3808.1,CompactofStatesRegions2018;Under2Coalition2019;NAZCA,3,38.045,23.746,3828434,2011,NA,
Attimis,ITA,City,Italy,Europe,33.24,GlobalCovenantofMayors2019;EUCovenantofMayors2019;NAZCA,3,46.189326,13.307128,1808,NA,Udine,
Atzeneta D'albaida,ESP,City,Spain,Europe,6.1,GlobalCovenantofMayors2019;NAZCA,2,38.8329111,-0.4971631,1175,2018,Valencia,Vall d'Albaida
Aubange,BEL,City,Belgium,Europe,45.6,GlobalCovenantofMayors2019;EUCovenantofMayors2019;NAZCA,3,49.5675296,5.804352,16400,NA,Luxembourg,Arlon
Aubel,BEL,City,Belgium,Europe,18.83,GlobalCovenantofMayors2019;NAZCA,2,50.7041498,5.8585553,4251,NA,Liège,Verviers
Auckland,NZL,City,New Zealand,East Asia and the Pacific,1102.9,GlobalCovenantofMayors2019;CDPCities2018;C40Cities2019;NAZCA,4,-36.8534664,174.7655514,1614400,2016,NA,
Augusta,ITA,City,Italy,Europe,142.7861487,GlobalCovenantofMayors2019;NAZCA,2,37.236936300000004,15.2196575,36305,2010,Syracuse,
"Augusta-Richmond County, GA",USA,City,United States of America,North America,672.1542048,GlobalCovenantofMayors2019;NAZCA,2,33.4709714,-81.9748428,201368,2010,Georgia,
"Augusta, GA",USA,City,United States of America,North America,NA,WeAreStillIn2019,1,33.46666667,-81.96666667,197166,NA,Georgia,"Augusta-Richmond County, GA"
